{"1309293242":{"lat":49.823725,"lon":21.1733035,"ts":"2024-08-21T10:38:16Z","tz":1,"tags":{"height":"12","leisure":"climbing","name":"Borówka Kapliczka","natural":"cliff","rock":"sandstone","source":"knowledge","sport":"climbing"}},"1309293243":{"lat":49.823588,"lon":21.1741531,"ts":"2024-08-21T10:38:16Z","tz":1,"tags":{"height":"8","leisure":"climbing","name":"Borówka Wschodnia","natural":"cliff","rock":"sandstone","source":"knowledge","sport":"climbing"}},"1309293244":{"lat":49.8236671,"lon":21.1738494,"ts":"2024-08-21T10:38:16Z","tz":1,"tags":{"height":"15","leisure":"climbing","name":"Borówka Okap","natural":"cliff","rock":"sandstone","source":"knowledge","sport":"climbing"}},"1309293245":{"lat":49.8236619,"lon":21.1736017,"ts":"2024-08-21T10:38:16Z","tz":1,"tags":{"height":"10","leisure":"climbing","name":"Borówka Niżna","natural":"cliff","rock":"sandstone","source":"knowledge","sport":"climbing"}},"1309293246":{"lat":49.8235799,"lon":21.1741798,"ts":"2024-08-21T10:38:16Z","tz":1,"tags":{"climbing:bolted":"yes","climbing:quality":"solid","climbing:rock":"limestone","climbing:sport":"yes","height":"8","name":"Borówka Wschodnia","natural":"bare_rock","rock":"sandstone","source":"knowledge","sport":"climbing"}},"1309293247":{"lat":49.8236694,"lon":21.1739151,"ts":"2024-08-21T10:49:40Z","tz":1,"tags":{"climbing:bolted":"yes","climbing:quality":"solid","climbing:rock":"limestone","climbing:sport":"yes","height":"16","name":"Borówka Okap","natural":"bare_rock","rock":"sandstone","source":"knowledge","sport":"climbing"}},"1309293248":{"lat":49.8236916,"lon":21.1736855,"ts":"2024-08-21T10:38:16Z","tz":1,"tags":{"climbing:bolted":"yes","climbing:quality":"solid","climbing:rock":"limestone","climbing:sport":"yes","height":"11","name":"Borówka Niżna","natural":"bare_rock","rock":"sandstone","source":"knowledge","sport":"climbing"}},"1309293249":{"lat":49.823725,"lon":21.1733035,"ts":"2024-08-21T10:38:16Z","tz":1,"tags":{"climbing:bolted":"yes","climbing:quality":"solid","climbing:rock":"limestone","climbing:sport":"yes","height":"13","name":"Borówkowa Kapliczka","natural":"bare_rock","rock":"sandstone","source":"knowledge","sport":"climbing"}},"1309295388":{"lat":49.8236259,"lon":21.1736783,"ts":"2024-08-21T10:49:40Z","tz":1,"tags":{"height":"15","leisure":"climbing","name":"Borówka Okap","natural":"cliff","rock":"sandstone","source":"knowledge","sport":"climbing"}},"1311694177":{"lat":49.7773624,"lon":21.4386176,"ts":"2024-08-28T06:43:04Z","tz":1,"tags":{"height":"6","leisure":"climbing","name":"Żółw","natural":"cliff","rock":"sandstone","source":"knowledge","sport":"climbing"}},"1311694178":{"lat":49.7772893,"lon":21.438587,"ts":"2024-08-28T06:43:04Z","tz":1,"tags":{"climbing:quality":"solid","climbing:rock":"limestone","climbing:sport":"yes","height":"6","name":"Żółw","natural":"bare_rock","rock":"sandstone","source":"knowledge","sport":"climbing"}},"1311694564":{"lat":49.7778265,"lon":21.4415048,"ts":"2024-08-28T06:47:03Z","tz":1,"tags":{"height":"12","leisure":"climbing","name":"Diabelska Przepaść","natural":"cliff","rock":"sandstone","source":"knowledge","sport":"climbing"}},"1311694565":{"lat":49.7778211,"lon":21.4414542,"ts":"2024-08-28T06:47:03Z","tz":1,"tags":{"climbing:bolted":"yes","climbing:quality":"solid","climbing:rock":"limestone","climbing:sport":"yes","height":"12","name":"Diabelska Przepaść","natural":"bare_rock","rock":"sandstone","source":"knowledge","sport":"climbing"}},"1311696019":{"lat":49.7772638,"lon":21.438942,"ts":"2024-08-28T06:57:46Z","tz":1,"tags":{"height":"10","leisure":"climbing","name":"Tomasz","natural":"cliff","rock":"sandstone","source":"knowledge","sport":"climbing"}},"1311696020":{"lat":49.7772174,"lon":21.4389158,"ts":"2024-08-28T06:57:46Z","tz":1,"tags":{"climbing:quality":"solid","climbing:rock":"limestone","climbing:sport":"yes","height":"10","name":"Tomasz","natural":"bare_rock","rock":"sandstone","source":"knowledge","sport":"climbing"}},"1311699023":{"lat":49.7787226,"lon":21.4412145,"ts":"2024-08-28T07:15:15Z","tz":1,"tags":{"height":"8","leisure":"climbing","name":"Strażnica","natural":"cliff","rock":"sandstone","source":"knowledge","sport":"climbing"}},"1311699024":{"lat":49.778725,"lon":21.4411926,"ts":"2024-08-28T07:15:15Z","tz":1,"tags":{"climbing:quality":"solid","climbing:rock":"limestone","climbing:sport":"yes","name":"Strażnica","natural":"bare_rock","rock":"sandstone","source":"knowledge","sport":"climbing"}}}