{"56683908":{"lat":51.7305635,"lon":8.7761169,"ts":"2016-09-21T07:35:17Z","tz":1,"tags":{"leisure":"sports_centre","man_made":"tower","name":"Drei Zinnen von Paderborn","sport":"climbing"}},"56683909":{"lat":51.7306674,"lon":8.7763759,"ts":"2023-03-22T19:46:10Z","tz":1,"tags":{"addr:city":"Paderborn","addr:country":"DE","addr:housename":"DAV-Haus","addr:housenumber":"2c","addr:postcode":"33100","addr:street":"Im Dörener Feld","building":"sports_centre","building:material":"brick","name":"Jugendausbildungsstätte DAV Sektion Paderborn","roof:shape":"gabled","sport":"climbing"}},"56683910":{"lat":51.7306574,"lon":8.7763091,"ts":"2012-05-12T18:20:42Z","tz":1,"tags":{"barrier":"fence","leisure":"sports_centre","name":"Deutscher Alpenverein Sektion Paderborn","sport":"climbing"}},"102265917":{"lat":51.6452269,"lon":8.7125708,"ts":"2019-11-27T06:28:59Z","tz":1,"tags":{"addr:city":"Borchen","addr:country":"DE","addr:housenumber":"32","addr:postcode":"33178","addr:street":"Nikolaus-Otto-Straße","building":"yes","leisure":"sports_centre","name":"Kletterhalle XI. Grad","phone":"+49 5251 184 38 60","roof:colour":"blue","roof:shape":"gabled","sport":"climbing","website":"https://www.elftergrad.de/"}},"638384743":{"lat":51.7397747,"lon":8.7346098,"ts":"2023-07-10T21:10:26Z","tz":1,"tags":{"addr:city":"Paderborn","addr:country":"DE","addr:housenumber":"79","addr:postcode":"33102","addr:street":"Dubelohstraße","old_name":"Kletterpark Paderborn","payment:cash":"yes","payment:credit_cards":"no","payment:cryptocurrencies":"no","payment:debit_cards":"no","payment:electronic_purses":"no","sport":"climbing","website":"https://kletterwald-paderborn.de/"}},"909438471":{"lat":51.744123,"lon":8.5095186,"ts":"2021-02-21T23:40:25Z","tz":1,"tags":{"access":"private","building":"yes","building:colour":"grey","building:material":"concrete","climbing:toprope":"yes","fee":"yes","leisure":"sports_centre","name":"Kletterturm Sudhagen","outdoor":"yes","roof:shape":"flat","sport":"climbing"}},"1061340625":{"lat":51.8028129,"lon":8.6899597,"ts":"2022-05-18T09:39:58Z","tz":1,"tags":{"access":"private","description":"Hochseilgarten","manufacturer":"-on-the-ropes-","sport":"climbing","start_date":"2017"}},"1578357281":{"lat":51.7225116,"lon":8.7258748,"ts":"2012-01-05T16:31:41Z","tz":1,"tags":{"climbing":"artificial_wall","sport":"climbing"}},"1738765433":{"lat":51.7181911,"lon":8.7542704,"ts":"2022-07-31T20:59:55Z","tz":1,"tags":{"sport":"climbing"}},"3166799964":{"lat":51.7168456,"lon":8.7769298,"ts":"2018-01-17T17:47:06Z","tz":1,"tags":{"addr:city":"Paderborn","addr:country":"DE","addr:housenumber":"17","addr:postcode":"33100","addr:street":"Schulze-Delitzsch-Straße","contact:email":"info@blocbuster.net","contact:phone":"+49 5251 8765787","leisure":"sports_centre","name":"BlocBuster Kletterhalle Paderborn","opening_hours":"Mo, We, Fr 14:00-22:00; Tu, Th, Sa, Su, PH 10:00-22:00","sport":"climbing","website":"http://www.blocbuster.net"}},"4815322400":{"lat":51.7388561,"lon":8.6819802,"ts":"2017-04-25T10:49:43Z","tz":1,"tags":{"sport":"climbing"}}}