{"11671473038":{"lat":10.5193449,"lon":107.1196442,"ts":"2024-02-28T04:50:31Z","tz":7,"tags":{"climbing":"boulder","name":"Summoners Rift"}},"11671473039":{"lat":10.5201819,"lon":107.1186984,"ts":"2024-02-28T04:50:31Z","tz":7,"tags":{"climbing":"boulder","name":"P-Boulder"}},"11671473040":{"lat":10.5200783,"lon":107.1189769,"ts":"2024-02-28T04:50:31Z","tz":7,"tags":{"climbing":"boulder","name":"Yellow Bees"}},"11671473041":{"lat":10.5197197,"lon":107.1177965,"ts":"2024-02-28T04:50:31Z","tz":7,"tags":{"climbing":"boulder","name":"Hunchback"}},"11671473042":{"lat":10.5180189,"lon":107.1204272,"ts":"2024-02-28T04:50:31Z","tz":7,"tags":{"climbing":"boulder","name":"Parking Lot"}}}