{"350945341":{"lat":46.0729652,"lon":12.3305213,"ts":"2016-06-24T19:17:45Z","tz":1,"tags":{"name":"Falesia di Nove","natural":"cliff","sport":"climbing"}},"1010000112":{"lat":46.0159411,"lon":12.6394051,"ts":"2024-04-19T11:12:52Z","tz":1,"tags":{"barrier":"wall","leisure":"sports_centre","name":"Scuola di Speleologia, Alpinismo ed Escursionismo del CAI","sport":"climbing"}},"1115171755":{"lat":46.0703588,"lon":12.512163,"ts":"2022-11-18T09:35:04Z","tz":1,"tags":{"height":"30","name":"Palestra di Roccia PICCOLA","natural":"cliff","sport":"climbing"}},"1736972651":{"lat":46.0701044,"lon":12.5122437,"ts":"2019-01-13T14:42:12Z","tz":1,"tags":{"name":"Palestra di Roccia PICCOLA","sport":"climbing"}},"9628949925":{"lat":46.0647164,"lon":12.5454584,"ts":"2022-04-01T12:55:54Z","tz":1,"tags":{"leisure":"sports_centre","sport":"climbing"}},"12017159907":{"lat":45.9441241,"lon":12.3406683,"ts":"2024-06-28T10:42:53Z","tz":1,"tags":{"addr:city":"Colle Umberto","addr:housenumber":"6","addr:postcode":"31014","addr:street":"Via Garibaldi","climbing:boulder:indoor":"yes","climbing:boulder:outdoor":"no","climbing:sport:indoor":"yes","climbing:sport:outdoor":"no","contact:facebook":"https://www.facebook.com/groups/32973834189","contact:phone":"+39 0438 394880","leisure":"sports_centre","name":"Ice Climbing Rock","sport":"climbing"}}}