{"170677228":{"lat":43.5847302,"lon":12.536143,"ts":"2015-08-14T10:09:29Z","tz":1,"tags":{"name":"Falesia Fosso Dell'Eremo","natural":"cliff","sport":"climbing"}},"170677229":{"lat":43.5847755,"lon":12.536402,"ts":"2016-05-01T19:56:08Z","tz":1,"tags":{"name":"Falesia Fosso Dell'Eremo","natural":"cliff","sport":"climbing"}},"170677230":{"lat":43.5840307,"lon":12.5356413,"ts":"2015-07-29T15:47:50Z","tz":1,"tags":{"name":"Falesia Fosso Dell'Eremo","natural":"cliff","sport":"climbing"}},"170771648":{"lat":43.5876167,"lon":12.5320736,"ts":"2015-07-29T15:48:40Z","tz":1,"tags":{"natural":"cliff","sport":"climbing"}},"362763795":{"lat":43.5941739,"lon":12.5508562,"ts":"2015-07-28T12:29:23Z","tz":1,"tags":{"name":"Le Rocche","natural":"cliff","sport":"climbing"}},"1017796604":{"lat":43.5876182,"lon":12.5321049,"ts":"2022-01-03T10:12:17Z","tz":1,"tags":{"leisure":"sports_centre","name":"Fosso dell'eremo","sport":"climbing"}},"4159880241":{"lat":43.5848042,"lon":12.5363128,"ts":"2016-05-01T19:56:08Z","tz":1,"tags":{"leisure":"sports_centre","name":"Palestra di roccia del Fosso dell'Eremo","sport":"climbing"}},"11207234363":{"lat":43.59728,"lon":12.543567,"ts":"2023-09-21T08:54:47Z","tz":1,"tags":{"leisure":"sports_centre","material":"limestone","name":"Falesia Balza della Penna","sport":"climbing"}}}