{"788317268":{"lat":22.2074583,"lon":114.1353243,"ts":"2020-10-11T03:10:32Z","tz":8,"tags":{"name":"Sok Kwu Crag","natural":"cliff","sport":"climbing"}},"4583627411":{"lat":22.2494652,"lon":114.167718,"ts":"2019-08-07T23:07:58Z","tz":8,"tags":{"climbing:boulder":"yes","fee":"yes","indoor":"yes","leisure":"sports_centre","name":"Attic V","sport":"climbing"}},"4876917297":{"lat":22.1999665,"lon":114.1361663,"ts":"2017-09-25T01:18:21Z","tz":8,"tags":{"climbing:boulder":"yes","name":"Lamma Boulders","natural":"rock","sport":"climbing"}},"4876917298":{"lat":22.1976294,"lon":114.134243,"ts":"2017-09-25T01:18:22Z","tz":8,"tags":{"climbing:boulder":"yes","name":"Lamma Boulders","natural":"rock","sport":"climbing"}},"5093437202":{"lat":22.2578053,"lon":114.1859158,"ts":"2020-08-24T19:31:47Z","tz":8,"tags":{"climbing:bolted":"yes","name":"Black Crag","natural":"rock","sport":"climbing"}},"5093460722":{"lat":22.213006,"lon":114.2025185,"ts":"2017-09-10T00:06:44Z","tz":8,"tags":{"climbing:boulder":"yes","name":"Chung Hom Kok - Beach Boulders","sport":"climbing"}},"5093460723":{"lat":22.2128113,"lon":114.2055928,"ts":"2017-09-10T00:06:44Z","tz":8,"tags":{"climbing:boulder":"yes","name":"Chung Hom Kok - Beach Boulders","sport":"climbing"}},"5093460724":{"lat":22.2149994,"lon":114.2013807,"ts":"2017-09-10T00:06:44Z","tz":8,"tags":{"climbing:boulder":"yes","name":"Chung Hom Kok Hillside Boulders","sport":"climbing"}},"5093460725":{"lat":22.2104028,"lon":114.1989554,"ts":"2017-09-10T00:06:44Z","tz":8,"tags":{"climbing:boulder":"yes","name":"Chung Hom Kok Coastline Boulders","sport":"climbing"}},"5093467732":{"lat":22.2582367,"lon":114.1865138,"ts":"2020-08-24T19:31:47Z","tz":8,"tags":{"climbing:trad":"yes","name":"Blacks Link","name:yue":"面具石","name:zh":"面具石","natural":"rock","sport":"climbing"}},"5093472849":{"lat":22.228377,"lon":114.2560043,"ts":"2017-09-10T00:24:29Z","tz":8,"tags":{"climbing:boulder":"yes","name":"Shek O - Village Boulders","sport":"climbing"}},"5104339112":{"lat":22.1930514,"lon":114.1254806,"ts":"2020-11-22T02:38:22Z","tz":8,"tags":{"climbing:bolted":"no","climbing:trad":"yes","name":"Mount Stenhouse","sport":"climbing"}},"5123173940":{"lat":22.2284856,"lon":113.977793,"ts":"2017-09-23T00:01:24Z","tz":8,"tags":{"name":"Eagle Crag","sport":"climbing"}},"5123173942":{"lat":22.2304014,"lon":113.9838545,"ts":"2020-01-11T13:30:54Z","tz":8,"tags":{"name":"Temple Crag","sport":"climbing"}},"5123173943":{"lat":22.2297385,"lon":113.9836561,"ts":"2020-01-11T13:30:54Z","tz":8,"tags":{"name":"Temple Crag","sport":"climbing"}},"5221462915":{"lat":22.2602851,"lon":114.1858944,"ts":"2020-08-26T07:11:39Z","tz":8,"tags":{"climbing:bolted":"yes","name":"Mt Nicholson Climbing Wall","name:yue":"攀石牆","name:zh":"攀石牆","natural":"cliff","sport":"climbing"}},"8196216732":{"lat":22.2281405,"lon":113.9843106,"ts":"2020-12-05T11:59:56Z","tz":8,"tags":{"name":"Temple South","sport":"climbing"}}}