{"1332806757":{"lat":40.813887,"lon":44.9068068,"ts":"2024-11-11T08:21:33Z","tz":4,"tags":{"check_date":"2024-11-09","climbing":"route","climbing:length":"5","highway":"footway","incline":"up","smoothness":"horrible","surface":"rock","trail_visibility":"horrible"}},"7081184052":{"lat":40.8248403,"lon":44.9550812,"ts":"2019-12-24T00:27:07Z","tz":4,"tags":{"climbing":"crag","climbing:routes":"7","name":"Shady Water Gully","natural":"cliff","sport":"climbing"}},"7081184053":{"lat":40.8248162,"lon":44.9549239,"ts":"2019-12-24T00:27:07Z","tz":4,"tags":{"climbing":"route","climbing:bolts":"9","climbing:grade:french":"6c","climbing:grade:yds_class":"5.11b","climbing:length":"22","climbing:sport":"yes","name":"Out of Jur"}},"7081184054":{"lat":40.8248205,"lon":44.9549343,"ts":"2019-12-24T00:27:07Z","tz":4,"tags":{"climbing":"route","climbing:bolts":"11","climbing:grade:french":"7c","climbing:grade:yds_class":"5.12d","climbing:length":"22","climbing:sport":"yes","name":"No Country for Vegans"}},"7081184055":{"lat":40.8248245,"lon":44.9549429,"ts":"2019-12-24T00:27:07Z","tz":4,"tags":{"climbing":"route","climbing:bolts":"9","climbing:grade:french":"7b","climbing:grade:yds_class":"5.12b","climbing:length":"22","climbing:sport":"yes","name":"Salad Fingers"}},"7081184056":{"lat":40.824828,"lon":44.9549528,"ts":"2019-12-24T00:27:07Z","tz":4,"tags":{"climbing":"route","climbing:bolts":"7","climbing:grade:french":"8b","climbing:grade:yds_class":"5.13d","climbing:length":"15","climbing:sport":"yes","name":"Flor"}},"7081184057":{"lat":40.8255438,"lon":44.9548516,"ts":"2019-12-24T00:27:07Z","tz":4,"tags":{"climbing":"route","climbing:bolts":"9","climbing:grade:french":"7a","climbing:grade:yds_class":"5.11d","climbing:length":"25","climbing:sport":"yes","name":"Pressure Pump"}},"7081184058":{"lat":40.8255497,"lon":44.9548533,"ts":"2019-12-24T00:27:07Z","tz":4,"tags":{"climbing":"route","climbing:bolts":"7","climbing:grade:french":"6b","climbing:grade:yds_class":"5.10c","climbing:length":"20","climbing:sport":"yes","name":"Drowning Ant Farm"}},"7081184059":{"lat":40.8255548,"lon":44.9548555,"ts":"2019-12-24T00:27:07Z","tz":4,"tags":{"climbing":"route","climbing:bolts":"7","climbing:grade:french":"6a","climbing:grade:yds_class":"5.10a","climbing:length":"25","climbing:sport":"yes","name":"Hydroponic Chilli Peppers"}},"7081184060":{"lat":40.8246819,"lon":44.952883,"ts":"2019-12-24T00:27:07Z","tz":4,"tags":{"climbing":"route","climbing:bolts":"8","climbing:grade:french":"7a","climbing:grade:yds_class":"5.11d","climbing:length":"15","climbing:sport":"yes","name":"Murder on the rocks"}},"7081184061":{"lat":40.8247005,"lon":44.9529406,"ts":"2019-12-24T00:27:07Z","tz":4,"tags":{"climbing":"route","climbing:bolts":"14","climbing:length":"25","climbing:sport":"yes","name":"PROJECT"}},"7081184062":{"lat":40.8246757,"lon":44.9529495,"ts":"2019-12-24T00:27:07Z","tz":4,"tags":{"climbing":"crag","climbing:routes":"2","name":"The Nest","natural":"cliff","sport":"climbing"}},"7081184063":{"lat":40.8218134,"lon":44.9599384,"ts":"2019-12-24T09:13:59Z","tz":4,"tags":{"climbing":"crag","climbing:routes":"13","name":"Empress Slabs","natural":"cliff","sport":"climbing"}},"7081184064":{"lat":40.8219359,"lon":44.959801,"ts":"2019-12-24T09:13:59Z","tz":4,"tags":{"climbing":"route","climbing:bolts":"9","climbing:grade:french":"5.12b","climbing:grade:yds_class":"7b","climbing:length":"20","climbing:sport":"yes","name":"Lichen My Whistle"}},"7081184065":{"lat":40.8219203,"lon":44.9598459,"ts":"2019-12-24T09:13:59Z","tz":4,"tags":{"climbing":"route","climbing:bolts":"2","climbing:grade:yds_class":"5.11","climbing:trad":"yes","name":"Seams Solid"}},"7081184066":{"lat":40.8219103,"lon":44.9598964,"ts":"2019-12-24T09:13:59Z","tz":4,"tags":{"climbing":"route","climbing:bolts":"15","climbing:grade:french":"7b+","climbing:grade:yds_class":"5.12c","climbing:length":"35","climbing:sport":"yes","name":"The Cat Ear Project"}},"7081184067":{"lat":40.8218971,"lon":44.9599415,"ts":"2019-12-24T09:13:59Z","tz":4,"tags":{"climbing":"route","climbing:bolts":"5","climbing:grade:french":"7c","climbing:grade:yds_class":"5.12d","climbing:length":"12","climbing:sport":"yes","name":"Bullet Through My Flow"}},"7081184068":{"lat":40.8218903,"lon":44.9599816,"ts":"2019-12-24T09:13:59Z","tz":4,"tags":{"climbing":"route","climbing:bolts":"8","climbing:grade:french":"7a+","climbing:grade:yds_class":"5.12a","climbing:length":"18","climbing:sport":"yes","name":"Knucks for Lucks"}},"7081184069":{"lat":40.8218772,"lon":44.9600138,"ts":"2019-12-24T09:13:59Z","tz":4,"tags":{"climbing":"route","climbing:bolts":"11","climbing:grade:french":"7a+","climbing:grade:yds_class":"5.12a","climbing:length":"20","climbing:sport":"yes","name":"Big Red Villis"}},"7081184070":{"lat":40.8218712,"lon":44.960056,"ts":"2019-12-24T09:13:59Z","tz":4,"tags":{"climbing":"route","climbing:bolts":"5","climbing:grade:french":"6a","climbing:grade:yds_class":"5.10a","climbing:length":"15","climbing:sport":"yes","name":"Mergelane"}},"7081184071":{"lat":40.8218619,"lon":44.9600986,"ts":"2019-12-24T09:13:59Z","tz":4,"tags":{"climbing":"route","climbing:bolts":"14","climbing:grade:french":"7a+","climbing:grade:yds_class":"5.12a","climbing:length":"22","climbing:sport":"yes","name":"The Passing Lane"}},"7081184072":{"lat":40.8218551,"lon":44.9601341,"ts":"2019-12-24T09:13:59Z","tz":4,"tags":{"climbing":"route","climbing:bolts":"8","climbing:grade:french":"6a+","climbing:grade:yds_class":"5.10b","climbing:length":"15","climbing:sport":"yes","name":"Highway to the Comfort Zone"}},"7081184073":{"lat":40.821835,"lon":44.9602066,"ts":"2019-12-24T09:13:59Z","tz":4,"tags":{"climbing":"route","climbing:bolts":"7","climbing:grade:french":"6c+","climbing:grade:yds_class":"5.11c","climbing:length":"15","climbing:sport":"yes","name":"Lil'Swolie"}},"7081184074":{"lat":40.8218297,"lon":44.9602403,"ts":"2019-12-24T09:13:59Z","tz":4,"tags":{"climbing":"route","climbing:bolts":"10","climbing:grade:french":"6b","climbing:grade:yds_class":"5.10d","climbing:length":"20","climbing:sport":"yes","name":"Pulling Shapes"}},"7081184075":{"lat":40.8218243,"lon":44.9602774,"ts":"2019-12-24T14:08:47Z","tz":4,"tags":{"climbing":"route","climbing:bolts":"11","climbing:grade:french":"5c","climbing:grade:yds_class":"5.9","climbing:length":"25","climbing:sport":"yes","name":"UWC Rocks"}},"7081184076":{"lat":40.8218453,"lon":44.9601719,"ts":"2019-12-24T09:13:59Z","tz":4,"tags":{"climbing":"route","climbing:pitches":"2","climbing:trad":"yes","name":"FFAFF Queens"}},"12330420662":{"lat":40.813853,"lon":44.9068111,"ts":"2024-12-06T07:48:38Z","tz":4,"tags":{"climbing":"route_bottom"}},"12330420663":{"lat":40.813921,"lon":44.9068024,"ts":"2024-12-06T07:48:38Z","tz":4,"tags":{"climbing":"route_top"}}}