{"4863949":{"lat":50.7299031,"lon":14.594367,"ts":"2015-08-15T12:22:05Z","tz":1,"tags":{"name":"Sloup a Svojkov","name:de":"Bürgstein und Schwoika","ref":"165","sport":"climbing","type":"site"}},"5765519":{"lat":50.602429,"lon":14.7083454,"ts":"2019-10-09T09:37:20Z","tz":1,"tags":{"name":"Kummerské pohoří","name:de":"Kummergebirge","ref":"213","sport":"climbing","type":"site"}},"580746561":{"lat":50.5261367,"lon":14.6849213,"ts":"2018-04-17T06:53:44Z","tz":1,"tags":{"name":"masiv Sion","natural":"cliff","sport":"climbing"}},"580746564":{"lat":50.5258166,"lon":14.6852983,"ts":"2018-04-17T06:53:45Z","tz":1,"tags":{"name":"Židova věž","natural":"cliff","sport":"climbing"}},"580746566":{"lat":50.5259706,"lon":14.6851306,"ts":"2018-04-17T06:53:45Z","tz":1,"tags":{"name":"masiv Choreb","natural":"cliff","sport":"climbing"}}}