{"431576151":{"lat":45.0003212,"lon":14.6961404,"ts":"2021-09-20T18:45:15Z","tz":1,"tags":{"climbing:grade:french:max":"6c","climbing:grade:french:min":"4c","climbing:length":"15","climbing:quality":"solid","climbing:rock":"limestone","climbing:routes":"9","climbing:sport":"yes","name":"Belove stene - Alo Alo","natural":"cliff","sport":"climbing"}},"630162454":{"lat":45.0176038,"lon":14.680155,"ts":"2021-09-21T15:44:43Z","tz":1,"tags":{"climbing:length:max":"40","climbing:length:min":"8","climbing:orientation":"NE","climbing:quality":"solid","climbing:rock":"limestone","climbing:routes":"69","climbing:sport":"yes","name":"Portafortuna","natural":"cliff","sport":"climbing"}},"969488949":{"lat":45.0199312,"lon":14.6793331,"ts":"2021-09-21T15:44:43Z","tz":1,"tags":{"height":"30","name":"Portafurtuna (Sector E/Duck)","natural":"cliff","sport":"climbing"}},"1242294699":{"lat":44.9812784,"lon":14.7440753,"ts":"2024-01-23T18:36:23Z","tz":1,"tags":{"climbing":"crag","climbing:grade:french:max":"6c","climbing:grade:french:min":"5b","climbing:sport":"yes","name":"Jurandvor","natural":"cliff","sport":"climbing"}},"4217520571":{"lat":44.9507763,"lon":14.7533532,"ts":"2022-05-08T20:28:20Z","tz":1,"tags":{"fee":"no","name":"Bag","sport":"climbing"}},"8971668196":{"lat":45.0192718,"lon":14.6798623,"ts":"2021-08-01T10:26:40Z","tz":1,"tags":{"leisure":"sports_centre","name":"Dwarfs","sport":"climbing"}},"9725385135":{"lat":44.9540775,"lon":14.7480748,"ts":"2024-08-29T09:47:33Z","tz":1,"tags":{"name":"Ljubimer","sport":"climbing"}}}