{"17607176":{"lat":49.9948486,"lon":13.1572683,"ts":"2024-05-18T08:59:52Z","tz":1,"tags":{"climbing":"crag","name":"Schovanka","site":"climbing","sport":"climbing","type":"site","website":"https://www.horosvaz.cz/skaly-skala-1063/"}},"17607180":{"lat":49.9948352,"lon":13.1571543,"ts":"2024-05-18T09:01:35Z","tz":1,"tags":{"climbing":"crag","name":"Věžička pod Schovankou","site":"climbing","sport":"climbing","type":"site","website":"https://www.horosvaz.cz/skaly-skala-18102/"}},"17607189":{"lat":49.9951028,"lon":13.1571742,"ts":"2024-05-18T09:09:13Z","tz":1,"tags":{"climbing":"crag","name":"Převislá","site":"climbing","sport":"climbing","type":"site","website":"https://www.horosvaz.cz/skaly-skala-1061/"}},"17607191":{"lat":49.9940974,"lon":13.1580754,"ts":"2024-05-18T09:10:07Z","tz":1,"tags":{"climbing":"crag","name":"Magnéziová stěna","site":"climbing","sport":"climbing","type":"site","website":"https://www.horosvaz.cz/skaly-skala-13915/"}},"17607193":{"lat":49.994166,"lon":13.1574531,"ts":"2024-05-18T09:11:37Z","tz":1,"tags":{"climbing":"crag","name":"Nečtinská jehla","site":"climbing","sport":"climbing","type":"site","website":"https://www.horosvaz.cz/skaly-skala-4189/"}},"17607194":{"lat":49.9943043,"lon":13.1568878,"ts":"2024-05-18T09:12:04Z","tz":1,"tags":{"climbing":"crag","name":"Atentát","site":"climbing","sport":"climbing","type":"site","website":"https://www.horosvaz.cz/skaly-skala-13913/"}},"17607195":{"lat":49.9940974,"lon":13.1567631,"ts":"2024-05-18T09:12:35Z","tz":1,"tags":{"climbing":"crag","name":"Vejce Dinosaura","site":"climbing","sport":"climbing","type":"site","website":"https://www.horosvaz.cz/skaly-skala-18103/"}},"17607196":{"lat":49.9940519,"lon":13.1568442,"ts":"2024-05-18T09:12:51Z","tz":1,"tags":{"climbing":"crag","name":"Masák","site":"climbing","sport":"climbing","type":"site","website":"https://www.horosvaz.cz/skaly-skala-18104/"}},"17607198":{"lat":49.9959923,"lon":13.1569592,"ts":"2024-05-18T09:14:28Z","tz":1,"tags":{"climbing":"crag","name":"Myší díra","site":"climbing","sport":"climbing","type":"site","website":"https://www.horosvaz.cz/skaly-skala-1055/"}},"17607200":{"lat":49.9942054,"lon":13.157577,"ts":"2024-05-18T09:15:45Z","tz":1,"tags":{"climbing":"crag","name":"Doubravická stěna","site":"climbing","sport":"climbing","type":"site","website":"https://www.horosvaz.cz/skaly-skala-4174/"}},"17612020":{"lat":50.0203256,"lon":13.3007298,"ts":"2024-05-19T20:45:47Z","tz":1,"tags":{"climbing":"crag","name":"Vyhlídková skála u Kozičkova mlýna","site":"climbing","sport":"climbing","type":"site","website":"https://www.horosvaz.cz/skaly-skala-17489/"}},"17613766":{"lat":49.9957168,"lon":13.1569658,"ts":"2024-05-20T09:30:45Z","tz":1,"tags":{"climbing":"crag","name":"Stěny","site":"climbing","sport":"climbing","type":"site","website":"https://www.horosvaz.cz/skaly-skala-1056/"}},"17613783":{"lat":49.9935594,"lon":13.1597672,"ts":"2024-05-20T09:31:32Z","tz":1,"tags":{"climbing":"crag","name":"Opomenutá stěna","site":"climbing","sport":"climbing","type":"site","website":"https://www.horosvaz.cz/skaly-skala-1066/"}},"17613785":{"lat":49.9936237,"lon":13.1596769,"ts":"2024-05-20T09:31:48Z","tz":1,"tags":{"climbing":"crag","name":"Strážce","site":"climbing","sport":"climbing","type":"site","website":"https://www.horosvaz.cz/skaly-skala-1065/"}},"17613787":{"lat":49.9932508,"lon":13.160835,"ts":"2024-05-20T09:32:12Z","tz":1,"tags":{"climbing":"crag","name":"Sluneční skála","site":"climbing","sport":"climbing","type":"site","website":"https://www.horosvaz.cz/skaly-skala-1068/"}},"17613788":{"lat":49.9938504,"lon":13.1627507,"ts":"2024-05-20T09:32:44Z","tz":1,"tags":{"climbing":"crag","name":"Cestář","site":"climbing","sport":"climbing","type":"site","website":"https://www.horosvaz.cz/skaly-skala-4179/"}},"17613789":{"lat":49.9936662,"lon":13.1619507,"ts":"2024-05-20T09:33:09Z","tz":1,"tags":{"climbing":"crag","name":"Cestářka","site":"climbing","sport":"climbing","type":"site","website":"https://www.horosvaz.cz/skaly-skala-6321/"}},"17613790":{"lat":49.9954365,"lon":13.1571945,"ts":"2024-05-20T09:33:54Z","tz":1,"tags":{"climbing":"crag","name":"Kukačka","site":"climbing","sport":"climbing","type":"site","website":"https://www.horosvaz.cz/skaly-skala-4170/"}},"17613793":{"lat":49.9955607,"lon":13.1691584,"ts":"2024-05-20T09:36:41Z","tz":1,"tags":{"climbing":"crag","name":"Hlava","site":"climbing","sport":"climbing","type":"site","website":"https://www.horosvaz.cz/skaly-skala-4186/"}},"17613795":{"lat":49.995247,"lon":13.1686985,"ts":"2024-05-20T09:37:25Z","tz":1,"tags":{"climbing":"crag","name":"Střecha","site":"climbing","sport":"climbing","type":"site","website":"https://www.horosvaz.cz/skaly-skala-1083/"}},"17613796":{"lat":49.9951937,"lon":13.1685267,"ts":"2024-05-20T09:38:16Z","tz":1,"tags":{"climbing":"crag","name":"Svině","site":"climbing","sport":"climbing","type":"site","website":"https://www.horosvaz.cz/skaly-skala-1082/"}},"17614071":{"lat":49.9973854,"lon":13.1720534,"ts":"2024-05-20T11:10:21Z","tz":1,"tags":{"climbing":"crag","name":"Ztracená","site":"climbing","sport":"climbing","type":"site","website":"https://www.horosvaz.cz/skaly-skala-4162/"}},"17615549":{"lat":49.9963265,"lon":13.171317,"ts":"2024-05-20T20:13:41Z","tz":1,"tags":{"climbing":"crag","name":"Manětinské věže","site":"climbing","sport":"climbing","type":"site","website":"https://www.horosvaz.cz/skaly-skala-1086/"}},"17615550":{"lat":49.996325,"lon":13.1711369,"ts":"2024-05-20T20:15:06Z","tz":1,"tags":{"climbing":"crag","name":"Dravá věž","site":"climbing","sport":"climbing","type":"site","website":"https://www.horosvaz.cz/skaly-skala-4188/"}},"17615555":{"lat":49.9949343,"lon":13.1664912,"ts":"2024-05-20T20:16:37Z","tz":1,"tags":{"climbing":"crag","name":"Špičák","site":"climbing","sport":"climbing","type":"site","website":"https://www.horosvaz.cz/skaly-skala-4183/"}},"17617787":{"lat":49.9932377,"lon":13.1606143,"ts":"2024-05-21T06:20:59Z","tz":1,"tags":{"climbing":"crag","name":"Plzeňská věž","site":"climbing","sport":"climbing","type":"site","website":"https://www.horosvaz.cz/skaly-skala-4175/"}},"17617914":{"lat":49.9933259,"lon":13.1605748,"ts":"2024-05-21T06:58:14Z","tz":1,"tags":{"climbing":"crag","name":"Prumptlík","site":"climbing","sport":"climbing","type":"site","website":"https://www.horosvaz.cz/skaly-skala-4176/"}},"17617922":{"lat":49.996715,"lon":13.1697112,"ts":"2024-05-21T07:01:23Z","tz":1,"tags":{"climbing":"crag","name":"Houbová skála","site":"climbing","sport":"climbing","type":"site","website":"https://www.horosvaz.cz/skaly-skala-4165/"}},"17618677":{"lat":49.9966951,"lon":13.1666053,"ts":"2024-05-21T10:16:54Z","tz":1,"tags":{"climbing":"crag","name":"Bochánek","site":"climbing","sport":"climbing","type":"site","website":"https://www.horosvaz.cz/skaly-skala-1047/"}},"17623897":{"lat":49.9948004,"lon":13.1655092,"ts":"2024-05-22T07:34:43Z","tz":1,"tags":{"climbing":"crag","name":"Poradní skála","site":"climbing","sport":"climbing","type":"site","website":"https://www.horosvaz.cz/skaly-skala-9409/"}},"17623898":{"lat":49.99476,"lon":13.1654,"ts":"2024-05-22T07:35:01Z","tz":1,"tags":{"climbing":"crag","name":"Muchomůrka","site":"climbing","sport":"climbing","type":"site","website":"https://www.horosvaz.cz/skaly-skala-1074/"}},"17623900":{"lat":49.9949117,"lon":13.1664141,"ts":"2024-05-22T07:36:07Z","tz":1,"tags":{"climbing":"crag","name":"Borová","site":"climbing","sport":"climbing","type":"site","website":"https://www.horosvaz.cz/skaly-skala-9551/"}},"17624899":{"lat":49.9965251,"lon":13.1669548,"ts":"2024-05-22T14:00:16Z","tz":1,"tags":{"climbing":"crag","name":"Dračí sluj","site":"climbing","sport":"climbing","type":"site","website":"https://www.horosvaz.cz/skaly-skala-9473/"}},"17624907":{"lat":49.9965241,"lon":13.1668602,"ts":"2024-05-22T14:00:48Z","tz":1,"tags":{"climbing":"crag","name":"Sedmdesátka","site":"climbing","sport":"climbing","type":"site","website":"https://www.horosvaz.cz/skaly-skala-4167/"}},"17624910":{"lat":49.996579,"lon":13.1672084,"ts":"2024-05-22T14:03:04Z","tz":1,"tags":{"climbing":"crag","name":"Mušle","site":"climbing","sport":"climbing","type":"site","website":"https://www.horosvaz.cz/skaly-skala-1058/"}},"17624911":{"lat":49.9966178,"lon":13.1678116,"ts":"2024-05-22T14:03:37Z","tz":1,"tags":{"climbing":"crag","name":"Borůvková skála","site":"climbing","sport":"climbing","type":"site","website":"https://www.horosvaz.cz/skaly-skala-1057/"}},"17624912":{"lat":49.996539,"lon":13.1684277,"ts":"2024-05-22T14:03:56Z","tz":1,"tags":{"climbing":"crag","name":"Smaragdová stěna","site":"climbing","sport":"climbing","type":"site","website":"https://www.horosvaz.cz/skaly-skala-4169/"}},"17624913":{"lat":49.996545,"lon":13.1686487,"ts":"2024-05-22T14:04:18Z","tz":1,"tags":{"climbing":"crag","name":"Vyhlídková skála","site":"climbing","sport":"climbing","type":"site","website":"https://www.horosvaz.cz/skaly-skala-1052/"}},"17624915":{"lat":49.9968939,"lon":13.1698763,"ts":"2024-05-22T14:04:48Z","tz":1,"tags":{"climbing":"crag","name":"Nanuk","site":"climbing","sport":"climbing","type":"site","website":"https://www.horosvaz.cz/skaly-skala-4164/"}},"17624918":{"lat":49.9974919,"lon":13.1732541,"ts":"2024-05-22T14:05:48Z","tz":1,"tags":{"climbing":"crag","name":"Nos","site":"climbing","sport":"climbing","type":"site","website":"https://www.horosvaz.cz/skaly-skala-4187/"}},"17624962":{"lat":49.9975976,"lon":13.1732811,"ts":"2024-05-22T14:06:23Z","tz":1,"tags":{"climbing":"crag","name":"Náhrobek","site":"climbing","sport":"climbing","type":"site","website":"https://www.horosvaz.cz/skaly-skala-1087/"}},"17624974":{"lat":49.9956864,"lon":13.1697334,"ts":"2024-05-22T14:13:08Z","tz":1,"tags":{"climbing":"crag","name":"Dřevorubecká věž","site":"climbing","sport":"climbing","type":"site","website":"https://www.horosvaz.cz/skaly-skala-1085/"}},"17624981":{"lat":49.9956789,"lon":13.1694123,"ts":"2024-05-22T14:15:46Z","tz":1,"tags":{"climbing":"crag","name":"Neobjevená","site":"climbing","sport":"climbing","type":"site","website":"https://www.horosvaz.cz/skaly-skala-19591/"}},"17624982":{"lat":49.9943812,"lon":13.1575169,"ts":"2024-05-22T14:16:33Z","tz":1,"tags":{"climbing":"crag","name":"Sloupek","site":"climbing","sport":"climbing","type":"site","website":"https://www.horosvaz.cz/skaly-skala-1064/"}},"17625010":{"lat":49.9605146,"lon":13.1601111,"ts":"2024-05-22T14:39:38Z","tz":1,"tags":{"climbing":"crag","name":"Nečtinská stěna","site":"climbing","sport":"climbing","type":"site","website":"https://www.horosvaz.cz/skaly-skala-17634/"}},"17625114":{"lat":49.9931082,"lon":13.1602629,"ts":"2024-05-22T15:28:31Z","tz":1,"tags":{"climbing":"crag","name":"Stěna pod Májovou","site":"climbing","sport":"climbing","type":"site","website":"https://www.horosvaz.cz/skaly-skala-13726/"}},"17625115":{"lat":49.9931325,"lon":13.1602613,"ts":"2024-05-22T15:29:05Z","tz":1,"tags":{"climbing":"crag","name":"Májová","site":"climbing","sport":"climbing","type":"site","website":"https://www.horosvaz.cz/skaly-skala-1067/"}},"17625123":{"lat":49.9936202,"lon":13.1618417,"ts":"2024-05-22T15:29:53Z","tz":1,"tags":{"climbing":"crag","name":"Višňová","site":"climbing","sport":"climbing","type":"site","website":"https://www.horosvaz.cz/skaly-skala-4178/"}},"17625127":{"lat":49.9936078,"lon":13.1618335,"ts":"2024-05-22T15:31:15Z","tz":1,"tags":{"climbing":"crag","name":"Široká","site":"climbing","sport":"climbing","type":"site","website":"https://www.horosvaz.cz/skaly-skala-1073/"}},"17626012":{"lat":49.9948677,"lon":13.1658798,"ts":"2024-05-22T20:24:15Z","tz":1,"tags":{"climbing":"crag","name":"Nesmek","site":"climbing","sport":"climbing","type":"site","website":"https://www.horosvaz.cz/skaly-skala-1054/"}},"17626020":{"lat":49.9951583,"lon":13.1671592,"ts":"2024-05-22T20:25:05Z","tz":1,"tags":{"climbing":"crag","name":"Jezinka","site":"climbing","sport":"climbing","type":"site","website":"https://www.horosvaz.cz/skaly-skala-1080/"}},"17626021":{"lat":49.9966282,"lon":13.1688574,"ts":"2024-05-22T20:25:56Z","tz":1,"tags":{"climbing":"crag","name":"Jalovcová skála","site":"climbing","sport":"climbing","type":"site","website":"https://www.horosvaz.cz/skaly-skala-4166/"}},"17626022":{"lat":49.9966605,"lon":13.1688582,"ts":"2024-05-22T20:26:29Z","tz":1,"tags":{"climbing":"crag","name":"Zakrslík","site":"climbing","sport":"climbing","type":"site","website":"https://www.horosvaz.cz/skaly-skala-1051/"}},"17626028":{"lat":49.996684,"lon":13.1698564,"ts":"2024-05-22T20:27:17Z","tz":1,"tags":{"climbing":"crag","name":"Severka","site":"climbing","sport":"climbing","type":"site","website":"https://www.horosvaz.cz/skaly-skala-9407/"}},"17626034":{"lat":49.9933017,"lon":13.161329,"ts":"2024-05-22T20:29:38Z","tz":1,"tags":{"climbing":"crag","name":"Zbrojnoš","site":"climbing","sport":"climbing","type":"site","website":"https://www.horosvaz.cz/skaly-skala-1071/"}},"17626035":{"lat":49.9941152,"lon":13.156873,"ts":"2024-05-22T20:32:42Z","tz":1,"tags":{"climbing":"crag","name":"Jezevčí skála","site":"climbing","sport":"climbing","type":"site","website":"https://www.horosvaz.cz/skaly-skala-13912/"}},"17626037":{"lat":49.9959286,"lon":13.1568373,"ts":"2024-05-22T20:33:40Z","tz":1,"tags":{"climbing":"crag","name":"Vlčí zub","site":"climbing","sport":"climbing","type":"site","website":"https://www.horosvaz.cz/skaly-skala-4168/"}},"17631807":{"lat":49.9941266,"lon":13.156875,"ts":"2024-05-24T08:13:24Z","tz":1,"tags":{"climbing":"crag","name":"Garyk","site":"climbing","sport":"climbing","type":"site","website":"https://www.horosvaz.cz/skaly-skala-13914/"}},"11915159055":{"lat":49.9940668,"lon":13.1575908,"ts":"2024-05-18T09:15:45Z","tz":1,"tags":{"climbing":"route_bottom","climbing:grade:uiaa":"4","name":"Vstupní","sport":"climbing","website":"https://www.horosvaz.cz/skaly-cesta-75526/"}},"11915159056":{"lat":49.9940788,"lon":13.1575896,"ts":"2024-05-18T09:15:45Z","tz":1,"tags":{"climbing":"route_bottom","climbing:grade:uiaa":"3+","name":"Hladová","sport":"climbing","website":"https://www.horosvaz.cz/skaly-cesta-12933/"}},"11915159057":{"lat":49.9940909,"lon":13.1575884,"ts":"2024-05-18T09:15:45Z","tz":1,"tags":{"climbing":"route_bottom","climbing:grade:uiaa":"3","name":"Polopanenská","sport":"climbing","website":"https://www.horosvaz.cz/skaly-cesta-12934/"}},"11915159058":{"lat":49.9941029,"lon":13.1575872,"ts":"2024-05-18T09:15:45Z","tz":1,"tags":{"climbing":"route_bottom","climbing:grade:uiaa":"4-","name":"Panenská","sport":"climbing","website":"https://www.horosvaz.cz/skaly-cesta-12935/"}},"11915159059":{"lat":49.994115,"lon":13.157586,"ts":"2024-05-18T09:15:45Z","tz":1,"tags":{"climbing":"route_bottom","climbing:grade:uiaa":"5+","name":"Babiččina","sport":"climbing","website":"https://www.horosvaz.cz/skaly-cesta-12936/"}},"11915159060":{"lat":49.994127,"lon":13.1575848,"ts":"2024-05-18T09:15:45Z","tz":1,"tags":{"climbing":"route_bottom","climbing:grade:uiaa":"5+","name":"Nástupová varianta","sport":"climbing","website":"https://www.horosvaz.cz/skaly-cesta-75525/"}},"11915159061":{"lat":49.9941391,"lon":13.1575836,"ts":"2024-05-18T09:15:45Z","tz":1,"tags":{"climbing":"route_bottom","climbing:grade:uiaa":"5+","name":"Slavojova","sport":"climbing","website":"https://www.horosvaz.cz/skaly-cesta-12937/"}},"11915159062":{"lat":49.9941511,"lon":13.1575824,"ts":"2024-05-18T09:15:45Z","tz":1,"tags":{"climbing":"route_bottom","climbing:grade:uiaa":"6+","name":"Cesta pro Vildu","sport":"climbing","website":"https://www.horosvaz.cz/skaly-cesta-114233/"}},"11915159063":{"lat":49.9941632,"lon":13.1575812,"ts":"2024-05-18T09:15:45Z","tz":1,"tags":{"climbing":"route_bottom","climbing:grade:uiaa":"5","name":"Ukradená","sport":"climbing","website":"https://www.horosvaz.cz/skaly-cesta-12938/"}},"11915159064":{"lat":49.9941752,"lon":13.15758,"ts":"2024-05-18T09:15:45Z","tz":1,"tags":{"climbing":"route_bottom","climbing:grade:uiaa":"6-","name":"Cesta tří přátel","sport":"climbing","website":"https://www.horosvaz.cz/skaly-cesta-12939/"}},"11915159065":{"lat":49.9941873,"lon":13.1575788,"ts":"2024-05-18T09:15:45Z","tz":1,"tags":{"climbing":"route_bottom","climbing:grade:uiaa":"3","name":"Přátelská","sport":"climbing","website":"https://www.horosvaz.cz/skaly-cesta-12941/"}},"11915159066":{"lat":49.9941994,"lon":13.1575776,"ts":"2024-05-18T09:15:45Z","tz":1,"tags":{"climbing":"route_bottom","climbing:grade:uiaa":"5+","name":"Cesta slaměného vdovce","sport":"climbing","website":"https://www.horosvaz.cz/skaly-cesta-12940/"}},"11915159067":{"lat":49.9942114,"lon":13.1575764,"ts":"2024-05-18T09:15:45Z","tz":1,"tags":{"climbing":"route_bottom","climbing:grade:uiaa":"6-","name":"Žíznivá","sport":"climbing","website":"https://www.horosvaz.cz/skaly-cesta-12943/"}},"11915159068":{"lat":49.9942235,"lon":13.1575752,"ts":"2024-05-18T09:15:45Z","tz":1,"tags":{"climbing":"route_bottom","climbing:grade:uiaa":"6+","name":"Žíznivá varianta","sport":"climbing","website":"https://www.horosvaz.cz/skaly-cesta-12942/"}},"11915163325":{"lat":49.9940824,"lon":13.1567867,"ts":"2024-05-18T09:12:35Z","tz":1,"tags":{"climbing":"route_bottom","climbing:grade:uiaa":"7/7+","name":"Vetřelec","sport":"climbing","website":"https://www.horosvaz.cz/skaly-cesta-109370/"}},"11915163326":{"lat":49.9940925,"lon":13.156771,"ts":"2024-05-18T09:12:35Z","tz":1,"tags":{"climbing":"route_bottom","climbing:grade:uiaa":"6+","name":"Západní hrana","sport":"climbing","website":"https://www.horosvaz.cz/skaly-cesta-109369/"}},"11915163327":{"lat":49.9941025,"lon":13.1567552,"ts":"2024-05-18T09:12:35Z","tz":1,"tags":{"climbing":"route_bottom","climbing:grade:uiaa":"4+","name":"Levá cesta","sport":"climbing","website":"https://www.horosvaz.cz/skaly-cesta-109372/"}},"11915163328":{"lat":49.9941125,"lon":13.1567395,"ts":"2024-05-18T09:12:35Z","tz":1,"tags":{"climbing":"route_bottom","climbing:grade:uiaa":"4","name":"Bříško z mechu","sport":"climbing","website":"https://www.horosvaz.cz/skaly-cesta-109371/"}},"11915608461":{"lat":49.994834,"lon":13.1571317,"ts":"2024-05-18T09:01:35Z","tz":1,"tags":{"climbing":"route_bottom","climbing:grade:uiaa":"6+","name":"SZ přímo","sport":"climbing","website":"https://www.horosvaz.cz/skaly-cesta-109366/"}},"11915608462":{"lat":49.9948366,"lon":13.1571394,"ts":"2024-05-18T09:01:35Z","tz":1,"tags":{"climbing":"route_bottom","climbing:grade:uiaa":"6-","name":"SZ levá","sport":"climbing","website":"https://www.horosvaz.cz/skaly-cesta-109365/"}},"11915608463":{"lat":49.9948338,"lon":13.1571768,"ts":"2024-05-18T09:01:35Z","tz":1,"tags":{"climbing":"route_bottom","climbing:grade:uiaa":"2","name":"Náhorní","sport":"climbing","website":"https://www.horosvaz.cz/skaly-cesta-109367/"}},"11915624284":{"lat":49.9943026,"lon":13.1568376,"ts":"2024-05-18T09:12:04Z","tz":1,"tags":{"climbing":"route_bottom","climbing:grade:uiaa":"3+","name":"Mezi oči","sport":"climbing","website":"https://www.horosvaz.cz/skaly-cesta-75533/"}},"11915624285":{"lat":49.9943035,"lon":13.1568627,"ts":"2024-05-18T09:12:04Z","tz":1,"tags":{"climbing":"route_bottom","climbing:grade:uiaa":"5","name":"V tank","sport":"climbing","website":"https://www.horosvaz.cz/skaly-cesta-75532/"}},"11915624286":{"lat":49.9943043,"lon":13.1568878,"ts":"2024-05-18T09:12:04Z","tz":1,"tags":{"climbing":"route_bottom","climbing:grade:uiaa":"5","name":"Do tanku","sport":"climbing","website":"https://www.horosvaz.cz/skaly-cesta-75531/"}},"11915624287":{"lat":49.9943052,"lon":13.1569129,"ts":"2024-05-18T09:12:04Z","tz":1,"tags":{"climbing":"route_bottom","climbing:grade:uiaa":"6+","name":"Rozborka tanku","sport":"climbing","website":"https://www.horosvaz.cz/skaly-cesta-75530/"}},"11915624288":{"lat":49.994306,"lon":13.156938,"ts":"2024-05-18T09:12:04Z","tz":1,"tags":{"climbing":"route_bottom","climbing:grade:uiaa":"3","name":"Levá hrana","sport":"climbing","website":"https://www.horosvaz.cz/skaly-cesta-75529/"}},"11915630636":{"lat":49.9940513,"lon":13.1568771,"ts":"2024-05-18T09:12:51Z","tz":1,"tags":{"climbing":"route_bottom","climbing:grade:uiaa":"6-","name":"Šikmá spára","sport":"climbing","website":"https://www.horosvaz.cz/skaly-cesta-109376/"}},"11915630637":{"lat":49.9940517,"lon":13.1568552,"ts":"2024-05-18T09:12:51Z","tz":1,"tags":{"climbing":"route_bottom","climbing:grade:uiaa":"7","name":"Covid boulder","sport":"climbing","website":"https://www.horosvaz.cz/skaly-cesta-109375/"}},"11915630638":{"lat":49.9940521,"lon":13.1568332,"ts":"2024-05-18T09:12:51Z","tz":1,"tags":{"climbing":"route_bottom","climbing:grade:uiaa":"6+","name":"Lezem, žijem, fernet pijem","sport":"climbing","website":"https://www.horosvaz.cz/skaly-cesta-109374/"}},"11915630639":{"lat":49.9940526,"lon":13.1568113,"ts":"2024-05-18T09:12:51Z","tz":1,"tags":{"climbing":"route_bottom","climbing:grade:uiaa":"5","name":"Kuní kout","sport":"climbing","website":"https://www.horosvaz.cz/skaly-cesta-109373/"}},"11915631453":{"lat":49.9959826,"lon":13.1568209,"ts":"2024-05-18T09:14:28Z","tz":1,"tags":{"climbing":"route_bottom","climbing:grade:uiaa":"8","name":"Fialový brejle","sport":"climbing","website":"https://www.horosvaz.cz/skaly-cesta-70719/"}},"11915631454":{"lat":49.9959839,"lon":13.1568407,"ts":"2024-05-18T09:14:28Z","tz":1,"tags":{"climbing":"route_bottom","climbing:grade:uiaa":"7","name":"Spojovací varianta","sport":"climbing","website":"https://www.horosvaz.cz/skaly-cesta-70718/"}},"11915631455":{"lat":49.9959853,"lon":13.1568604,"ts":"2024-05-18T09:14:28Z","tz":1,"tags":{"climbing":"route_bottom","climbing:grade:uiaa":"6+","name":"Kouzelná","sport":"climbing","website":"https://www.horosvaz.cz/skaly-cesta-12799/"}},"11915631456":{"lat":49.9959867,"lon":13.1568802,"ts":"2024-05-18T09:14:28Z","tz":1,"tags":{"climbing":"route_bottom","climbing:grade:uiaa":"6","name":"Magické oko","sport":"climbing","website":"https://www.horosvaz.cz/skaly-cesta-70717/"}},"11915631457":{"lat":49.9959881,"lon":13.1569,"ts":"2024-05-18T09:14:28Z","tz":1,"tags":{"climbing":"route_bottom","climbing:grade:uiaa":"4+","name":"Zapomenuty koutek","sport":"climbing","website":"https://www.horosvaz.cz/skaly-cesta-70716/"}},"11915631458":{"lat":49.9959894,"lon":13.1569197,"ts":"2024-05-18T09:14:28Z","tz":1,"tags":{"climbing":"route_bottom","climbing:grade:uiaa":"4","name":"Velbloud","sport":"climbing","website":"https://www.horosvaz.cz/skaly-cesta-12801/"}},"11915631459":{"lat":49.9959908,"lon":13.1569395,"ts":"2024-05-18T09:14:28Z","tz":1,"tags":{"climbing":"route_bottom","climbing:grade:uiaa":"7","name":"Hulbul","sport":"climbing","website":"https://www.horosvaz.cz/skaly-cesta-70715/"}},"11915631460":{"lat":49.9959922,"lon":13.1569592,"ts":"2024-05-18T09:14:28Z","tz":1,"tags":{"climbing":"route_bottom","climbing:grade:uiaa":"5","name":"Dvojspára","sport":"climbing","website":"https://www.horosvaz.cz/skaly-cesta-12800/"}},"11915631461":{"lat":49.9959936,"lon":13.156979,"ts":"2024-05-18T09:14:28Z","tz":1,"tags":{"climbing":"route_bottom","climbing:grade:uiaa":"6+","name":"Agent orange","sport":"climbing","website":"https://www.horosvaz.cz/skaly-cesta-12802/"}},"11915631462":{"lat":49.995995,"lon":13.1569988,"ts":"2024-05-18T09:14:28Z","tz":1,"tags":{"climbing":"route_bottom","climbing:grade:uiaa":"6+","name":"Těžká spára","sport":"climbing","website":"https://www.horosvaz.cz/skaly-cesta-12803/"}},"11915631463":{"lat":49.9959963,"lon":13.1570185,"ts":"2024-05-18T09:14:28Z","tz":1,"tags":{"climbing":"route_bottom","climbing:grade:uiaa":"7-","name":"Prima varianta","sport":"climbing","website":"https://www.horosvaz.cz/skaly-cesta-70714/"}},"11915631464":{"lat":49.9959977,"lon":13.1570383,"ts":"2024-05-18T09:14:28Z","tz":1,"tags":{"climbing":"route_bottom","climbing:grade:uiaa":"6+","name":"Inčina","sport":"climbing","website":"https://www.horosvaz.cz/skaly-cesta-12804/"}},"11915631465":{"lat":49.9959991,"lon":13.157058,"ts":"2024-05-18T09:14:28Z","tz":1,"tags":{"climbing":"route_bottom","climbing:grade:uiaa":"2","name":"Myší díra","sport":"climbing","website":"https://www.horosvaz.cz/skaly-cesta-12805/"}},"11915631466":{"lat":49.9960005,"lon":13.1570778,"ts":"2024-05-18T09:14:28Z","tz":1,"tags":{"climbing":"route_bottom","climbing:grade:uiaa":"2","name":"Normální cesta","sport":"climbing","website":"https://www.horosvaz.cz/skaly-cesta-12806/"}},"11915631467":{"lat":49.9960019,"lon":13.1570975,"ts":"2024-05-18T09:14:28Z","tz":1,"tags":{"climbing":"route_bottom","climbing:grade:uiaa":"2","name":"Poslední","sport":"climbing","website":"https://www.horosvaz.cz/skaly-cesta-12807/"}},"11915636635":{"lat":49.9947566,"lon":13.1573627,"ts":"2024-05-18T08:59:52Z","tz":1,"tags":{"climbing":"route_bottom","climbing:grade:uiaa":"6+","name":"Bradavky","sport":"climbing","website":"https://www.horosvaz.cz/skaly-cesta-12910/"}},"11915636636":{"lat":49.9947674,"lon":13.1573516,"ts":"2024-05-18T08:59:52Z","tz":1,"tags":{"climbing":"route_bottom","climbing:grade:uiaa":"7-","name":"Bradavky na bradavce","sport":"climbing","website":"https://www.horosvaz.cz/skaly-cesta-107908/"}},"11915636637":{"lat":49.9947782,"lon":13.1573405,"ts":"2024-05-18T08:59:52Z","tz":1,"tags":{"climbing":"route_bottom","climbing:grade:uiaa":"6+","name":"Ruka na bradavce","sport":"climbing","website":"https://www.horosvaz.cz/skaly-cesta-107907/"}},"11915636638":{"lat":49.994789,"lon":13.1573294,"ts":"2024-05-18T08:59:52Z","tz":1,"tags":{"climbing":"route_bottom","climbing:grade:uiaa":"5","name":"Jede jede mešinka","sport":"climbing","website":"https://www.horosvaz.cz/skaly-cesta-107906/"}},"11915636639":{"lat":49.9947999,"lon":13.1573183,"ts":"2024-05-18T08:59:52Z","tz":1,"tags":{"climbing":"route_bottom","climbing:grade:uiaa":"5+","name":"Abstinenční příznaky","sport":"climbing","website":"https://www.horosvaz.cz/skaly-cesta-12911/"}},"11915636640":{"lat":49.9948107,"lon":13.1573072,"ts":"2024-05-18T08:59:52Z","tz":1,"tags":{"climbing":"route_bottom","climbing:grade:uiaa":"3","name":"Hodinový komín","sport":"climbing","website":"https://www.horosvaz.cz/skaly-cesta-12912/"}},"11915636641":{"lat":49.9948215,"lon":13.1572961,"ts":"2024-05-18T08:59:52Z","tz":1,"tags":{"climbing":"route_bottom","climbing:grade:uiaa":"2","name":"Mechový komín","sport":"climbing","website":"https://www.horosvaz.cz/skaly-cesta-12913/"}},"11915636642":{"lat":49.9948323,"lon":13.157285,"ts":"2024-05-18T08:59:52Z","tz":1,"tags":{"climbing":"route_bottom","climbing:grade:uiaa":"6","name":"Motoristická","sport":"climbing","website":"https://www.horosvaz.cz/skaly-cesta-12914/"}},"11915636643":{"lat":49.9948432,"lon":13.1572739,"ts":"2024-05-18T08:59:52Z","tz":1,"tags":{"climbing":"route_bottom","climbing:grade:uiaa":"7-","name":"Závět předem","sport":"climbing","website":"https://www.horosvaz.cz/skaly-cesta-12915/"}},"11915636644":{"lat":49.994854,"lon":13.1572628,"ts":"2024-05-18T08:59:52Z","tz":1,"tags":{"climbing":"route_bottom","climbing:grade:uiaa":"8","name":"Piercing","sport":"climbing","website":"https://www.horosvaz.cz/skaly-cesta-12909/"}},"11915636645":{"lat":49.9948648,"lon":13.1572517,"ts":"2024-05-18T08:59:52Z","tz":1,"tags":{"climbing":"route_bottom","climbing:grade:uiaa":"7-","name":"Pneumatická","sport":"climbing","website":"https://www.horosvaz.cz/skaly-cesta-12916/"}},"11915636646":{"lat":49.9948756,"lon":13.1572406,"ts":"2024-05-18T08:59:52Z","tz":1,"tags":{"climbing":"route_bottom","climbing:grade:uiaa":"6+","name":"Náušnice","sport":"climbing","website":"https://www.horosvaz.cz/skaly-cesta-12917/"}},"11915636647":{"lat":49.9948865,"lon":13.1572295,"ts":"2024-05-18T08:59:52Z","tz":1,"tags":{"climbing":"route_bottom","climbing:grade:uiaa":"7+","name":"Spárová varianta","sport":"climbing","website":"https://www.horosvaz.cz/skaly-cesta-12918/"}},"11915636648":{"lat":49.9948973,"lon":13.1572184,"ts":"2024-05-18T08:59:52Z","tz":1,"tags":{"climbing":"route_bottom","climbing:grade:uiaa":"7+","name":"Šemíkův problém","sport":"climbing","website":"https://www.horosvaz.cz/skaly-cesta-12919/"}},"11915636649":{"lat":49.9949081,"lon":13.1572073,"ts":"2024-05-18T08:59:52Z","tz":1,"tags":{"climbing":"route_bottom","climbing:grade:uiaa":"6-","name":"Jižní","sport":"climbing","website":"https://www.horosvaz.cz/skaly-cesta-12920/"}},"11915636650":{"lat":49.9949189,"lon":13.1571962,"ts":"2024-05-18T08:59:52Z","tz":1,"tags":{"climbing":"route_bottom","climbing:grade:uiaa":"5+","name":"Kruh Se Uzavřel","sport":"climbing","website":"https://www.horosvaz.cz/skaly-cesta-118644/"}},"11915636651":{"lat":49.9949298,"lon":13.1571851,"ts":"2024-05-18T08:59:52Z","tz":1,"tags":{"climbing":"route_bottom","climbing:grade:uiaa":"4","name":"Rampouchová","sport":"climbing","website":"https://www.horosvaz.cz/skaly-cesta-12921/"}},"11915636652":{"lat":49.9949406,"lon":13.157174,"ts":"2024-05-18T08:59:52Z","tz":1,"tags":{"climbing":"route_bottom","climbing:grade:uiaa":"2","name":"Podzimní komín","sport":"climbing","website":"https://www.horosvaz.cz/skaly-cesta-12922/"}},"11915638917":{"lat":49.9941745,"lon":13.1574886,"ts":"2024-05-18T09:11:37Z","tz":1,"tags":{"climbing":"route_bottom","climbing:grade:uiaa":"3-","name":"Severní varianta","sport":"climbing","website":"https://www.horosvaz.cz/skaly-cesta-13126/"}},"11915638918":{"lat":49.9941782,"lon":13.157475,"ts":"2024-05-18T09:11:37Z","tz":1,"tags":{"climbing":"route_bottom","climbing:grade:uiaa":"6","name":"Pivočára","sport":"climbing","website":"https://www.horosvaz.cz/skaly-cesta-13127/"}},"11915638919":{"lat":49.9941819,"lon":13.1574422,"ts":"2024-05-18T09:11:37Z","tz":1,"tags":{"climbing":"route_bottom","climbing:grade:uiaa":"5+","name":"Varianta Severní cesty","sport":"climbing","website":"https://www.horosvaz.cz/skaly-cesta-13128/"}},"11915638920":{"lat":49.9941796,"lon":13.1574248,"ts":"2024-05-18T09:11:37Z","tz":1,"tags":{"climbing":"route_bottom","climbing:grade:uiaa":"6-","name":"Severní cesta","sport":"climbing","website":"https://www.horosvaz.cz/skaly-cesta-13129/"}},"11915638921":{"lat":49.9941642,"lon":13.1574175,"ts":"2024-05-18T09:11:37Z","tz":1,"tags":{"climbing":"route_bottom","climbing:grade:uiaa":"5+","name":"Náhoda","sport":"climbing","website":"https://www.horosvaz.cz/skaly-cesta-13130/"}},"11915638922":{"lat":49.9941567,"lon":13.1574295,"ts":"2024-05-18T09:11:37Z","tz":1,"tags":{"climbing":"route_bottom","climbing:grade:uiaa":"4","name":"Jihozápadní spára","sport":"climbing","website":"https://www.horosvaz.cz/skaly-cesta-13131/"}},"11915638923":{"lat":49.9941501,"lon":13.1574601,"ts":"2024-05-18T09:11:37Z","tz":1,"tags":{"climbing":"route_bottom","climbing:grade:uiaa":"1","name":"Normální cesta","sport":"climbing","website":"https://www.horosvaz.cz/skaly-cesta-13132/"}},"11915640014":{"lat":49.995033,"lon":13.1572053,"ts":"2024-05-18T09:09:13Z","tz":1,"tags":{"climbing":"route_bottom","climbing:grade:uiaa":"9-","name":"Únik do vzpomínek","sport":"climbing","website":"https://www.horosvaz.cz/skaly-cesta-12880/"}},"11915640015":{"lat":49.9950469,"lon":13.1571991,"ts":"2024-05-18T09:09:13Z","tz":1,"tags":{"climbing":"route_bottom","climbing:grade:uiaa":"8+/9-","name":"Svatba jako řemen","sport":"climbing","website":"https://www.horosvaz.cz/skaly-cesta-12881/"}},"11915640016":{"lat":49.9950609,"lon":13.1571929,"ts":"2024-05-18T09:09:13Z","tz":1,"tags":{"climbing":"route_bottom","climbing:grade:uiaa":"9+","name":"Pudrový prd","sport":"climbing","website":"https://www.horosvaz.cz/skaly-cesta-12882/"}},"11915640017":{"lat":49.9950748,"lon":13.1571867,"ts":"2024-05-18T09:09:13Z","tz":1,"tags":{"climbing":"route_bottom","climbing:boulder":"yes","climbing:grade:french":"6a","name":"Pod tíhou vzpomínek","sport":"climbing","website":"https://www.horosvaz.cz/skaly-cesta-70877/"}},"11915640018":{"lat":49.9950888,"lon":13.1571805,"ts":"2024-05-18T09:09:13Z","tz":1,"tags":{"climbing":"route_bottom","climbing:grade:uiaa":"7+","name":"Vzpomínková cesta","sport":"climbing","website":"https://www.horosvaz.cz/skaly-cesta-12883/"}},"11915640019":{"lat":49.9951027,"lon":13.1571742,"ts":"2024-05-18T09:09:13Z","tz":1,"tags":{"climbing":"route_bottom","climbing:grade:uiaa":"8+","name":"Až se ucho utrhne","sport":"climbing","website":"https://www.horosvaz.cz/skaly-cesta-85821/"}},"11915640020":{"lat":49.9951167,"lon":13.157168,"ts":"2024-05-18T09:09:13Z","tz":1,"tags":{"climbing":"route_bottom","climbing:grade:uiaa":"8+/9-","name":"Hrneček","sport":"climbing","website":"https://www.horosvaz.cz/skaly-cesta-12884/"}},"11915640021":{"lat":49.9951306,"lon":13.1571618,"ts":"2024-05-18T09:09:13Z","tz":1,"tags":{"climbing":"route_bottom","climbing:grade:uiaa":"8-","name":"Drátenická varianta","sport":"climbing","website":"https://www.horosvaz.cz/skaly-cesta-114626/"}},"11915640022":{"lat":49.9951446,"lon":13.1571556,"ts":"2024-05-18T09:09:13Z","tz":1,"tags":{"climbing":"route_bottom","climbing:grade:uiaa":"7+","name":"Je co řešit","sport":"climbing","website":"https://www.horosvaz.cz/skaly-cesta-70876/"}},"11915640023":{"lat":49.9951585,"lon":13.1571494,"ts":"2024-05-18T09:09:13Z","tz":1,"tags":{"climbing":"route_bottom","climbing:grade:uiaa":"3","name":"Koutek","sport":"climbing","website":"https://www.horosvaz.cz/skaly-cesta-12885/"}},"11915640024":{"lat":49.9951725,"lon":13.1571431,"ts":"2024-05-18T09:09:13Z","tz":1,"tags":{"climbing":"route_bottom","climbing:grade:uiaa":"5+","name":"Hranka","sport":"climbing","website":"https://www.horosvaz.cz/skaly-cesta-70875/"}},"11915645539":{"lat":49.9940632,"lon":13.1581352,"ts":"2024-05-18T09:10:07Z","tz":1,"tags":{"climbing":"route_bottom","climbing:grade:uiaa":"4+","name":"Pravá cesta","sport":"climbing","website":"https://www.horosvaz.cz/skaly-cesta-75545/"}},"11915645540":{"lat":49.9940729,"lon":13.1581181,"ts":"2024-05-18T09:10:07Z","tz":1,"tags":{"climbing":"route_bottom","climbing:grade:uiaa":"4","name":"Rychlé zblbnutí","sport":"climbing","website":"https://www.horosvaz.cz/skaly-cesta-75544/"}},"11915645541":{"lat":49.9940827,"lon":13.158101,"ts":"2024-05-18T09:10:07Z","tz":1,"tags":{"climbing":"route_bottom","climbing:grade:uiaa":"3","name":"Koutek","sport":"climbing","website":"https://www.horosvaz.cz/skaly-cesta-75543/"}},"11915645542":{"lat":49.9940925,"lon":13.1580839,"ts":"2024-05-18T09:10:07Z","tz":1,"tags":{"climbing":"route_bottom","climbing:grade:uiaa":"4","name":"Stará","sport":"climbing","website":"https://www.horosvaz.cz/skaly-cesta-75542/"}},"11915645543":{"lat":49.9941022,"lon":13.1580668,"ts":"2024-05-18T09:10:07Z","tz":1,"tags":{"climbing":"route_bottom","climbing:grade:uiaa":"6","name":"Pomalé zmoudření","sport":"climbing","website":"https://www.horosvaz.cz/skaly-cesta-75541/"}},"11915645544":{"lat":49.994112,"lon":13.1580497,"ts":"2024-05-18T09:10:07Z","tz":1,"tags":{"climbing":"route_bottom","climbing:grade:uiaa":"8-","name":"Magnesiový převis","sport":"climbing","website":"https://www.horosvaz.cz/skaly-cesta-75540/"}},"11915645545":{"lat":49.9941217,"lon":13.1580326,"ts":"2024-05-18T09:10:07Z","tz":1,"tags":{"climbing":"route_bottom","climbing:grade:uiaa":"7","name":"Nehraj Zagorku","sport":"climbing","website":"https://www.horosvaz.cz/skaly-cesta-75539/"}},"11915645546":{"lat":49.9941315,"lon":13.1580155,"ts":"2024-05-18T09:10:07Z","tz":1,"tags":{"climbing":"route_bottom","climbing:grade:uiaa":"5+","name":"Utečem bez placení","sport":"climbing","website":"https://www.horosvaz.cz/skaly-cesta-75538/"}},"11915650469":{"lat":49.9942355,"lon":13.157574,"ts":"2024-05-18T09:15:45Z","tz":1,"tags":{"climbing":"route_bottom","climbing:grade:uiaa":"7+/8-","name":"Nápad","sport":"climbing","website":"https://www.horosvaz.cz/skaly-cesta-114231/"}},"11915650470":{"lat":49.9942476,"lon":13.1575728,"ts":"2024-05-18T09:15:45Z","tz":1,"tags":{"climbing":"route_bottom","climbing:grade:uiaa":"8","name":"Asi to nemělo vzniknout","sport":"climbing","website":"https://www.horosvaz.cz/skaly-cesta-114232/"}},"11915650471":{"lat":49.9942596,"lon":13.1575716,"ts":"2024-05-18T09:15:45Z","tz":1,"tags":{"climbing":"route_bottom","climbing:grade:uiaa":"3","name":"Zapomenutý komín","sport":"climbing","website":"https://www.horosvaz.cz/skaly-cesta-70680/"}},"11915650472":{"lat":49.9942717,"lon":13.1575704,"ts":"2024-05-18T09:15:45Z","tz":1,"tags":{"climbing":"route_bottom","climbing:grade:uiaa":"6-","name":"Opičí varianta","sport":"climbing","website":"https://www.horosvaz.cz/skaly-cesta-12944/"}},"11915650473":{"lat":49.9942837,"lon":13.1575692,"ts":"2024-05-18T09:15:45Z","tz":1,"tags":{"climbing":"route_bottom","climbing:grade:uiaa":"5","name":"Opičí","sport":"climbing","website":"https://www.horosvaz.cz/skaly-cesta-12945/"}},"11915650474":{"lat":49.9942958,"lon":13.157568,"ts":"2024-05-18T09:15:45Z","tz":1,"tags":{"climbing":"route_bottom","climbing:grade:uiaa":"4","name":"Sousedská","sport":"climbing","website":"https://www.horosvaz.cz/skaly-cesta-12946/"}},"11915650475":{"lat":49.9943078,"lon":13.1575668,"ts":"2024-05-18T09:15:45Z","tz":1,"tags":{"climbing":"route_bottom","climbing:grade:uiaa":"6-","name":"Rovnátko","sport":"climbing","website":"https://www.horosvaz.cz/skaly-cesta-12950/"}},"11915650476":{"lat":49.9943199,"lon":13.1575656,"ts":"2024-05-18T09:15:45Z","tz":1,"tags":{"climbing":"route_bottom","climbing:grade:uiaa":"3+","name":"Cesta 4. Výročí","sport":"climbing","website":"https://www.horosvaz.cz/skaly-cesta-12947/"}},"11915650477":{"lat":49.9943319,"lon":13.1575644,"ts":"2024-05-18T09:15:45Z","tz":1,"tags":{"climbing":"route_bottom","climbing:grade:uiaa":"4","name":"Výlom","sport":"climbing","website":"https://www.horosvaz.cz/skaly-cesta-12949/"}},"11915650478":{"lat":49.994344,"lon":13.1575632,"ts":"2024-05-18T09:15:45Z","tz":1,"tags":{"climbing":"route_bottom","climbing:grade:uiaa":"2","name":"Sestupovka","sport":"climbing","website":"https://www.horosvaz.cz/skaly-cesta-12948/"}},"11918489064":{"lat":50.0202905,"lon":13.3007278,"ts":"2024-05-19T20:45:47Z","tz":1,"tags":{"climbing":"route_bottom","climbing:grade:uiaa":"3+","name":"Jedlová hrana","sport":"climbing","website":"https://www.horosvaz.cz/skaly-cesta-100139/"}},"11918489065":{"lat":50.0203045,"lon":13.3007286,"ts":"2024-05-19T20:45:47Z","tz":1,"tags":{"climbing":"route_bottom","climbing:grade:uiaa":"3+","name":"Jedlová plotna","sport":"climbing","website":"https://www.horosvaz.cz/skaly-cesta-100138/"}},"11918489066":{"lat":50.0203186,"lon":13.3007293,"ts":"2024-05-19T20:45:47Z","tz":1,"tags":{"climbing":"route_bottom","climbing:grade:uiaa":"4","name":"Plíživá","sport":"climbing","website":"https://www.horosvaz.cz/skaly-cesta-100137/"}},"11918489067":{"lat":50.0203327,"lon":13.3007301,"ts":"2024-05-19T20:45:47Z","tz":1,"tags":{"climbing":"route_bottom","climbing:grade:uiaa":"5","name":"Rabštejnská spára","sport":"climbing","website":"https://www.horosvaz.cz/skaly-cesta-100136/"}},"11918489068":{"lat":50.0203468,"lon":13.3007309,"ts":"2024-05-19T20:45:47Z","tz":1,"tags":{"climbing":"route_bottom","climbing:grade:uiaa":"3","name":"Kapraďový kout","sport":"climbing","website":"https://www.horosvaz.cz/skaly-cesta-100135/"}},"11918507569":{"lat":50.0203608,"lon":13.3007317,"ts":"2024-05-19T20:45:47Z","tz":1,"tags":{"climbing":"route_bottom","climbing:grade:uiaa":"2","name":"Žlábek","sport":"climbing","website":"https://www.horosvaz.cz/skaly-cesta-100134/"}},"11919375434":{"lat":49.9955784,"lon":13.1571024,"ts":"2024-05-20T09:30:45Z","tz":1,"tags":{"climbing":"route_bottom","climbing:grade:uiaa":"8-","name":"Varianta Médi Bédi","sport":"climbing","website":"https://www.horosvaz.cz/skaly-cesta-12831/"}},"11919375435":{"lat":49.9955839,"lon":13.1570868,"ts":"2024-05-20T09:30:45Z","tz":1,"tags":{"climbing":"route_bottom","climbing:boulder":"yes","climbing:grade:french":"6a+","name":"Lahůdkový dech","sport":"climbing","website":"https://www.horosvaz.cz/skaly-cesta-70868/"}},"11919375436":{"lat":49.995587,"lon":13.1570657,"ts":"2024-05-20T09:30:45Z","tz":1,"tags":{"climbing":"route_bottom","climbing:grade:uiaa":"6-","name":"Houpačka","sport":"climbing","website":"https://www.horosvaz.cz/skaly-cesta-12811/"}},"11919375437":{"lat":49.995591,"lon":13.1570512,"ts":"2024-05-20T09:30:45Z","tz":1,"tags":{"climbing":"route_bottom","climbing:grade:uiaa":"6+","name":"Časy se mění","sport":"climbing","website":"https://www.horosvaz.cz/skaly-cesta-12810/"}},"11919375438":{"lat":49.9955982,"lon":13.1570442,"ts":"2024-05-20T09:30:45Z","tz":1,"tags":{"climbing":"route_bottom","climbing:grade:uiaa":"5+","name":"Hej rup","sport":"climbing","website":"https://www.horosvaz.cz/skaly-cesta-12812/"}},"11919375439":{"lat":49.9956054,"lon":13.157035,"ts":"2024-05-20T09:30:45Z","tz":1,"tags":{"climbing":"route_bottom","climbing:grade:uiaa":"4","name":"Jeřabinka","sport":"climbing","website":"https://www.horosvaz.cz/skaly-cesta-12813/"}},"11919375440":{"lat":49.9956134,"lon":13.1570261,"ts":"2024-05-20T09:30:45Z","tz":1,"tags":{"climbing":"route_bottom","climbing:grade:uiaa":"4","name":"Třešňová","sport":"climbing","website":"https://www.horosvaz.cz/skaly-cesta-12814/"}},"11919375441":{"lat":49.9956215,"lon":13.1570196,"ts":"2024-05-20T09:30:45Z","tz":1,"tags":{"climbing":"route_bottom","climbing:grade:uiaa":"6","name":"Vodácká","sport":"climbing","website":"https://www.horosvaz.cz/skaly-cesta-12815/"}},"11919375442":{"lat":49.9956296,"lon":13.157013,"ts":"2024-05-20T09:30:45Z","tz":1,"tags":{"climbing":"route_bottom","climbing:grade:uiaa":"5","name":"Perníková","sport":"climbing","website":"https://www.horosvaz.cz/skaly-cesta-12816/"}},"11919375443":{"lat":49.9956376,"lon":13.1570065,"ts":"2024-05-20T09:30:45Z","tz":1,"tags":{"climbing":"route_bottom","climbing:grade:uiaa":"6+","name":"Cesta Předsedů (z Mont Blancu)","sport":"climbing","website":"https://www.horosvaz.cz/skaly-cesta-106871/"}},"11919375444":{"lat":49.9956457,"lon":13.1569999,"ts":"2024-05-20T09:30:45Z","tz":1,"tags":{"climbing":"route_bottom","climbing:grade:uiaa":"5","name":"Varianta koutové","sport":"climbing","website":"https://www.horosvaz.cz/skaly-cesta-12817/"}},"11919375445":{"lat":49.9956538,"lon":13.1569933,"ts":"2024-05-20T09:30:45Z","tz":1,"tags":{"climbing":"route_bottom","climbing:grade:uiaa":"4","name":"Koutová","sport":"climbing","website":"https://www.horosvaz.cz/skaly-cesta-12818/"}},"11919375446":{"lat":49.9956618,"lon":13.1569868,"ts":"2024-05-20T09:30:45Z","tz":1,"tags":{"climbing":"route_bottom","climbing:grade:uiaa":"7","name":"Varianta Vyklápěčka","sport":"climbing","website":"https://www.horosvaz.cz/skaly-cesta-12819/"}},"11919375447":{"lat":49.9956699,"lon":13.1569802,"ts":"2024-05-20T09:30:45Z","tz":1,"tags":{"climbing":"route_bottom","climbing:grade:uiaa":"7+","name":"Stařenka","sport":"climbing","website":"https://www.horosvaz.cz/skaly-cesta-12820/"}},"11919375448":{"lat":49.9956779,"lon":13.1569737,"ts":"2024-05-20T09:30:45Z","tz":1,"tags":{"climbing":"route_bottom","climbing:grade:uiaa":"7+","name":"Křížová","sport":"climbing","website":"https://www.horosvaz.cz/skaly-cesta-12821/"}},"11919375449":{"lat":49.995686,"lon":13.1569671,"ts":"2024-05-20T09:30:45Z","tz":1,"tags":{"climbing":"route_bottom","climbing:grade:uiaa":"7+","name":"Lahůdková","sport":"climbing","website":"https://www.horosvaz.cz/skaly-cesta-12822/"}},"11919375450":{"lat":49.9956941,"lon":13.1569605,"ts":"2024-05-20T09:30:45Z","tz":1,"tags":{"climbing":"route_bottom","climbing:grade:uiaa":"8-","name":"Top rope","sport":"climbing","website":"https://www.horosvaz.cz/skaly-cesta-12823/"}},"11919375451":{"lat":49.9957021,"lon":13.156954,"ts":"2024-05-20T09:30:45Z","tz":1,"tags":{"climbing":"route_bottom","climbing:grade:uiaa":"6","name":"Fousatá","sport":"climbing","website":"https://www.horosvaz.cz/skaly-cesta-12824/"}},"11919375452":{"lat":49.9957102,"lon":13.1569474,"ts":"2024-05-20T09:30:45Z","tz":1,"tags":{"climbing":"route_bottom","climbing:grade:uiaa":"7-","name":"Jiříkův dech","sport":"climbing","website":"https://www.horosvaz.cz/skaly-cesta-12825/"}},"11919375453":{"lat":49.9957182,"lon":13.1569409,"ts":"2024-05-20T09:30:45Z","tz":1,"tags":{"climbing":"route_bottom","climbing:grade:uiaa":"6","name":"Studená spára","sport":"climbing","website":"https://www.horosvaz.cz/skaly-cesta-12826/"}},"11919375454":{"lat":49.9957263,"lon":13.1569343,"ts":"2024-05-20T09:30:45Z","tz":1,"tags":{"climbing":"route_bottom","climbing:grade:uiaa":"6+","name":"Bezejmenná","sport":"climbing","website":"https://www.horosvaz.cz/skaly-cesta-12827/"}},"11919375455":{"lat":49.9957344,"lon":13.1569277,"ts":"2024-05-20T09:30:45Z","tz":1,"tags":{"climbing":"route_bottom","climbing:grade:uiaa":"7-","name":"Country bál","sport":"climbing","website":"https://www.horosvaz.cz/skaly-cesta-12828/"}},"11919375456":{"lat":49.9957424,"lon":13.1569212,"ts":"2024-05-20T09:30:45Z","tz":1,"tags":{"climbing":"route_bottom","climbing:grade:uiaa":"8+","name":"Přetížení orig","sport":"climbing","website":"https://www.horosvaz.cz/skaly-cesta-12829/"}},"11919375457":{"lat":49.9957505,"lon":13.1569146,"ts":"2024-05-20T09:30:45Z","tz":1,"tags":{"climbing":"route_bottom","climbing:grade:uiaa":"8+","name":"Krápníková diagonála","sport":"climbing","website":"https://www.horosvaz.cz/skaly-cesta-85822/"}},"11919375458":{"lat":49.9957586,"lon":13.1569081,"ts":"2024-05-20T09:30:45Z","tz":1,"tags":{"climbing":"route_bottom","climbing:grade:uiaa":"8+/9-","name":"Přetížení","sport":"climbing","website":"https://www.horosvaz.cz/skaly-cesta-12830/"}},"11919375459":{"lat":49.9957666,"lon":13.1569015,"ts":"2024-05-20T09:30:45Z","tz":1,"tags":{"climbing":"route_bottom","climbing:grade:uiaa":"8-","name":"Cesta pro méďu Béďu","sport":"climbing","website":"https://www.horosvaz.cz/skaly-cesta-12832/"}},"11919375460":{"lat":49.9957747,"lon":13.1568949,"ts":"2024-05-20T09:30:45Z","tz":1,"tags":{"climbing":"route_bottom","climbing:grade:uiaa":"7-","name":"Rakev","sport":"climbing","website":"https://www.horosvaz.cz/skaly-cesta-12833/"}},"11919375461":{"lat":49.9957827,"lon":13.1568884,"ts":"2024-05-20T09:30:45Z","tz":1,"tags":{"climbing":"route_bottom","climbing:grade:uiaa":"8","name":"Desítka","sport":"climbing","website":"https://www.horosvaz.cz/skaly-cesta-12834/"}},"11919375462":{"lat":49.9957908,"lon":13.1568818,"ts":"2024-05-20T09:30:45Z","tz":1,"tags":{"climbing":"route_bottom","climbing:grade:uiaa":"8+","name":"Klepání na rakev","sport":"climbing","website":"https://www.horosvaz.cz/skaly-cesta-116955/"}},"11919375463":{"lat":49.9957989,"lon":13.1568753,"ts":"2024-05-20T09:30:45Z","tz":1,"tags":{"climbing":"route_bottom","climbing:grade:uiaa":"7+","name":"Varianta Odvedenecké","sport":"climbing","website":"https://www.horosvaz.cz/skaly-cesta-12835/"}},"11919375464":{"lat":49.9958069,"lon":13.1568687,"ts":"2024-05-20T09:30:45Z","tz":1,"tags":{"climbing":"route_bottom","climbing:grade:uiaa":"7","name":"Odvedenecká","sport":"climbing","website":"https://www.horosvaz.cz/skaly-cesta-12836/"}},"11919375465":{"lat":49.995815,"lon":13.1568621,"ts":"2024-05-20T09:30:45Z","tz":1,"tags":{"climbing":"route_bottom","climbing:grade:uiaa":"6+","name":"Levá varianta Odvedenecké","sport":"climbing","website":"https://www.horosvaz.cz/skaly-cesta-70846/"}},"11919375466":{"lat":49.9958231,"lon":13.1568556,"ts":"2024-05-20T09:30:45Z","tz":1,"tags":{"climbing":"route_bottom","climbing:grade:uiaa":"6-","name":"Skalácká","sport":"climbing","website":"https://www.horosvaz.cz/skaly-cesta-12837/"}},"11919375467":{"lat":49.9958311,"lon":13.156849,"ts":"2024-05-20T09:30:45Z","tz":1,"tags":{"climbing":"route_bottom","climbing:grade:uiaa":"7-","name":"Bláznova ukolébavka","sport":"climbing","website":"https://www.horosvaz.cz/skaly-cesta-12838/"}},"11919375468":{"lat":49.9958392,"lon":13.1568425,"ts":"2024-05-20T09:30:45Z","tz":1,"tags":{"climbing":"route_bottom","climbing:grade:uiaa":"5+","name":"Zelená spára","sport":"climbing","website":"https://www.horosvaz.cz/skaly-cesta-12839/"}},"11919385358":{"lat":49.9936234,"lon":13.1596886,"ts":"2024-05-20T09:31:48Z","tz":1,"tags":{"climbing":"route_bottom","climbing:grade:uiaa":"2","name":"JV hranou","sport":"climbing","website":"https://www.horosvaz.cz/skaly-cesta-12953/"}},"11919385359":{"lat":49.9936241,"lon":13.1596651,"ts":"2024-05-20T09:31:48Z","tz":1,"tags":{"climbing":"route_bottom","climbing:grade:uiaa":"3","name":"Fajová","sport":"climbing","website":"https://www.horosvaz.cz/skaly-cesta-12952/"}},"11919439856":{"lat":49.99385,"lon":13.162774,"ts":"2024-05-20T09:32:44Z","tz":1,"tags":{"climbing":"route_bottom","climbing:grade:uiaa":"7+","name":"Cestářská","sport":"climbing","website":"https://www.horosvaz.cz/skaly-cesta-13030/"}},"11919439857":{"lat":49.9938504,"lon":13.1627507,"ts":"2024-05-20T09:32:44Z","tz":1,"tags":{"climbing":"route_bottom","climbing:grade:uiaa":"8-","name":"Rumcajsův převis","sport":"climbing","website":"https://www.horosvaz.cz/skaly-cesta-13031/"}},"11919439858":{"lat":49.9938508,"lon":13.1627274,"ts":"2024-05-20T09:32:44Z","tz":1,"tags":{"climbing":"route_bottom","climbing:grade:uiaa":"5","name":"Polední","sport":"climbing","website":"https://www.horosvaz.cz/skaly-cesta-13032/"}},"11919440015":{"lat":49.993667,"lon":13.1619604,"ts":"2024-05-20T09:33:09Z","tz":1,"tags":{"climbing":"route_bottom","climbing:grade:uiaa":"3+","name":"Trojspára","sport":"climbing","website":"https://www.horosvaz.cz/skaly-cesta-45389/"}},"11919440016":{"lat":49.9936655,"lon":13.161941,"ts":"2024-05-20T09:33:09Z","tz":1,"tags":{"climbing":"route_bottom","climbing:grade:uiaa":"3","name":"Jižní hrana","sport":"climbing","website":"https://www.horosvaz.cz/skaly-cesta-45390/"}},"11919442318":{"lat":49.9932491,"lon":13.1609165,"ts":"2024-05-20T09:32:12Z","tz":1,"tags":{"climbing":"route_bottom","climbing:grade:uiaa":"3","name":"Dešťová hrana","sport":"climbing","website":"https://www.horosvaz.cz/skaly-cesta-12976/"}},"11919442319":{"lat":49.9932496,"lon":13.1608932,"ts":"2024-05-20T09:32:12Z","tz":1,"tags":{"climbing":"route_bottom","climbing:grade:uiaa":"4-","name":"Zmýlená","sport":"climbing","website":"https://www.horosvaz.cz/skaly-cesta-12977/"}},"11919442320":{"lat":49.9932501,"lon":13.1608699,"ts":"2024-05-20T09:32:12Z","tz":1,"tags":{"climbing":"route_bottom","climbing:grade:uiaa":"2","name":"Koutek","sport":"climbing","website":"https://www.horosvaz.cz/skaly-cesta-12978/"}},"11919442321":{"lat":49.9932506,"lon":13.1608466,"ts":"2024-05-20T09:32:12Z","tz":1,"tags":{"climbing":"route_bottom","climbing:grade:uiaa":"5","name":"Zarostlé potěšení","sport":"climbing","website":"https://www.horosvaz.cz/skaly-cesta-12979/"}},"11919442322":{"lat":49.993251,"lon":13.1608233,"ts":"2024-05-20T09:32:12Z","tz":1,"tags":{"climbing":"route_bottom","climbing:grade:uiaa":"2","name":"Turistika","sport":"climbing","website":"https://www.horosvaz.cz/skaly-cesta-12980/"}},"11919442323":{"lat":49.9932515,"lon":13.1608,"ts":"2024-05-20T09:32:12Z","tz":1,"tags":{"climbing":"route_bottom","climbing:grade:uiaa":"5","name":"Divočinka","sport":"climbing","website":"https://www.horosvaz.cz/skaly-cesta-12981/"}},"11919442324":{"lat":49.993252,"lon":13.1607767,"ts":"2024-05-20T09:32:12Z","tz":1,"tags":{"climbing":"route_bottom","climbing:grade:uiaa":"6","name":"Cesta návratů","sport":"climbing","website":"https://www.horosvaz.cz/skaly-cesta-12982/"}},"11919442325":{"lat":49.9932525,"lon":13.1607534,"ts":"2024-05-20T09:32:12Z","tz":1,"tags":{"climbing":"route_bottom","climbing:grade:uiaa":"4","name":"Jankovitá","sport":"climbing","website":"https://www.horosvaz.cz/skaly-cesta-12983/"}},"11919442377":{"lat":49.9954139,"lon":13.1572271,"ts":"2024-05-20T09:33:54Z","tz":1,"tags":{"climbing":"route_bottom","climbing:grade:uiaa":"2","name":"Přeskok","sport":"climbing","website":"https://www.horosvaz.cz/skaly-cesta-70874/"}},"11919442378":{"lat":49.9954204,"lon":13.1572177,"ts":"2024-05-20T09:33:54Z","tz":1,"tags":{"climbing":"route_bottom","climbing:grade:uiaa":"2","name":"Přeskok z Pilířku","sport":"climbing","website":"https://www.horosvaz.cz/skaly-cesta-70873/"}},"11919442379":{"lat":49.9954268,"lon":13.1572084,"ts":"2024-05-20T09:33:54Z","tz":1,"tags":{"climbing":"route_bottom","climbing:grade:uiaa":"3","name":"Pilířek","sport":"climbing","website":"https://www.horosvaz.cz/skaly-cesta-70872/"}},"11919442380":{"lat":49.9954333,"lon":13.1571991,"ts":"2024-05-20T09:33:54Z","tz":1,"tags":{"climbing":"route_bottom","climbing:grade:uiaa":"5-","name":"Hladká","sport":"climbing","website":"https://www.horosvaz.cz/skaly-cesta-12876/"}},"11919442381":{"lat":49.9954398,"lon":13.1571898,"ts":"2024-05-20T09:33:54Z","tz":1,"tags":{"climbing":"route_bottom","climbing:grade:uiaa":"5-","name":"Koutová cesta","sport":"climbing","website":"https://www.horosvaz.cz/skaly-cesta-12877/"}},"11919442382":{"lat":49.9954462,"lon":13.1571805,"ts":"2024-05-20T09:33:54Z","tz":1,"tags":{"climbing":"route_bottom","climbing:grade:uiaa":"4+","name":"Normální","sport":"climbing","website":"https://www.horosvaz.cz/skaly-cesta-12878/"}},"11919442383":{"lat":49.9954527,"lon":13.1571712,"ts":"2024-05-20T09:33:54Z","tz":1,"tags":{"climbing":"route_bottom","climbing:grade:uiaa":"4+","name":"Hovád","sport":"climbing","website":"https://www.horosvaz.cz/skaly-cesta-70871/"}},"11919442384":{"lat":49.9954592,"lon":13.1571619,"ts":"2024-05-20T09:33:54Z","tz":1,"tags":{"climbing":"route_bottom","climbing:grade:uiaa":"3","name":"Komínová","sport":"climbing","website":"https://www.horosvaz.cz/skaly-cesta-12879/"}},"11919444569":{"lat":49.9958472,"lon":13.1568359,"ts":"2024-05-20T09:30:45Z","tz":1,"tags":{"climbing":"route_bottom","climbing:grade:uiaa":"6+","name":"Lazarova","sport":"climbing","website":"https://www.horosvaz.cz/skaly-cesta-12840/"}},"11919444570":{"lat":49.9958553,"lon":13.1568293,"ts":"2024-05-20T09:30:45Z","tz":1,"tags":{"climbing":"route_bottom","climbing:grade:uiaa":"7","name":"Vzdušná hrana","sport":"climbing","website":"https://www.horosvaz.cz/skaly-cesta-12841/"}},"11919444650":{"lat":49.9955697,"lon":13.1692613,"ts":"2024-05-20T09:36:41Z","tz":1,"tags":{"climbing":"route_bottom","climbing:grade:uiaa":"4","name":"Sentimentální","sport":"climbing","website":"https://www.horosvaz.cz/skaly-cesta-13086/"}},"11919444651":{"lat":49.9955677,"lon":13.1692384,"ts":"2024-05-20T09:36:41Z","tz":1,"tags":{"climbing":"route_bottom","climbing:grade:uiaa":"4","name":"Narozeniny s Reinholdem","sport":"climbing","website":"https://www.horosvaz.cz/skaly-cesta-116474/"}},"11919444652":{"lat":49.9955657,"lon":13.1692156,"ts":"2024-05-20T09:36:41Z","tz":1,"tags":{"climbing":"route_bottom","climbing:grade:uiaa":"6","name":"Bota","sport":"climbing","website":"https://www.horosvaz.cz/skaly-cesta-116475/"}},"11919444653":{"lat":49.9955637,"lon":13.1691927,"ts":"2024-05-20T09:36:41Z","tz":1,"tags":{"climbing":"route_bottom","climbing:grade:uiaa":"7-/7","name":"Srdcová sedma","sport":"climbing","website":"https://www.horosvaz.cz/skaly-cesta-116580/"}},"11919444654":{"lat":49.9955617,"lon":13.1691698,"ts":"2024-05-20T09:36:41Z","tz":1,"tags":{"climbing":"route_bottom","climbing:grade:uiaa":"6","name":"Parno","sport":"climbing","website":"https://www.horosvaz.cz/skaly-cesta-13087/"}},"11919444655":{"lat":49.9955598,"lon":13.169147,"ts":"2024-05-20T09:36:41Z","tz":1,"tags":{"climbing":"route_bottom","climbing:grade:uiaa":"2","name":"Z Hlavy","sport":"climbing","website":"https://www.horosvaz.cz/skaly-cesta-116579/"}},"11919444656":{"lat":49.9955578,"lon":13.1691241,"ts":"2024-05-20T09:36:41Z","tz":1,"tags":{"climbing":"route_bottom","climbing:grade:uiaa":"2","name":"Na Hlavu","sport":"climbing","website":"https://www.horosvaz.cz/skaly-cesta-116578/"}},"11919444657":{"lat":49.9955558,"lon":13.1691012,"ts":"2024-05-20T09:36:41Z","tz":1,"tags":{"climbing":"route_bottom","climbing:grade:uiaa":"2","name":"Rozporový komínek","sport":"climbing","website":"https://www.horosvaz.cz/skaly-cesta-13088/"}},"11919444658":{"lat":49.9955538,"lon":13.1690784,"ts":"2024-05-20T09:36:41Z","tz":1,"tags":{"climbing":"route_bottom","climbing:grade:uiaa":"4-","name":"Hermanova cesta","sport":"climbing","website":"https://www.horosvaz.cz/skaly-cesta-13089/"}},"11919444659":{"lat":49.9955518,"lon":13.1690555,"ts":"2024-05-20T09:36:41Z","tz":1,"tags":{"climbing":"route_bottom","climbing:grade:uiaa":"3+","name":"Údolní hrana","sport":"climbing","website":"https://www.horosvaz.cz/skaly-cesta-116577/"}},"11919445775":{"lat":49.9935573,"lon":13.1598251,"ts":"2024-05-20T09:31:32Z","tz":1,"tags":{"climbing":"route_bottom","climbing:grade:uiaa":"4","name":"Údolní pilíř","sport":"climbing","website":"https://www.horosvaz.cz/skaly-cesta-12954/"}},"11919445776":{"lat":49.9935581,"lon":13.1598019,"ts":"2024-05-20T09:31:32Z","tz":1,"tags":{"climbing":"route_bottom","climbing:grade:uiaa":"2","name":"Prázdninový komín","sport":"climbing","website":"https://www.horosvaz.cz/skaly-cesta-12955/"}},"11919445777":{"lat":49.993559,"lon":13.1597788,"ts":"2024-05-20T09:31:32Z","tz":1,"tags":{"climbing":"route_bottom","climbing:grade:uiaa":"4-","name":"Bertina","sport":"climbing","website":"https://www.horosvaz.cz/skaly-cesta-12956/"}},"11919445778":{"lat":49.9935599,"lon":13.1597556,"ts":"2024-05-20T09:31:32Z","tz":1,"tags":{"climbing":"route_bottom","climbing:grade:uiaa":"3","name":"Zarostlá","sport":"climbing","website":"https://www.horosvaz.cz/skaly-cesta-12957/"}},"11919445779":{"lat":49.9935607,"lon":13.1597325,"ts":"2024-05-20T09:31:32Z","tz":1,"tags":{"climbing":"route_bottom","climbing:grade:uiaa":"5+","name":"Brambory nemluví","sport":"climbing","website":"https://www.horosvaz.cz/skaly-cesta-75546/"}},"11919445780":{"lat":49.9935616,"lon":13.1597093,"ts":"2024-05-20T09:31:32Z","tz":1,"tags":{"climbing":"route_bottom","climbing:grade:uiaa":"4","name":"Cesta od Morávků","sport":"climbing","website":"https://www.horosvaz.cz/skaly-cesta-12958/"}},"11919446977":{"lat":49.995259,"lon":13.1687149,"ts":"2024-05-20T09:37:25Z","tz":1,"tags":{"climbing":"route_bottom","climbing:grade:uiaa":"5+","name":"Oslavencova","sport":"climbing","website":"https://www.horosvaz.cz/skaly-cesta-13081/"}},"11919446978":{"lat":49.9952504,"lon":13.1687107,"ts":"2024-05-20T09:37:25Z","tz":1,"tags":{"climbing":"route_bottom","climbing:grade:uiaa":"4+","name":"Spárka","sport":"climbing","website":"https://www.horosvaz.cz/skaly-cesta-13082/"}},"11919446979":{"lat":49.9952429,"lon":13.1687066,"ts":"2024-05-20T09:37:25Z","tz":1,"tags":{"climbing":"route_bottom","climbing:grade:uiaa":"4","name":"Šindelová","sport":"climbing","website":"https://www.horosvaz.cz/skaly-cesta-13083/"}},"11919446980":{"lat":49.9952396,"lon":13.1686933,"ts":"2024-05-20T09:37:25Z","tz":1,"tags":{"climbing":"route_bottom","climbing:grade:uiaa":"4+","name":"Pěkná","sport":"climbing","website":"https://www.horosvaz.cz/skaly-cesta-13084/"}},"11919446981":{"lat":49.9952349,"lon":13.1686822,"ts":"2024-05-20T09:37:25Z","tz":1,"tags":{"climbing":"route_bottom","climbing:grade:uiaa":"3+","name":"Akátová","sport":"climbing","website":"https://www.horosvaz.cz/skaly-cesta-13085/"}},"11919450077":{"lat":49.9951888,"lon":13.1685505,"ts":"2024-05-20T09:38:16Z","tz":1,"tags":{"climbing":"route_bottom","climbing:grade:uiaa":"4+","name":"Realita","sport":"climbing","website":"https://www.horosvaz.cz/skaly-cesta-13071/"}},"11919450078":{"lat":49.9951832,"lon":13.168527,"ts":"2024-05-20T09:38:16Z","tz":1,"tags":{"climbing":"route_bottom","climbing:grade:uiaa":"5+","name":"Údolní","sport":"climbing","website":"https://www.horosvaz.cz/skaly-cesta-13072/"}},"11919450079":{"lat":49.9951895,"lon":13.1685119,"ts":"2024-05-20T09:38:16Z","tz":1,"tags":{"climbing":"route_bottom","climbing:grade:uiaa":"7-","name":"Neznámá – Svině","sport":"climbing","website":"https://www.horosvaz.cz/skaly-cesta-13073/"}},"11919450080":{"lat":49.9951958,"lon":13.1685029,"ts":"2024-05-20T09:38:16Z","tz":1,"tags":{"climbing":"route_bottom","climbing:grade:uiaa":"4+","name":"Pupek","sport":"climbing","website":"https://www.horosvaz.cz/skaly-cesta-13070/"}},"11919450081":{"lat":49.9952042,"lon":13.1685154,"ts":"2024-05-20T09:38:16Z","tz":1,"tags":{"climbing":"route_bottom","climbing:grade:uiaa":"1","name":"Normální cesta","sport":"climbing","website":"https://www.horosvaz.cz/skaly-cesta-13074/"}},"11919539112":{"lat":49.9973852,"lon":13.1719628,"ts":"2024-05-20T11:10:21Z","tz":1,"tags":{"climbing":"route_bottom","climbing:grade:uiaa":"5+","name":"Zážitek v kraťasech","sport":"climbing","website":"https://www.horosvaz.cz/skaly-cesta-12750/"}},"11919539113":{"lat":49.9973852,"lon":13.1719855,"ts":"2024-05-20T11:10:21Z","tz":1,"tags":{"climbing":"route_bottom","climbing:grade:uiaa":"7+","name":"V noci u pyje","sport":"climbing","website":"https://www.horosvaz.cz/skaly-cesta-112530/"}},"11919539114":{"lat":49.9973853,"lon":13.1720081,"ts":"2024-05-20T11:10:21Z","tz":1,"tags":{"climbing":"route_bottom","climbing:grade:uiaa":"8+","name":"Ve dne spí","sport":"climbing","website":"https://www.horosvaz.cz/skaly-cesta-112594/"}},"11919539115":{"lat":49.9973853,"lon":13.1720308,"ts":"2024-05-20T11:10:21Z","tz":1,"tags":{"climbing":"route_bottom","climbing:grade:uiaa":"9-","name":"Sekretářka","sport":"climbing","website":"https://www.horosvaz.cz/skaly-cesta-113199/"}},"11919539116":{"lat":49.9973853,"lon":13.1720534,"ts":"2024-05-20T11:10:21Z","tz":1,"tags":{"climbing":"route_bottom","climbing:grade:uiaa":"10-","name":"Lucie","sport":"climbing","website":"https://www.horosvaz.cz/skaly-cesta-75824/"}},"11919539117":{"lat":49.9973854,"lon":13.1720761,"ts":"2024-05-20T11:10:21Z","tz":1,"tags":{"climbing":"route_bottom","climbing:grade:uiaa":"8-","name":"Šetři se, chlapče","sport":"climbing","website":"https://www.horosvaz.cz/skaly-cesta-113198/"}},"11919539118":{"lat":49.9973854,"lon":13.1720988,"ts":"2024-05-20T11:10:21Z","tz":1,"tags":{"climbing":"route_bottom","climbing:grade:uiaa":"3","name":"Údolní cesta","sport":"climbing","website":"https://www.horosvaz.cz/skaly-cesta-12751/"}},"11919539119":{"lat":49.9973855,"lon":13.1721214,"ts":"2024-05-20T11:10:21Z","tz":1,"tags":{"climbing":"route_bottom","climbing:grade:uiaa":"7+","name":"Siberia","sport":"climbing","website":"https://www.horosvaz.cz/skaly-cesta-112529/"}},"11919539120":{"lat":49.9973855,"lon":13.1721441,"ts":"2024-05-20T11:10:21Z","tz":1,"tags":{"climbing":"route_bottom","climbing:grade:uiaa":"4+","name":"Špatná","sport":"climbing","website":"https://www.horosvaz.cz/skaly-cesta-12752/"}},"11920522791":{"lat":49.9963947,"lon":13.1713158,"ts":"2024-05-20T20:13:41Z","tz":1,"tags":{"climbing":"route_bottom","climbing:grade:uiaa":"3","name":"Východní hrana","sport":"climbing","website":"https://www.horosvaz.cz/skaly-cesta-13107/"}},"11920522792":{"lat":49.9963823,"lon":13.171316,"ts":"2024-05-20T20:13:41Z","tz":1,"tags":{"climbing":"route_bottom","climbing:grade:uiaa":"5","name":"Žlábková varianta","sport":"climbing","website":"https://www.horosvaz.cz/skaly-cesta-13108/"}},"11920522793":{"lat":49.9963699,"lon":13.1713163,"ts":"2024-05-20T20:13:41Z","tz":1,"tags":{"climbing":"route_bottom","climbing:grade:uiaa":"5+","name":"Východní stěna přímo","sport":"climbing","website":"https://www.horosvaz.cz/skaly-cesta-13109/"}},"11920522794":{"lat":49.9963575,"lon":13.1713165,"ts":"2024-05-20T20:13:41Z","tz":1,"tags":{"climbing":"route_bottom","climbing:grade:uiaa":"5","name":"Východní stěna","sport":"climbing","website":"https://www.horosvaz.cz/skaly-cesta-13110/"}},"11920522795":{"lat":49.9963451,"lon":13.1713167,"ts":"2024-05-20T20:13:41Z","tz":1,"tags":{"climbing":"route_bottom","climbing:grade:uiaa":"5","name":"Milanova","sport":"climbing","website":"https://www.horosvaz.cz/skaly-cesta-13111/"}},"11920522796":{"lat":49.9963327,"lon":13.1713169,"ts":"2024-05-20T20:13:41Z","tz":1,"tags":{"climbing":"route_bottom","climbing:grade:uiaa":"5+","name":"Milanova direkt","sport":"climbing","website":"https://www.horosvaz.cz/skaly-cesta-13112/"}},"11920522797":{"lat":49.9963203,"lon":13.1713172,"ts":"2024-05-20T20:13:41Z","tz":1,"tags":{"climbing":"route_bottom","climbing:grade:uiaa":"3","name":"Pravý komín","sport":"climbing","website":"https://www.horosvaz.cz/skaly-cesta-13113/"}},"11920522798":{"lat":49.9963079,"lon":13.1713174,"ts":"2024-05-20T20:13:41Z","tz":1,"tags":{"climbing":"route_bottom","climbing:grade:uiaa":"5+","name":"Váhavá","sport":"climbing","website":"https://www.horosvaz.cz/skaly-cesta-13114/"}},"11920522799":{"lat":49.9962955,"lon":13.1713176,"ts":"2024-05-20T20:13:41Z","tz":1,"tags":{"climbing":"route_bottom","climbing:grade:uiaa":"6","name":"Opoziční","sport":"climbing","website":"https://www.horosvaz.cz/skaly-cesta-13115/"}},"11920522800":{"lat":49.9962832,"lon":13.1713178,"ts":"2024-05-20T20:13:41Z","tz":1,"tags":{"climbing":"route_bottom","climbing:grade:uiaa":"6","name":"Bestseler","sport":"climbing","website":"https://www.horosvaz.cz/skaly-cesta-13116/"}},"11920522801":{"lat":49.9962708,"lon":13.171318,"ts":"2024-05-20T20:13:41Z","tz":1,"tags":{"climbing":"route_bottom","climbing:grade:uiaa":"3","name":"Lavinový komín","sport":"climbing","website":"https://www.horosvaz.cz/skaly-cesta-13117/"}},"11920522802":{"lat":49.9962584,"lon":13.1713183,"ts":"2024-05-20T20:13:41Z","tz":1,"tags":{"climbing":"route_bottom","climbing:grade:uiaa":"4+","name":"Opomíjený převis","sport":"climbing","website":"https://www.horosvaz.cz/skaly-cesta-75822/"}},"11920524749":{"lat":49.9963363,"lon":13.1711533,"ts":"2024-05-20T20:15:06Z","tz":1,"tags":{"climbing":"route_bottom","climbing:grade:uiaa":"4+","name":"Pohřební","sport":"climbing","website":"https://www.horosvaz.cz/skaly-cesta-13118/"}},"11920524750":{"lat":49.9963249,"lon":13.1711501,"ts":"2024-05-20T20:15:06Z","tz":1,"tags":{"climbing":"route_bottom","climbing:grade:uiaa":"6","name":"Síla chtivosti","sport":"climbing","website":"https://www.horosvaz.cz/skaly-cesta-13119/"}},"11920524751":{"lat":49.9963136,"lon":13.171147,"ts":"2024-05-20T20:15:06Z","tz":1,"tags":{"climbing":"route_bottom","climbing:grade:uiaa":"4+","name":"Žihadlo","sport":"climbing","website":"https://www.horosvaz.cz/skaly-cesta-13120/"}},"11920524752":{"lat":49.996322,"lon":13.1711205,"ts":"2024-05-20T20:15:06Z","tz":1,"tags":{"climbing":"route_bottom","climbing:grade:uiaa":"1","name":"Normální cesta","sport":"climbing","website":"https://www.horosvaz.cz/skaly-cesta-13121/"}},"11920532674":{"lat":49.9949398,"lon":13.1665285,"ts":"2024-05-20T20:16:37Z","tz":1,"tags":{"climbing":"route_bottom","climbing:grade:uiaa":"2","name":"Východní","sport":"climbing","website":"https://www.horosvaz.cz/skaly-cesta-13059/"}},"11920532675":{"lat":49.9949371,"lon":13.1665099,"ts":"2024-05-20T20:16:37Z","tz":1,"tags":{"climbing":"route_bottom","climbing:grade:uiaa":"7-","name":"Velikonoční potěšení","sport":"climbing","website":"https://www.horosvaz.cz/skaly-cesta-75725/"}},"11920532676":{"lat":49.9949343,"lon":13.1664913,"ts":"2024-05-20T20:16:37Z","tz":1,"tags":{"climbing":"route_bottom","climbing:grade:uiaa":"6","name":"Šípková Růženka","sport":"climbing","website":"https://www.horosvaz.cz/skaly-cesta-13060/"}},"11920532677":{"lat":49.9949315,"lon":13.1664726,"ts":"2024-05-20T20:16:37Z","tz":1,"tags":{"climbing":"route_bottom","climbing:grade:uiaa":"7","name":"Oslnění","sport":"climbing","website":"https://www.horosvaz.cz/skaly-cesta-108256/"}},"11920532678":{"lat":49.9949288,"lon":13.166454,"ts":"2024-05-20T20:16:37Z","tz":1,"tags":{"climbing":"route_bottom","climbing:grade:uiaa":"4","name":"Kuřácká","sport":"climbing","website":"https://www.horosvaz.cz/skaly-cesta-13061/"}},"11921500835":{"lat":49.9932231,"lon":13.1606549,"ts":"2024-05-21T06:20:59Z","tz":1,"tags":{"climbing":"route_bottom","climbing:grade:uiaa":"5+","name":"Samotářská","sport":"climbing","website":"https://www.horosvaz.cz/skaly-cesta-12974/"}},"11921500836":{"lat":49.9932171,"lon":13.1606319,"ts":"2024-05-21T06:20:59Z","tz":1,"tags":{"climbing":"route_bottom","climbing:grade:uiaa":"6","name":"Nashvillské radovánky","sport":"climbing","website":"https://www.horosvaz.cz/skaly-cesta-12967/"}},"11921500837":{"lat":49.9932177,"lon":13.1606016,"ts":"2024-05-21T06:20:59Z","tz":1,"tags":{"climbing":"route_bottom","climbing:grade:uiaa":"6-","name":"Rozprávková přímo","sport":"climbing","website":"https://www.horosvaz.cz/skaly-cesta-12968/"}},"11921500838":{"lat":49.9932251,"lon":13.1605879,"ts":"2024-05-21T06:20:59Z","tz":1,"tags":{"climbing":"route_bottom","climbing:grade:uiaa":"5+","name":"Rozprávková","sport":"climbing","website":"https://www.horosvaz.cz/skaly-cesta-12969/"}},"11921500839":{"lat":49.9932365,"lon":13.1605737,"ts":"2024-05-21T06:20:59Z","tz":1,"tags":{"climbing":"route_bottom","climbing:grade:uiaa":"5+","name":"Magi v kostkách","sport":"climbing","website":"https://www.horosvaz.cz/skaly-cesta-12975/"}},"11921500840":{"lat":49.9932423,"lon":13.1605743,"ts":"2024-05-21T06:20:59Z","tz":1,"tags":{"climbing":"route_bottom","climbing:grade:uiaa":"6","name":"Kloubní varianta","sport":"climbing","website":"https://www.horosvaz.cz/skaly-cesta-12971/"}},"11921500841":{"lat":49.993249,"lon":13.160574,"ts":"2024-05-21T06:20:59Z","tz":1,"tags":{"climbing":"route_bottom","climbing:grade:uiaa":"6","name":"Normální cesta","sport":"climbing","website":"https://www.horosvaz.cz/skaly-cesta-12970/"}},"11921500842":{"lat":49.9932517,"lon":13.1605821,"ts":"2024-05-21T06:20:59Z","tz":1,"tags":{"climbing":"route_bottom","climbing:grade:uiaa":"5+","name":"Severozápadní hrana","sport":"climbing","website":"https://www.horosvaz.cz/skaly-cesta-12973/"}},"11921500843":{"lat":49.9932582,"lon":13.1605972,"ts":"2024-05-21T06:20:59Z","tz":1,"tags":{"climbing":"route_bottom","climbing:grade:uiaa":"6+","name":"Ujíždějící mozek","sport":"climbing","website":"https://www.horosvaz.cz/skaly-cesta-12972/"}},"11921550025":{"lat":49.9967084,"lon":13.1696046,"ts":"2024-05-21T07:01:23Z","tz":1,"tags":{"climbing":"route_bottom","climbing:grade:uiaa":"5+","name":"Houbové kváknutí","sport":"climbing","website":"https://www.horosvaz.cz/skaly-cesta-107965/"}},"11921550026":{"lat":49.9967097,"lon":13.1696259,"ts":"2024-05-21T07:01:23Z","tz":1,"tags":{"climbing":"route_bottom","climbing:grade:uiaa":"6+","name":"Hladký stehno","sport":"climbing","website":"https://www.horosvaz.cz/skaly-cesta-107966/"}},"11921550027":{"lat":49.9967111,"lon":13.1696472,"ts":"2024-05-21T07:01:23Z","tz":1,"tags":{"climbing":"route_bottom","climbing:grade:uiaa":"5-","name":"Flanelové kalhotky","sport":"climbing","website":"https://www.horosvaz.cz/skaly-cesta-107912/"}},"11921550028":{"lat":49.9967124,"lon":13.1696686,"ts":"2024-05-21T07:01:23Z","tz":1,"tags":{"climbing":"route_bottom","climbing:grade:uiaa":"7-","name":"Geomykolog","sport":"climbing","website":"https://www.horosvaz.cz/skaly-cesta-108862/"}},"11921550029":{"lat":49.9967137,"lon":13.1696899,"ts":"2024-05-21T07:01:23Z","tz":1,"tags":{"climbing":"route_bottom","climbing:grade:uiaa":"8+/9-","name":"Hrana bdělých občanů","sport":"climbing","website":"https://www.horosvaz.cz/skaly-cesta-108402/"}},"11921550030":{"lat":49.9967151,"lon":13.1697112,"ts":"2024-05-21T07:01:23Z","tz":1,"tags":{"climbing":"route_bottom","climbing:grade:uiaa":"8-","name":"Nepůvodní druh","sport":"climbing","website":"https://www.horosvaz.cz/skaly-cesta-108596/"}},"11921550031":{"lat":49.9967164,"lon":13.1697326,"ts":"2024-05-21T07:01:23Z","tz":1,"tags":{"climbing":"route_bottom","climbing:grade:uiaa":"7+","name":"Otřesná","sport":"climbing","website":"https://www.horosvaz.cz/skaly-cesta-12776/"}},"11921550032":{"lat":49.9967177,"lon":13.1697539,"ts":"2024-05-21T07:01:23Z","tz":1,"tags":{"climbing":"route_bottom","climbing:grade:uiaa":"9/9+","name":"Labutí plíseň","sport":"climbing","website":"https://www.horosvaz.cz/skaly-cesta-116954/"}},"11921550033":{"lat":49.9967191,"lon":13.1697753,"ts":"2024-05-21T07:01:23Z","tz":1,"tags":{"climbing":"route_bottom","climbing:grade:uiaa":"8-","name":"Sika na odstřel","sport":"climbing","website":"https://www.horosvaz.cz/skaly-cesta-108595/"}},"11921550034":{"lat":49.9967204,"lon":13.1697966,"ts":"2024-05-21T07:01:23Z","tz":1,"tags":{"climbing":"route_bottom","climbing:grade:uiaa":"7+","name":"Zdání klame","sport":"climbing","website":"https://www.horosvaz.cz/skaly-cesta-12777/"}},"11921550035":{"lat":49.9967217,"lon":13.1698179,"ts":"2024-05-21T07:01:23Z","tz":1,"tags":{"climbing":"route_bottom","climbing:grade:uiaa":"5","name":"Kontrafluktuant","sport":"climbing","website":"https://www.horosvaz.cz/skaly-cesta-116120/"}},"11921581363":{"lat":49.9933281,"lon":13.1606136,"ts":"2024-05-21T06:58:14Z","tz":1,"tags":{"climbing":"route_bottom","climbing:grade:uiaa":"2","name":"Jihovýchodní hrana","sport":"climbing","website":"https://www.horosvaz.cz/skaly-cesta-12984/"}},"11921581364":{"lat":49.9933266,"lon":13.1605878,"ts":"2024-05-21T06:58:14Z","tz":1,"tags":{"climbing":"route_bottom","climbing:grade:uiaa":"5","name":"Lišejová","sport":"climbing","website":"https://www.horosvaz.cz/skaly-cesta-12985/"}},"11921581365":{"lat":49.9933251,"lon":13.160562,"ts":"2024-05-21T06:58:14Z","tz":1,"tags":{"climbing":"route_bottom","climbing:grade:uiaa":"5","name":"Efektní","sport":"climbing","website":"https://www.horosvaz.cz/skaly-cesta-12986/"}},"11921581366":{"lat":49.9933236,"lon":13.1605361,"ts":"2024-05-21T06:58:14Z","tz":1,"tags":{"climbing":"route_bottom","climbing:grade:uiaa":"3","name":"Červnová hrana","sport":"climbing","website":"https://www.horosvaz.cz/skaly-cesta-12987/"}},"11921904356":{"lat":49.9966948,"lon":13.1665919,"ts":"2024-05-21T10:16:54Z","tz":1,"tags":{"climbing":"route_bottom","climbing:grade:uiaa":"4+","name":"Kondička","sport":"climbing","website":"https://www.horosvaz.cz/skaly-cesta-12753/"}},"11921904357":{"lat":49.9966954,"lon":13.1666187,"ts":"2024-05-21T10:16:54Z","tz":1,"tags":{"climbing":"route_bottom","climbing:grade:uiaa":"3","name":"Normální cesta","sport":"climbing","website":"https://www.horosvaz.cz/skaly-cesta-12754/"}},"11924897109":{"lat":49.9948007,"lon":13.1655564,"ts":"2024-05-22T07:34:43Z","tz":1,"tags":{"climbing":"route_bottom","climbing:grade:uiaa":"6-","name":"Zdánlivá","sport":"climbing","website":"https://www.horosvaz.cz/skaly-cesta-13034/"}},"11924897110":{"lat":49.9948006,"lon":13.1655328,"ts":"2024-05-22T07:34:43Z","tz":1,"tags":{"climbing":"route_bottom","climbing:grade:uiaa":"3","name":"Třívaječná","sport":"climbing","website":"https://www.horosvaz.cz/skaly-cesta-13035/"}},"11924897111":{"lat":49.9948004,"lon":13.1655092,"ts":"2024-07-30T14:49:28Z","tz":1,"tags":{"climbing":"route_bottom","climbing:grade:uiaa":"5+","name":"Za pár","sport":"climbing","website":"https://www.horosvaz.cz/skaly-cesta-13036/"}},"11924897112":{"lat":49.9948002,"lon":13.1654856,"ts":"2024-05-22T07:34:43Z","tz":1,"tags":{"climbing":"route_bottom","climbing:grade:uiaa":"7-","name":"Živý žebřík","sport":"climbing","website":"https://www.horosvaz.cz/skaly-cesta-13037/"}},"11924897113":{"lat":49.9948001,"lon":13.165462,"ts":"2024-07-30T14:49:28Z","tz":1,"tags":{"climbing":"route_bottom","climbing:grade:uiaa":"5+","name":"Suchopár","sport":"climbing","website":"https://www.horosvaz.cz/skaly-cesta-13038/"}},"11924940261":{"lat":49.99476,"lon":13.1654,"ts":"2024-05-22T07:35:01Z","tz":1,"tags":{"climbing":"route_bottom","climbing:grade:uiaa":"4+","name":"Záludná","sport":"climbing","website":"https://www.horosvaz.cz/skaly-cesta-13033/"}},"11924946741":{"lat":49.9949128,"lon":13.1664377,"ts":"2024-05-22T07:36:07Z","tz":1,"tags":{"climbing":"route_bottom","climbing:grade:uiaa":"6-","name":"Šípková","sport":"climbing","website":"https://www.horosvaz.cz/skaly-cesta-13055/"}},"11924946742":{"lat":49.994912,"lon":13.1664219,"ts":"2024-05-22T07:36:07Z","tz":1,"tags":{"climbing":"route_bottom","climbing:grade:uiaa":"5+","name":"Elixír","sport":"climbing","website":"https://www.horosvaz.cz/skaly-cesta-13056/"}},"11924946743":{"lat":49.9949113,"lon":13.1664062,"ts":"2024-05-22T07:36:07Z","tz":1,"tags":{"climbing":"route_bottom","climbing:grade:uiaa":"4","name":"Ptačí spára","sport":"climbing","website":"https://www.horosvaz.cz/skaly-cesta-13057/"}},"11924946744":{"lat":49.9949105,"lon":13.1663904,"ts":"2024-05-22T07:36:07Z","tz":1,"tags":{"climbing":"route_bottom","climbing:grade:uiaa":"4-","name":"Nemanželská","sport":"climbing","website":"https://www.horosvaz.cz/skaly-cesta-13058/"}},"11925727132":{"lat":49.9965312,"lon":13.1669017,"ts":"2024-05-22T14:00:16Z","tz":1,"tags":{"climbing":"route_bottom","climbing:grade:uiaa":"5","name":"Dračí spára","sport":"climbing","website":"https://www.horosvaz.cz/skaly-cesta-12859/"}},"11925727133":{"lat":49.9965287,"lon":13.166923,"ts":"2024-05-22T14:00:16Z","tz":1,"tags":{"climbing":"route_bottom","climbing:grade:uiaa":"7+","name":"Dračí stěna","sport":"climbing","website":"https://www.horosvaz.cz/skaly-cesta-12860/"}},"11925727134":{"lat":49.9965263,"lon":13.1669442,"ts":"2024-05-22T14:00:16Z","tz":1,"tags":{"climbing":"route_bottom","climbing:grade:uiaa":"8","name":"Polibek Draka","sport":"climbing","website":"https://www.horosvaz.cz/skaly-cesta-118524/"}},"11925727135":{"lat":49.9965239,"lon":13.1669654,"ts":"2024-05-22T14:00:16Z","tz":1,"tags":{"climbing":"route_bottom","climbing:grade:uiaa":"8","name":"Jak Vycvičit Draka","sport":"climbing","website":"https://www.horosvaz.cz/skaly-cesta-118525/"}},"11925727136":{"lat":49.9965214,"lon":13.1669867,"ts":"2024-05-22T14:00:16Z","tz":1,"tags":{"climbing":"route_bottom","climbing:grade:uiaa":"7+","name":"Hrana tápání","sport":"climbing","website":"https://www.horosvaz.cz/skaly-cesta-12861/"}},"11925727137":{"lat":49.996519,"lon":13.1670079,"ts":"2024-05-22T14:00:16Z","tz":1,"tags":{"climbing":"route_bottom","climbing:grade:uiaa":"6/6+","name":"Skyhook Vytrhsom","sport":"climbing","website":"https://www.horosvaz.cz/skaly-cesta-117609/"}},"11925775229":{"lat":49.9976157,"lon":13.1732473,"ts":"2024-05-22T14:06:23Z","tz":1,"tags":{"climbing":"route_bottom","climbing:grade:uiaa":"2","name":"Východní hrana","sport":"climbing","website":"https://www.horosvaz.cz/skaly-cesta-13122/"}},"11925775230":{"lat":49.9976067,"lon":13.1732642,"ts":"2024-05-22T14:06:23Z","tz":1,"tags":{"climbing":"route_bottom","climbing:grade:uiaa":"5","name":"Mňoukačka","sport":"climbing","website":"https://www.horosvaz.cz/skaly-cesta-13123/"}},"11925775231":{"lat":49.9975976,"lon":13.1732811,"ts":"2024-05-22T14:06:23Z","tz":1,"tags":{"climbing":"route_bottom","climbing:grade:uiaa":"6+","name":"Expo 1967","sport":"climbing","website":"https://www.horosvaz.cz/skaly-cesta-13124/"}},"11925775232":{"lat":49.9975886,"lon":13.173298,"ts":"2024-05-22T14:06:23Z","tz":1,"tags":{"climbing":"route_bottom","climbing:grade:uiaa":"5-","name":"Sólokapr","sport":"climbing","website":"https://www.horosvaz.cz/skaly-cesta-75823/"}},"11925775233":{"lat":49.9975795,"lon":13.1733149,"ts":"2024-05-22T14:06:23Z","tz":1,"tags":{"climbing":"route_bottom","climbing:grade:uiaa":"3+","name":"Západní hrana","sport":"climbing","website":"https://www.horosvaz.cz/skaly-cesta-13125/"}},"11925829923":{"lat":49.9956854,"lon":13.1697825,"ts":"2024-05-22T14:13:08Z","tz":1,"tags":{"climbing":"route_bottom","climbing:grade:uiaa":"5","name":"Apolonka","sport":"climbing","website":"https://www.horosvaz.cz/skaly-cesta-13097/"}},"11925829924":{"lat":49.9956628,"lon":13.1697585,"ts":"2024-05-22T14:13:08Z","tz":1,"tags":{"climbing":"route_bottom","climbing:grade:uiaa":"6+","name":"Blaho člověka","sport":"climbing","website":"https://www.horosvaz.cz/skaly-cesta-13098/"}},"11925829925":{"lat":49.9956629,"lon":13.1697356,"ts":"2024-05-22T14:13:08Z","tz":1,"tags":{"climbing":"route_bottom","climbing:grade:uiaa":"6","name":"Srazová","sport":"climbing","website":"https://www.horosvaz.cz/skaly-cesta-13096/"}},"11925829926":{"lat":49.9956658,"lon":13.1697079,"ts":"2024-05-22T14:13:08Z","tz":1,"tags":{"climbing":"route_bottom","climbing:grade:uiaa":"4","name":"Údolní hrana","sport":"climbing","website":"https://www.horosvaz.cz/skaly-cesta-13099/"}},"11925829927":{"lat":49.9956896,"lon":13.1696845,"ts":"2024-05-22T14:13:08Z","tz":1,"tags":{"climbing":"route_bottom","climbing:grade:uiaa":"4","name":"Divná čtyřka","sport":"climbing","website":"https://www.horosvaz.cz/skaly-cesta-75821/"}},"11925829928":{"lat":49.9957028,"lon":13.1696842,"ts":"2024-05-22T14:13:08Z","tz":1,"tags":{"climbing":"route_bottom","climbing:grade:uiaa":"3","name":"Večerní spára","sport":"climbing","website":"https://www.horosvaz.cz/skaly-cesta-13100/"}},"11925829929":{"lat":49.9957101,"lon":13.1697144,"ts":"2024-05-22T14:13:08Z","tz":1,"tags":{"climbing":"route_bottom","climbing:grade:uiaa":"4","name":"Ukradená čepice","sport":"climbing","website":"https://www.horosvaz.cz/skaly-cesta-13101/"}},"11925829930":{"lat":49.9957093,"lon":13.1697347,"ts":"2024-05-22T14:13:08Z","tz":1,"tags":{"climbing":"route_bottom","climbing:grade:uiaa":"4","name":"Poslední","sport":"climbing","website":"https://www.horosvaz.cz/skaly-cesta-13102/"}},"11925829931":{"lat":49.9957055,"lon":13.1697471,"ts":"2024-05-22T14:13:08Z","tz":1,"tags":{"climbing":"route_bottom","climbing:grade:uiaa":"3","name":"Normální cesta","sport":"climbing","website":"https://www.horosvaz.cz/skaly-cesta-13103/"}},"11925831700":{"lat":49.9966178,"lon":13.1678116,"ts":"2024-05-22T14:03:37Z","tz":1,"tags":{"climbing":"route_bottom","climbing:grade:uiaa":"4","name":"Normální cesta","sport":"climbing","website":"https://www.horosvaz.cz/skaly-cesta-12847/"}},"11925832642":{"lat":49.9965507,"lon":13.1685936,"ts":"2024-05-22T14:04:18Z","tz":1,"tags":{"climbing":"route_bottom","climbing:grade:uiaa":"5","name":"Inspirace","sport":"climbing","website":"https://www.horosvaz.cz/skaly-cesta-12789/"}},"11925832643":{"lat":49.99655,"lon":13.1686165,"ts":"2024-05-22T14:04:18Z","tz":1,"tags":{"climbing":"route_bottom","climbing:grade:uiaa":"4","name":"Rozcvička","sport":"climbing","website":"https://www.horosvaz.cz/skaly-cesta-12790/"}},"11925832644":{"lat":49.9965493,"lon":13.1686394,"ts":"2024-05-22T14:04:18Z","tz":1,"tags":{"climbing":"route_bottom","climbing:grade:uiaa":"6","name":"Slizská","sport":"climbing","website":"https://www.horosvaz.cz/skaly-cesta-12791/"}},"11925832645":{"lat":49.9965486,"lon":13.1686624,"ts":"2024-05-22T14:04:18Z","tz":1,"tags":{"climbing":"route_bottom","climbing:grade:uiaa":"6+","name":"Vyhlídková jízda","sport":"climbing","website":"https://www.horosvaz.cz/skaly-cesta-12788/"}},"11925832646":{"lat":49.9965479,"lon":13.1686853,"ts":"2024-05-22T14:04:18Z","tz":1,"tags":{"climbing":"route_bottom","climbing:grade:uiaa":"5+","name":"Pstruhová","sport":"climbing","website":"https://www.horosvaz.cz/skaly-cesta-12792/"}},"11925832647":{"lat":49.9965393,"lon":13.1687038,"ts":"2024-05-22T14:04:18Z","tz":1,"tags":{"climbing":"route_bottom","climbing:grade:uiaa":"5","name":"Profesorská","sport":"climbing","website":"https://www.horosvaz.cz/skaly-cesta-115852/"}},"11925837347":{"lat":49.9965241,"lon":13.1668535,"ts":"2024-05-22T14:01:24Z","tz":1,"tags":{"climbing":"route_bottom","climbing:grade:uiaa":"6+","name":"Podzimní","sport":"climbing","website":"https://www.horosvaz.cz/skaly-cesta-12796/"}},"11925837348":{"lat":49.9965241,"lon":13.166867,"ts":"2024-05-22T14:01:24Z","tz":1,"tags":{"climbing":"route_bottom","climbing:grade:uiaa":"3","name":"Východní hrana","sport":"climbing","website":"https://www.horosvaz.cz/skaly-cesta-12797/"}},"11925838564":{"lat":49.9965398,"lon":13.1683773,"ts":"2024-05-22T14:03:56Z","tz":1,"tags":{"climbing":"route_bottom","climbing:grade:uiaa":"6-","name":"Lomnická","sport":"climbing","website":"https://www.horosvaz.cz/skaly-cesta-12842/"}},"11925838565":{"lat":49.9965394,"lon":13.1684025,"ts":"2024-05-22T14:03:56Z","tz":1,"tags":{"climbing":"route_bottom","climbing:grade:uiaa":"2","name":"Cesta pro Sviště","sport":"climbing","website":"https://www.horosvaz.cz/skaly-cesta-12843/"}},"11925838566":{"lat":49.996539,"lon":13.1684278,"ts":"2024-05-22T14:03:56Z","tz":1,"tags":{"climbing":"route_bottom","climbing:grade:uiaa":"5+","name":"Centrální","sport":"climbing","website":"https://www.horosvaz.cz/skaly-cesta-12844/"}},"11925838567":{"lat":49.9965385,"lon":13.168453,"ts":"2024-05-22T14:03:56Z","tz":1,"tags":{"climbing":"route_bottom","climbing:grade:uiaa":"3","name":"Spára korzárů","sport":"climbing","website":"https://www.horosvaz.cz/skaly-cesta-12845/"}},"11925838568":{"lat":49.9965381,"lon":13.1684782,"ts":"2024-05-22T14:03:56Z","tz":1,"tags":{"climbing":"route_bottom","climbing:grade:uiaa":"4","name":"Pilíř horských vlků","sport":"climbing","website":"https://www.horosvaz.cz/skaly-cesta-12846/"}},"11925839630":{"lat":49.99659,"lon":13.1671165,"ts":"2024-05-22T14:03:04Z","tz":1,"tags":{"climbing":"route_bottom","climbing:grade:uiaa":"3","name":"Hlavní instruktor","sport":"climbing","website":"https://www.horosvaz.cz/skaly-cesta-109641/"}},"11925839631":{"lat":49.9966019,"lon":13.1671148,"ts":"2024-05-22T14:03:04Z","tz":1,"tags":{"climbing":"route_bottom","climbing:grade:uiaa":"4","name":"Rozcvička","sport":"climbing","website":"https://www.horosvaz.cz/skaly-cesta-109640/"}},"11925839632":{"lat":49.9966134,"lon":13.1671177,"ts":"2024-05-22T14:03:04Z","tz":1,"tags":{"climbing":"route_bottom","climbing:grade:uiaa":"5+","name":"Údolní traverz","sport":"climbing","website":"https://www.horosvaz.cz/skaly-cesta-12850/"}},"11925839633":{"lat":49.996616,"lon":13.1671329,"ts":"2024-05-22T14:03:04Z","tz":1,"tags":{"climbing":"route_bottom","climbing:grade:uiaa":"2","name":"Komínová varianta","sport":"climbing","website":"https://www.horosvaz.cz/skaly-cesta-12851/"}},"11925839634":{"lat":49.9966128,"lon":13.1671546,"ts":"2024-05-22T14:03:04Z","tz":1,"tags":{"climbing":"route_bottom","climbing:grade:uiaa":"4","name":"Hrana pilíře","sport":"climbing","website":"https://www.horosvaz.cz/skaly-cesta-12849/"}},"11925839635":{"lat":49.9966096,"lon":13.1671763,"ts":"2024-05-22T14:03:04Z","tz":1,"tags":{"climbing":"route_bottom","climbing:grade:uiaa":"8-","name":"Cesta do deště direkt","sport":"climbing","website":"https://www.horosvaz.cz/skaly-cesta-12852/"}},"11925839636":{"lat":49.9966064,"lon":13.1671981,"ts":"2024-05-22T14:03:04Z","tz":1,"tags":{"climbing":"route_bottom","climbing:grade:uiaa":"7","name":"Cesta do deště","sport":"climbing","website":"https://www.horosvaz.cz/skaly-cesta-12848/"}},"11925839637":{"lat":49.9966031,"lon":13.1672198,"ts":"2024-05-22T14:03:04Z","tz":1,"tags":{"climbing":"route_bottom","climbing:grade:uiaa":"4","name":"Spárová varianta","sport":"climbing","website":"https://www.horosvaz.cz/skaly-cesta-12853/"}},"11925839638":{"lat":49.9965999,"lon":13.1672415,"ts":"2024-05-22T14:03:04Z","tz":1,"tags":{"climbing":"route_bottom","climbing:grade:uiaa":"6","name":"Přímá varianta","sport":"climbing","website":"https://www.horosvaz.cz/skaly-cesta-12854/"}},"11925839639":{"lat":49.9965967,"lon":13.1672633,"ts":"2024-05-22T14:03:04Z","tz":1,"tags":{"climbing":"route_bottom","climbing:grade:uiaa":"6","name":"Údolní stěna","sport":"climbing","website":"https://www.horosvaz.cz/skaly-cesta-12855/"}},"11925839640":{"lat":49.9965935,"lon":13.167285,"ts":"2024-05-22T14:03:04Z","tz":1,"tags":{"climbing":"route_bottom","climbing:grade:uiaa":"7+","name":"Suchá Škeble","sport":"climbing","website":"https://www.horosvaz.cz/skaly-cesta-118521/"}},"11925839641":{"lat":49.9965847,"lon":13.1672935,"ts":"2024-05-22T14:03:04Z","tz":1,"tags":{"climbing":"route_bottom","climbing:grade:uiaa":"7+/8-","name":"Lubrikant","sport":"climbing","website":"https://www.horosvaz.cz/skaly-cesta-118523/"}},"11925839642":{"lat":49.9965756,"lon":13.167302,"ts":"2024-05-22T14:03:04Z","tz":1,"tags":{"climbing":"route_bottom","climbing:grade:uiaa":"7+","name":"Vlhká Lasturka","sport":"climbing","website":"https://www.horosvaz.cz/skaly-cesta-118522/"}},"11925839643":{"lat":49.9965658,"lon":13.1672983,"ts":"2024-05-22T14:03:04Z","tz":1,"tags":{"climbing":"route_bottom","climbing:grade:uiaa":"5","name":"Červnová","sport":"climbing","website":"https://www.horosvaz.cz/skaly-cesta-12856/"}},"11925839644":{"lat":49.9965567,"lon":13.167288,"ts":"2024-05-22T14:03:04Z","tz":1,"tags":{"climbing":"route_bottom","climbing:grade:uiaa":"6+","name":"Online meeting","sport":"climbing","website":"https://www.horosvaz.cz/skaly-cesta-115530/"}},"11925839645":{"lat":49.9965486,"lon":13.1672736,"ts":"2024-05-22T14:03:04Z","tz":1,"tags":{"climbing":"route_bottom","climbing:grade:uiaa":"4","name":"Jižní","sport":"climbing","website":"https://www.horosvaz.cz/skaly-cesta-12857/"}},"11925839646":{"lat":49.9965421,"lon":13.1672577,"ts":"2024-05-22T14:03:04Z","tz":1,"tags":{"climbing":"route_bottom","climbing:grade:uiaa":"2","name":"Normální cesta","sport":"climbing","website":"https://www.horosvaz.cz/skaly-cesta-12858/"}},"11925847095":{"lat":49.9968993,"lon":13.1698647,"ts":"2024-05-22T14:04:48Z","tz":1,"tags":{"climbing":"route_bottom","climbing:grade:uiaa":"4","name":"Polárnická","sport":"climbing","website":"https://www.horosvaz.cz/skaly-cesta-12771/"}},"11925847096":{"lat":49.9968989,"lon":13.1698879,"ts":"2024-05-22T14:04:48Z","tz":1,"tags":{"climbing":"route_bottom","climbing:grade:uiaa":"4","name":"Skládačka","sport":"climbing","website":"https://www.horosvaz.cz/skaly-cesta-12772/"}},"11925847097":{"lat":49.9968885,"lon":13.1698776,"ts":"2024-05-22T14:04:48Z","tz":1,"tags":{"climbing":"route_bottom","climbing:grade:uiaa":"2","name":"Zmrzlá","sport":"climbing","website":"https://www.horosvaz.cz/skaly-cesta-12773/"}},"11925859174":{"lat":49.9974919,"lon":13.1732541,"ts":"2024-05-22T14:05:48Z","tz":1,"tags":{"climbing":"route_bottom","climbing:grade:uiaa":"4","name":"Lákavá","sport":"climbing","website":"https://www.horosvaz.cz/skaly-cesta-13104/"}},"11925867903":{"lat":49.9943757,"lon":13.1575264,"ts":"2024-05-22T14:16:33Z","tz":1,"tags":{"climbing":"route_bottom","climbing:grade:uiaa":"3","name":"Černá hrana","sport":"climbing","website":"https://www.horosvaz.cz/skaly-cesta-12932/"}},"11925867904":{"lat":49.9943867,"lon":13.1575073,"ts":"2024-05-22T14:16:33Z","tz":1,"tags":{"climbing":"route_bottom","climbing:grade:uiaa":"6-","name":"Javorová","sport":"climbing","website":"https://www.horosvaz.cz/skaly-cesta-12931/"}},"11925869389":{"lat":49.9956955,"lon":13.1694313,"ts":"2024-05-22T14:15:46Z","tz":1,"tags":{"climbing":"route_bottom","climbing:grade:uiaa":"2","name":"Náhorní hranka","sport":"climbing","website":"https://www.horosvaz.cz/skaly-cesta-116630/"}},"11925869390":{"lat":49.9956947,"lon":13.1694068,"ts":"2024-05-22T14:15:46Z","tz":1,"tags":{"climbing":"route_bottom","climbing:grade:uiaa":"3+","name":"Náhorní stěnka","sport":"climbing","website":"https://www.horosvaz.cz/skaly-cesta-116629/"}},"11925869391":{"lat":49.9956883,"lon":13.1693951,"ts":"2024-05-22T14:15:46Z","tz":1,"tags":{"climbing":"route_bottom","climbing:grade:uiaa":"4","name":"Yosemitský sokolík","sport":"climbing","website":"https://www.horosvaz.cz/skaly-cesta-116628/"}},"11925869392":{"lat":49.9956739,"lon":13.1693933,"ts":"2024-05-22T14:15:46Z","tz":1,"tags":{"climbing":"route_bottom","climbing:grade:uiaa":"4","name":"Trnobraní","sport":"climbing","website":"https://www.horosvaz.cz/skaly-cesta-116627/"}},"11925869393":{"lat":49.9956622,"lon":13.169408,"ts":"2024-05-22T14:15:46Z","tz":1,"tags":{"climbing":"route_bottom","climbing:grade:uiaa":"6","name":"Životní pojištění","sport":"climbing","website":"https://www.horosvaz.cz/skaly-cesta-116626/"}},"11925937276":{"lat":49.9604148,"lon":13.1601005,"ts":"2024-05-22T14:39:38Z","tz":1,"tags":{"climbing":"route_bottom","climbing:grade:uiaa":"3","name":"Vánoční","sport":"climbing","website":"https://www.horosvaz.cz/skaly-cesta-103939/"}},"11925937277":{"lat":49.960429,"lon":13.160102,"ts":"2024-05-22T14:39:38Z","tz":1,"tags":{"climbing":"route_bottom","climbing:grade:uiaa":"6-","name":"Šindelová","sport":"climbing","website":"https://www.horosvaz.cz/skaly-cesta-103974/"}},"11925937278":{"lat":49.9604433,"lon":13.1601035,"ts":"2024-05-22T14:39:38Z","tz":1,"tags":{"climbing":"route_bottom","climbing:grade:uiaa":"5","name":"Šrouby a matice","sport":"climbing","website":"https://www.horosvaz.cz/skaly-cesta-103949/"}},"11925937279":{"lat":49.9604576,"lon":13.160105,"ts":"2024-05-22T14:39:38Z","tz":1,"tags":{"climbing":"route_bottom","climbing:grade:uiaa":"6","name":"All inclusive","sport":"climbing","website":"https://www.horosvaz.cz/skaly-cesta-103948/"}},"11925937280":{"lat":49.9604718,"lon":13.1601065,"ts":"2024-05-22T14:39:38Z","tz":1,"tags":{"climbing":"route_bottom","climbing:grade:uiaa":"4+","name":"Cesta Lažanských","sport":"climbing","website":"https://www.horosvaz.cz/skaly-cesta-103947/"}},"11925937281":{"lat":49.9604861,"lon":13.1601081,"ts":"2024-05-22T14:39:38Z","tz":1,"tags":{"climbing":"route_bottom","climbing:grade:uiaa":"3+","name":"Tatranská","sport":"climbing","website":"https://www.horosvaz.cz/skaly-cesta-103946/"}},"11925937282":{"lat":49.9605003,"lon":13.1601096,"ts":"2024-05-22T14:39:38Z","tz":1,"tags":{"climbing":"route_bottom","climbing:grade:uiaa":"6+","name":"Nevřeňská hrana","sport":"climbing","website":"https://www.horosvaz.cz/skaly-cesta-103945/"}},"11925937283":{"lat":49.9605146,"lon":13.1601111,"ts":"2024-05-22T14:39:38Z","tz":1,"tags":{"climbing":"route_bottom","climbing:grade:uiaa":"4+","name":"Varianta Martinova Pilíře","sport":"climbing","website":"https://www.horosvaz.cz/skaly-cesta-103944/"}},"11925937284":{"lat":49.9605289,"lon":13.1601126,"ts":"2024-05-22T14:39:38Z","tz":1,"tags":{"climbing":"route_bottom","climbing:grade:uiaa":"4+","name":"Martinův pilíř","sport":"climbing","website":"https://www.horosvaz.cz/skaly-cesta-103943/"}},"11925937285":{"lat":49.9605431,"lon":13.1601141,"ts":"2024-05-22T14:39:38Z","tz":1,"tags":{"climbing":"route_bottom","climbing:grade:uiaa":"3+","name":"Normální cesta","sport":"climbing","website":"https://www.horosvaz.cz/skaly-cesta-103942/"}},"11925937286":{"lat":49.9605574,"lon":13.1601157,"ts":"2024-05-22T14:39:38Z","tz":1,"tags":{"climbing":"route_bottom","climbing:grade:uiaa":"4","name":"Puzzle","sport":"climbing","website":"https://www.horosvaz.cz/skaly-cesta-103941/"}},"11925937287":{"lat":49.9605717,"lon":13.1601172,"ts":"2024-05-22T14:39:38Z","tz":1,"tags":{"climbing":"route_bottom","climbing:grade:uiaa":"5+","name":"Nevikumiho cesta","sport":"climbing","website":"https://www.horosvaz.cz/skaly-cesta-103940/"}},"11925937288":{"lat":49.9605859,"lon":13.1601187,"ts":"2024-05-22T14:39:38Z","tz":1,"tags":{"climbing":"route_bottom","climbing:grade:uiaa":"6","name":"Večerní","sport":"climbing","website":"https://www.horosvaz.cz/skaly-cesta-103979/"}},"11925937289":{"lat":49.9606002,"lon":13.1601202,"ts":"2024-05-22T14:39:38Z","tz":1,"tags":{"climbing":"route_bottom","climbing:grade:uiaa":"5","name":"Vikumiho cesta","sport":"climbing","website":"https://www.horosvaz.cz/skaly-cesta-103938/"}},"11925937290":{"lat":49.9606145,"lon":13.1601217,"ts":"2024-05-22T14:39:38Z","tz":1,"tags":{"climbing":"route_bottom","climbing:grade:uiaa":"5","name":"Levý pilířek","sport":"climbing","website":"https://www.horosvaz.cz/skaly-cesta-103937/"}},"11926007247":{"lat":49.9936079,"lon":13.1618414,"ts":"2024-05-22T15:31:15Z","tz":1,"tags":{"climbing":"route_bottom","climbing:grade:uiaa":"4+","name":"Normální cesta","sport":"climbing","website":"https://www.horosvaz.cz/skaly-cesta-13028/"}},"11926007248":{"lat":49.9936077,"lon":13.1618256,"ts":"2024-05-22T15:31:15Z","tz":1,"tags":{"climbing":"route_bottom","climbing:grade:uiaa":"5","name":"Křeč","sport":"climbing","website":"https://www.horosvaz.cz/skaly-cesta-13029/"}},"11926051941":{"lat":49.9936202,"lon":13.1618417,"ts":"2024-05-22T15:29:53Z","tz":1,"tags":{"climbing":"route_bottom","climbing:grade:uiaa":"3","name":"Koutová","sport":"climbing","website":"https://www.horosvaz.cz/skaly-cesta-13027/"}},"11926053896":{"lat":49.9931098,"lon":13.1603199,"ts":"2024-05-22T15:28:31Z","tz":1,"tags":{"climbing":"route_bottom","climbing:grade:uiaa":"4+","name":"Gargamelův hněv","sport":"climbing","website":"https://www.horosvaz.cz/skaly-cesta-70711/"}},"11926053897":{"lat":49.9931091,"lon":13.1602971,"ts":"2024-05-22T15:28:31Z","tz":1,"tags":{"climbing":"route_bottom","climbing:grade:uiaa":"3","name":"Chomout","sport":"climbing","website":"https://www.horosvaz.cz/skaly-cesta-70712/"}},"11926053898":{"lat":49.9931085,"lon":13.1602743,"ts":"2024-05-22T15:28:31Z","tz":1,"tags":{"climbing":"route_bottom","climbing:grade:uiaa":"5-","name":"Mechová romance","sport":"climbing","website":"https://www.horosvaz.cz/skaly-cesta-70709/"}},"11926053899":{"lat":49.9931078,"lon":13.1602515,"ts":"2024-05-22T15:28:31Z","tz":1,"tags":{"climbing":"route_bottom","climbing:grade:uiaa":"5-","name":"Ferda kolem evropy","sport":"climbing","website":"https://www.horosvaz.cz/skaly-cesta-70707/"}},"11926053900":{"lat":49.9931072,"lon":13.1602287,"ts":"2024-05-22T15:28:31Z","tz":1,"tags":{"climbing":"route_bottom","climbing:grade:uiaa":"3","name":"Nohama vzhůru","sport":"climbing","website":"https://www.horosvaz.cz/skaly-cesta-70713/"}},"11926053901":{"lat":49.9931065,"lon":13.1602059,"ts":"2024-05-22T15:28:31Z","tz":1,"tags":{"climbing":"route_bottom","climbing:grade:uiaa":"5","name":"Kunice do žlábku","sport":"climbing","website":"https://www.horosvaz.cz/skaly-cesta-70705/"}},"11926057275":{"lat":49.9931319,"lon":13.16034,"ts":"2024-05-22T15:29:05Z","tz":1,"tags":{"climbing":"route_bottom","climbing:grade:uiaa":"5","name":"Cesta zralých jahod","sport":"climbing","website":"https://www.horosvaz.cz/skaly-cesta-12959/"}},"11926057276":{"lat":49.993132,"lon":13.1603175,"ts":"2024-05-22T15:29:05Z","tz":1,"tags":{"climbing":"route_bottom","climbing:grade:uiaa":"6-","name":"Východní stěna","sport":"climbing","website":"https://www.horosvaz.cz/skaly-cesta-12960/"}},"11926057277":{"lat":49.9931322,"lon":13.160295,"ts":"2024-05-22T15:29:05Z","tz":1,"tags":{"climbing":"route_bottom","climbing:grade:uiaa":"5+","name":"Manželské sedátko","sport":"climbing","website":"https://www.horosvaz.cz/skaly-cesta-12961/"}},"11926057278":{"lat":49.9931324,"lon":13.1602726,"ts":"2024-05-22T15:29:05Z","tz":1,"tags":{"climbing":"route_bottom","climbing:grade:uiaa":"4+","name":"Šípková","sport":"climbing","website":"https://www.horosvaz.cz/skaly-cesta-12962/"}},"11926057279":{"lat":49.9931325,"lon":13.1602501,"ts":"2024-05-22T15:29:05Z","tz":1,"tags":{"climbing":"route_bottom","climbing:grade:uiaa":"4-","name":"Údolní cesta","sport":"climbing","website":"https://www.horosvaz.cz/skaly-cesta-12963/"}},"11926057280":{"lat":49.9931327,"lon":13.1602277,"ts":"2024-05-22T15:29:05Z","tz":1,"tags":{"climbing":"route_bottom","climbing:grade:uiaa":"4","name":"Chuťovka","sport":"climbing","website":"https://www.horosvaz.cz/skaly-cesta-12964/"}},"11926057281":{"lat":49.9931328,"lon":13.1602052,"ts":"2024-05-22T15:29:05Z","tz":1,"tags":{"climbing":"route_bottom","climbing:grade:uiaa":"2","name":"Přepadová","sport":"climbing","website":"https://www.horosvaz.cz/skaly-cesta-12965/"}},"11926057282":{"lat":49.993133,"lon":13.1601827,"ts":"2024-05-22T15:29:05Z","tz":1,"tags":{"climbing":"route_bottom","climbing:grade:uiaa":"3","name":"Normální cesta","sport":"climbing","website":"https://www.horosvaz.cz/skaly-cesta-12966/"}},"11926835324":{"lat":49.9966248,"lon":13.1687726,"ts":"2024-05-22T20:25:56Z","tz":1,"tags":{"climbing":"route_bottom","climbing:grade:uiaa":"2","name":"Premiantský komín","sport":"climbing","website":"https://www.horosvaz.cz/skaly-cesta-115527/"}},"11926835325":{"lat":49.9966258,"lon":13.1687968,"ts":"2024-05-22T20:25:56Z","tz":1,"tags":{"climbing":"route_bottom","climbing:grade:uiaa":"3","name":"Turistika","sport":"climbing","website":"https://www.horosvaz.cz/skaly-cesta-12783/"}},"11926835326":{"lat":49.9966268,"lon":13.1688211,"ts":"2024-05-22T20:25:56Z","tz":1,"tags":{"climbing":"route_bottom","climbing:grade:uiaa":"6","name":"Cipískova","sport":"climbing","website":"https://www.horosvaz.cz/skaly-cesta-12784/"}},"11926835327":{"lat":49.9966278,"lon":13.1688453,"ts":"2024-05-22T20:25:56Z","tz":1,"tags":{"climbing":"route_bottom","climbing:grade:uiaa":"7","name":"Skleróza","sport":"climbing","website":"https://www.horosvaz.cz/skaly-cesta-113201/"}},"11926835328":{"lat":49.9966287,"lon":13.1688695,"ts":"2024-05-22T20:25:56Z","tz":1,"tags":{"climbing":"route_bottom","climbing:grade:uiaa":"6","name":"Švýcarská hrana","sport":"climbing","website":"https://www.horosvaz.cz/skaly-cesta-12785/"}},