{"17611894":{"lat":49.4297201,"lon":13.2159737,"ts":"2024-05-19T20:23:21Z","tz":1,"tags":{"climbing":"crag","name":"Řakom","site":"climbing","sport":"climbing","type":"site","website":"https://www.horosvaz.cz/skaly-skala-7430/"}},"879269806":{"lat":49.5746729,"lon":13.3313813,"ts":"2020-11-30T13:33:09Z","tz":1,"tags":{"leisure":"sports_centre","man_made":"tower","sport":"climbing","tower:type":"climbing"}},"11918400422":{"lat":49.4297793,"lon":13.2160316,"ts":"2024-05-19T20:23:21Z","tz":1,"tags":{"climbing":"route_bottom","name":"Citrónová","sport":"climbing","website":"https://www.horosvaz.cz/skaly-cesta-53136/"}},"11918400423":{"lat":49.4297661,"lon":13.2160187,"ts":"2024-05-19T20:23:21Z","tz":1,"tags":{"climbing":"route_bottom","climbing:grade:uiaa":"4","name":"Honička","sport":"climbing","website":"https://www.horosvaz.cz/skaly-cesta-53137/"}},"11918400424":{"lat":49.429753,"lon":13.2160058,"ts":"2024-05-19T20:23:21Z","tz":1,"tags":{"climbing":"route_bottom","climbing:grade:uiaa":"4","name":"Čubčí","sport":"climbing","website":"https://www.horosvaz.cz/skaly-cesta-53138/"}},"11918400425":{"lat":49.4297398,"lon":13.215993,"ts":"2024-05-19T20:23:21Z","tz":1,"tags":{"climbing":"route_bottom","climbing:grade:uiaa":"5+","name":"Řakomská","sport":"climbing","website":"https://www.horosvaz.cz/skaly-cesta-53139/"}},"11918400426":{"lat":49.4297266,"lon":13.2159801,"ts":"2024-05-19T20:23:21Z","tz":1,"tags":{"climbing":"route_bottom","climbing:grade:uiaa":"5-","name":"Bongová","sport":"climbing","website":"https://www.horosvaz.cz/skaly-cesta-53140/"}},"11918400427":{"lat":49.4297135,"lon":13.2159672,"ts":"2024-05-19T20:23:21Z","tz":1,"tags":{"climbing":"route_bottom","climbing:grade:uiaa":"5-","name":"Klekání","sport":"climbing","website":"https://www.horosvaz.cz/skaly-cesta-53141/"}},"11918400428":{"lat":49.4297003,"lon":13.2159543,"ts":"2024-05-19T20:23:21Z","tz":1,"tags":{"climbing":"route_bottom","climbing:grade:uiaa":"5+","name":"Diagonála","sport":"climbing","website":"https://www.horosvaz.cz/skaly-cesta-53142/"}},"11918400429":{"lat":49.4296871,"lon":13.2159415,"ts":"2024-05-19T20:23:21Z","tz":1,"tags":{"climbing":"route_bottom","climbing:grade:uiaa":"4","name":"Druhá varianta","sport":"climbing","website":"https://www.horosvaz.cz/skaly-cesta-53135/"}},"11918400430":{"lat":49.4296739,"lon":13.2159286,"ts":"2024-05-19T20:23:21Z","tz":1,"tags":{"climbing":"route_bottom","climbing:grade:uiaa":"4","name":"Varianta","sport":"climbing","website":"https://www.horosvaz.cz/skaly-cesta-53143/"}},"11918400431":{"lat":49.4296608,"lon":13.2159157,"ts":"2024-05-19T20:23:21Z","tz":1,"tags":{"climbing":"route_bottom","climbing:grade:uiaa":"4","name":"Odpolední","sport":"climbing","website":"https://www.horosvaz.cz/skaly-cesta-53144/"}},"12543381469":{"lat":49.4293905,"lon":13.2155836,"ts":"2025-01-30T09:50:22Z","tz":1,"tags":{"climbing":"yes","direction":"270","hiking":"yes","tourism":"viewpoint"}}}