{"224950416":{"lat":46.3488214,"lon":13.0645933,"ts":"2018-10-06T14:36:49Z","tz":1,"tags":{"name":"Palestra di roccia","natural":"cliff","sport":"climbing"}},"427237505":{"lat":46.402698,"lon":13.1826532,"ts":"2016-12-13T20:08:48Z","tz":1,"tags":{"name":"Falesia di Moggio","natural":"cliff","sport":"climbing"}},"532565592":{"lat":46.4495458,"lon":13.2583049,"ts":"2017-10-29T17:58:00Z","tz":1,"tags":{"climbing":"route","climbing:bolted":"yes","climbing:sport":"yes","sport":"climbing"}},"1299514782":{"lat":46.4071169,"lon":13.0412405,"ts":"2016-04-19T21:38:02Z","tz":1,"tags":{"leisure":"sports_centre","name":"Falesia del monte Strabut","place":"locality","sport":"climbing"}},"3107088534":{"lat":46.5162492,"lon":13.324592,"ts":"2016-07-15T16:46:08Z","tz":1,"tags":{"climbing:bolted":"yes","climbing:boulder":"no","climbing:grade:french:max":"7a-","climbing:grade:french:min":"4c","climbing:length":"18","climbing:length:max":"20","climbing:length:min":"16","climbing:multipitch":"no","climbing:quality":"solid","climbing:rock":"limestone","climbing:routes":"10","climbing:sport":"yes","climbing:toprope":"no","ele":"625","leisure":"sports_centre","name":"Palestra di roccia Rio degli Uccelli - Settore Lomasti","outdoor":"yes","sport":"climbing"}},"4264756348":{"lat":46.451309,"lon":13.2043752,"ts":"2017-09-21T16:59:16Z","tz":1,"tags":{"fixme":"Exact position needs survey","leisure":"sports_centre","name":"Masso del Masereit","natural":"rock","sport":"climbing"}},"4304782499":{"lat":46.5164073,"lon":13.323085,"ts":"2016-07-15T16:46:02Z","tz":1,"tags":{"climbing:bolted":"yes","climbing:boulder":"no","climbing:grade:french:max":"6b+","climbing:grade:french:min":"5c","climbing:length":"21","climbing:length:max":"22","climbing:length:min":"20","climbing:multipitch":"no","climbing:quality":"solid","climbing:rock":"limestone","climbing:routes":"3","climbing:sport":"yes","climbing:toprope":"no","ele":"665","leisure":"sports_centre","name":"Palestra di roccia Rio degli Uccelli - Placca Alta","outdoor":"yes","sport":"climbing"}},"5119961989":{"lat":46.4553419,"lon":13.2218499,"ts":"2017-09-21T16:09:41Z","tz":1,"tags":{"natural":"rock","sport":"climbing"}},"5798518274":{"lat":46.3616969,"lon":13.030732,"ts":"2018-07-31T11:04:23Z","tz":1,"tags":{"climbing:grade:french:max":"7c","climbing:grade:french:min":"5c","climbing:sport":"19","name":"Falesia di Cavazzo","sport":"climbing","website":"https://www.falesia.it/en/crag/241/cavazzo.html"}}}