{"396931543":{"lat":41.6102252,"lon":13.1792027,"ts":"2023-07-01T08:42:46Z","tz":1,"tags":{"climbing:grade:french:max":"7a+","climbing:grade:french:min":"5a","climbing:rock":"limestone","climbing:routes":"21","name":"Supino Alta","natural":"cliff","sport":"climbing"}},"551952763":{"lat":41.663973,"lon":13.1421767,"ts":"2022-06-24T07:40:52Z","tz":1,"tags":{"climbing:rock":"limestone","description":"Qui è possibile arrampicare.","name":"Rava la Cunnia","natural":"cliff","sport":"climbing"}},"850133462":{"lat":41.5810132,"lon":13.1131757,"ts":"2023-10-31T18:56:27Z","tz":1,"tags":{"name":"Falesia Monte Perrone","natural":"cliff","sport":"climbing","website":"https://www.climbook.com/falesie/24021-perrone-del-corvo-welcome-speleo-frozen-la-tana"}},"1185228063":{"lat":41.5717864,"lon":13.0107875,"ts":"2023-08-01T15:42:22Z","tz":1,"tags":{"climbing:rock":"limestone","fixme":"ceck position","natural":"cliff","sport":"climbing"}},"7609167607":{"lat":41.5516055,"lon":13.1189608,"ts":"2023-06-25T22:53:34Z","tz":1,"tags":{"name":"Parete sud M. Pizzone (via Funaro-Luffarelli)","natural":"cliff","sport":"climbing"}},"7609167608":{"lat":41.5444513,"lon":13.1291376,"ts":"2023-06-25T22:28:06Z","tz":1,"tags":{"climbing:grade:french:max":"7b","climbing:grade:french:min":"5b","climbing:routes":"11","name":"falesia Grotta dell'Arco","natural":"cliff","sport":"climbing"}},"7609167609":{"lat":41.5397953,"lon":13.1177848,"ts":"2023-06-25T22:53:34Z","tz":1,"tags":{"name":"Pilastro sud M. Castellone (via Welcome Home)","natural":"cliff","sport":"climbing"}},"7609167610":{"lat":41.5480333,"lon":13.1014185,"ts":"2023-06-25T22:28:06Z","tz":1,"tags":{"name":"Pilastro Scorpione (via Tocavalì)","natural":"cliff","sport":"climbing"}}}