{"18501916":{"lat":37.0116529,"lon":26.9629443,"ts":"2025-01-04T16:35:03Z","tz":2,"tags":{"climbing":"crag","name":"Comic Tree","site":"climbing","sport":"climbing","type":"site"}},"18501917":{"lat":37.0157908,"lon":26.9720478,"ts":"2025-01-04T16:35:03Z","tz":2,"tags":{"climbing":"crag","name":"Arginonta","site":"climbing","sport":"climbing","type":"site"}},"18501918":{"lat":37.0132824,"lon":26.9489385,"ts":"2025-01-04T16:39:42Z","tz":2,"tags":{"climbing":"area","name":"Kalymnos","site":"climbing","sport":"climbing","type":"site"}},"18501934":{"lat":36.992371,"lon":26.9376996,"ts":"2025-01-04T16:38:14Z","tz":2,"tags":{"climbing":"crag","name":"Gerakios","site":"climbing","sport":"climbing","type":"site"}},"18501935":{"lat":36.9988968,"lon":26.9564997,"ts":"2025-01-04T16:38:14Z","tz":2,"tags":{"climbing":"crag","name":"Milianos","site":"climbing","sport":"climbing","type":"site"}},"18501937":{"lat":37.0104309,"lon":26.9482979,"ts":"2025-01-04T16:39:42Z","tz":2,"tags":{"climbing":"crag","name":"Olympic Wall","site":"climbing","sport":"climbing","type":"site"}},"18501938":{"lat":37.0094275,"lon":26.9458732,"ts":"2025-01-04T16:39:42Z","tz":2,"tags":{"climbing":"crag","name":"Iliada","site":"climbing","sport":"climbing","type":"site"}},"18594876":{"lat":37.0077319,"lon":26.9565609,"ts":"2025-01-23T21:52:34Z","tz":2,"tags":{"climbing":"area","name":"Kalymnos","sport":"climbing","type":"site"}},"134903956":{"lat":36.9677359,"lon":26.9637243,"ts":"2025-01-23T21:52:34Z","tz":2,"tags":{"climbing":"crag","name":"Dodoni","natural":"cliff","sport":"climbing"}},"173451992":{"lat":36.9987752,"lon":26.9416845,"ts":"2023-12-06T21:22:57Z","tz":2,"tags":{"natural":"cliff","sport":"climbing"}},"173451998":{"lat":36.9957053,"lon":26.9562138,"ts":"2023-12-05T21:22:49Z","tz":2,"tags":{"name":"Griffig","natural":"cliff","sport":"climbing"}},"212411002":{"lat":37.0156043,"lon":26.9723378,"ts":"2023-12-12T18:59:09Z","tz":2,"tags":{"name":"Arginonta","natural":"cliff","sport":"climbing"}},"227115784":{"lat":37.0185367,"lon":26.9677828,"ts":"2013-10-13T13:43:08Z","tz":2,"tags":{"name":"Sea Breeze","natural":"cliff","sport":"climbing"}},"227115786":{"lat":37.0333585,"lon":26.9607492,"ts":"2025-01-23T21:52:34Z","tz":2,"tags":{"climbing":"crag","climbing:sport":"95","name":"Ghost Kitchen","natural":"cliff","sport":"climbing"}},"227129591":{"lat":37.016735,"lon":26.938588,"ts":"2021-09-26T21:05:39Z","tz":2,"tags":{"name":"Kastelli","natural":"cliff","sport":"climbing"}},"227178575":{"lat":37.0150692,"lon":26.9075301,"ts":"2023-12-10T00:27:24Z","tz":2,"tags":{"name":"Glaros","natural":"cliff","sport":"climbing"}},"227178580":{"lat":37.0159246,"lon":26.9076928,"ts":"2023-12-03T08:54:13Z","tz":2,"tags":{"name":"Πεσκατόρε","name:el":"Πεσκατόρε","name:en":"Pescatore","natural":"cliff","sport":"climbing"}},"227223738":{"lat":37.0104309,"lon":26.9482979,"ts":"2019-04-14T13:01:43Z","tz":2,"tags":{"name":"Olympic Wall","natural":"cliff","sport":"climbing"}},"227758303":{"lat":36.9977605,"lon":27.0046636,"ts":"2023-12-11T15:57:16Z","tz":2,"tags":{"name":"Rockland","natural":"cliff","sport":"climbing"}},"236069624":{"lat":37.0533336,"lon":26.9693731,"ts":"2013-09-01T13:34:21Z","tz":2,"tags":{"name":"Secret Garden","natural":"cliff","sport":"climbing"}},"236069625":{"lat":37.059168,"lon":26.9489549,"ts":"2013-09-01T13:34:21Z","tz":2,"tags":{"name":"The Beach","natural":"cliff","sport":"climbing"}},"236123341":{"lat":37.0596364,"lon":26.9382137,"ts":"2021-10-15T19:33:32Z","tz":2,"tags":{"name":"Sikati Cave","natural":"cliff","sport":"climbing"}},"236131363":{"lat":37.0161555,"lon":26.955574,"ts":"2013-09-01T20:46:11Z","tz":2,"tags":{"name":"Summer Time","natural":"cliff","sport":"climbing"}},"236131364":{"lat":37.0148492,"lon":26.956584,"ts":"2022-11-25T11:01:37Z","tz":2,"tags":{"name":"Magoulias Wall","natural":"cliff","sport":"climbing"}},"240998274":{"lat":36.9978216,"lon":26.9840745,"ts":"2018-06-27T07:01:49Z","tz":2,"tags":{"name":"Je T'Aime","natural":"cliff","source":"Bing","sport":"climbing"}},"241927557":{"lat":37.0187287,"lon":26.9412241,"ts":"2021-09-26T19:28:09Z","tz":2,"tags":{"name":"Dolphin Bay","natural":"cliff","sport":"climbing"}},"241928309":{"lat":37.020546,"lon":26.965219,"ts":"2022-10-17T04:53:57Z","tz":2,"tags":{"name":"Arhi","natural":"cliff","sport":"climbing"}},"311801000":{"lat":37.0039882,"lon":26.9442364,"ts":"2015-11-10T10:01:20Z","tz":2,"tags":{"name":"Afternoon","sport":"climbing"}},"311801004":{"lat":37.0135019,"lon":26.9468339,"ts":"2015-11-10T10:04:59Z","tz":2,"tags":{"name":"ocean dream, olympic wall, muses","sport":"climbing"}},"311801041":{"lat":37.0182075,"lon":26.9421215,"ts":"2019-05-18T05:00:53Z","tz":2,"tags":{"name":"Apollo","sport":"climbing"}},"311801043":{"lat":37.0162893,"lon":26.9556559,"ts":"2015-11-10T10:07:14Z","tz":2,"tags":{"name":"summer time","sport":"climbing"}},"367222133":{"lat":37.0094275,"lon":26.9458732,"ts":"2019-04-14T13:22:23Z","tz":2,"tags":{"name":"Iliada","natural":"cliff","sport":"climbing"}},"372584451":{"lat":36.9871834,"lon":26.9405418,"ts":"2020-10-20T19:38:46Z","tz":2,"tags":{"ele":"260","name":"Ourania","natural":"cliff","source":"survey","sport":"climbing"}},"372584452":{"lat":37.0391297,"lon":26.9605402,"ts":"2023-12-10T19:40:20Z","tz":2,"tags":{"ele":"370","name":"Prophet Andreas","natural":"cliff","source":"survey","sport":"climbing"}},"494253383":{"lat":36.9856735,"lon":26.9402488,"ts":"2019-07-20T08:51:24Z","tz":2,"tags":{"name":"Symplegades","sport":"climbing"}},"494263063":{"lat":37.0121039,"lon":26.9449698,"ts":"2015-11-10T10:04:59Z","tz":2,"tags":{"name":"Odyssey","sport":"climbing"}},"494267875":{"lat":37.0452066,"lon":26.9483765,"ts":"2014-11-18T16:14:08Z","tz":2,"tags":{"name":"Palace","natural":"cliff","sport":"climbing"}},"494267902":{"lat":37.0206424,"lon":26.9652927,"ts":"2022-10-17T04:53:57Z","tz":2,"tags":{"name":"Arhi","sport":"climbing"}},"494267905":{"lat":37.0340583,"lon":26.9617173,"ts":"2015-06-18T15:35:18Z","tz":2,"tags":{"name":"Ghost Kitchen","sport":"climbing"}},"531234694":{"lat":36.9856657,"lon":26.9399895,"ts":"2017-10-09T12:52:30Z","tz":2,"tags":{"name":"Symplegades","natural":"cliff","sport":"climbing"}},"531234695":{"lat":36.9856433,"lon":26.9403422,"ts":"2017-10-09T12:52:30Z","tz":2,"tags":{"name":"Symplegades","natural":"cliff","sport":"climbing"}},"581270737":{"lat":37.0144006,"lon":26.957864,"ts":"2022-11-05T14:37:35Z","tz":2,"tags":{"name":"Local Freezer","natural":"cliff","sport":"climbing"}},"597190554":{"lat":37.0122727,"lon":26.974337,"ts":"2023-12-12T10:07:29Z","tz":2,"tags":{"name":"Arginonta Valley","natural":"cliff","sport":"climbing"}},"597190555":{"lat":37.010986,"lon":26.9694425,"ts":"2018-06-13T07:15:52Z","tz":2,"tags":{"name":"Black Buddha","natural":"cliff","sport":"climbing"}},"602394650":{"lat":36.9983691,"lon":26.9902673,"ts":"2018-06-27T07:01:47Z","tz":2,"tags":{"name":"Julian","natural":"cliff","source":"Bing","sport":"climbing"}},"602405925":{"lat":37.0157612,"lon":26.9795443,"ts":"2018-06-27T07:17:47Z","tz":2,"tags":{"name":"Piccalia","natural":"cliff","sport":"climbing"}},"602405926":{"lat":37.0180055,"lon":26.9788038,"ts":"2018-06-27T07:17:48Z","tz":2,"tags":{"name":"Jagerwand","natural":"cliff","sport":"climbing"}},"602405927":{"lat":37.0218421,"lon":26.9765466,"ts":"2018-06-27T07:17:48Z","tz":2,"tags":{"name":"Ovoland","natural":"cliff","sport":"climbing"}},"602405928":{"lat":37.0191516,"lon":26.978305,"ts":"2018-06-27T07:17:48Z","tz":2,"tags":{"natural":"cliff","sport":"climbing"}},"602405929":{"lat":37.0202862,"lon":26.9775729,"ts":"2018-06-27T07:17:48Z","tz":2,"tags":{"name":"Little Verdon","natural":"cliff","sport":"climbing"}},"602467292":{"lat":37.0385686,"lon":26.9574704,"ts":"2023-12-10T19:40:20Z","tz":2,"tags":{"climbing:sport":"26","name":"Skalia Pillar","natural":"cliff","sport":"climbing"}},"602467296":{"lat":37.037419,"lon":26.959103,"ts":"2021-09-26T13:01:55Z","tz":2,"tags":{"climbing:sport":"13","name":"Skalia Balcony","natural":"cliff","sport":"climbing"}},"602467302":{"lat":37.0368134,"lon":26.9603343,"ts":"2021-09-26T13:01:55Z","tz":2,"tags":{"climbing:sport":"18","name":"Skalia Cave","natural":"cliff","sport":"climbing"}},"602467319":{"lat":37.043744,"lon":26.9576948,"ts":"2025-01-23T21:52:34Z","tz":2,"tags":{"climbing":"crag","name":"Elephant Slide","natural":"cliff","sport":"climbing"}},"602663948":{"lat":37.0144719,"lon":26.946311,"ts":"2018-06-27T15:41:20Z","tz":2,"tags":{"name":"School","natural":"cliff","sport":"climbing"}},"603016186":{"lat":37.0181094,"lon":26.9424465,"ts":"2018-06-28T13:17:47Z","tz":2,"tags":{"natural":"cliff","sport":"climbing"}},"603016187":{"lat":37.0166536,"lon":26.9440746,"ts":"2018-06-28T13:25:55Z","tz":2,"tags":{"name":"Peter","natural":"cliff","sport":"climbing"}},"603018981":{"lat":37.0157922,"lon":26.944477,"ts":"2018-06-28T13:25:55Z","tz":2,"tags":{"name":"North Cape","natural":"cliff","sport":"climbing"}},"603268614":{"lat":36.9771782,"lon":26.9856487,"ts":"2023-12-15T16:20:16Z","tz":2,"tags":{"name":"Main Buttress","natural":"cliff","sport":"climbing"}},"603268616":{"lat":36.9772125,"lon":26.9842325,"ts":"2018-06-29T07:44:32Z","tz":2,"tags":{"name":"E.T. Cave","natural":"cliff","sport":"climbing"}},"603268620":{"lat":36.9753288,"lon":26.9878584,"ts":"2018-06-29T07:44:32Z","tz":2,"tags":{"name":"Koukouvas","natural":"cliff","sport":"climbing"}},"603425405":{"lat":36.9825625,"lon":26.955265,"ts":"2023-12-17T14:32:23Z","tz":2,"tags":{"name":"Psili Riza","natural":"cliff","sport":"climbing"}},"683685192":{"lat":36.9917734,"lon":26.9379992,"ts":"2019-04-14T12:31:04Z","tz":2,"tags":{"name":"Gerakios","natural":"cliff","sport":"climbing"}},"789709594":{"lat":36.9971669,"lon":27.0036848,"ts":"2018-06-27T06:51:43Z","tz":2,"tags":{"name":"Rockland","sport":"climbing"}},"860424451":{"lat":36.9888049,"lon":26.93895,"ts":"2020-10-20T19:38:46Z","tz":2,"tags":{"climbing:sport":"yes","climbing:toprope":"yes","name":"Ourania, Hump Piste","natural":"cliff","outdoor":"yes","sport":"climbing"}},"982036012":{"lat":37.0477507,"lon":26.9492655,"ts":"2025-01-23T21:52:34Z","tz":2,"tags":{"climbing":"crag","name":"Heroes","natural":"cliff"}},"993301352":{"lat":37.0596363,"lon":26.9382097,"ts":"2021-10-16T17:05:51Z","tz":2,"tags":{"name":"Sikati Cave","natural":"bare_rock","sport":"climbing"}},"1081708183":{"lat":36.9988968,"lon":26.9564997,"ts":"2022-07-27T09:25:14Z","tz":2,"tags":{"name":"Milianos","natural":"cliff","sport":"climbing"}},"1081722946":{"lat":36.9998422,"lon":26.9578087,"ts":"2022-07-27T10:12:21Z","tz":2,"tags":{"name":"Milianos Cave","natural":"cliff","sport":"climbing"}},"1104012951":{"lat":37.0465011,"lon":26.9715932,"ts":"2022-10-15T07:37:22Z","tz":2,"tags":{"height":"40","name":"Ilias Pillar","natural":"cliff","sport":"climbing"}},"1104566429":{"lat":37.0442777,"lon":26.9730105,"ts":"2022-10-17T05:16:31Z","tz":2,"tags":{"name":"Paradise Beach","natural":"cliff","sport":"climbing"}},"1112734593":{"lat":37.0045984,"lon":26.9454262,"ts":"2022-11-21T09:44:47Z","tz":2,"tags":{"height":"90","name":"Spartan Wall","natural":"cliff","sport":"climbing"}},"1112734594":{"lat":37.0039601,"lon":26.9443026,"ts":"2022-11-13T17:10:48Z","tz":2,"tags":{"name":"Afternoon","natural":"cliff","sport":"climbing"}},"1112734595":{"lat":37.0036865,"lon":26.9439982,"ts":"2022-11-13T17:10:48Z","tz":2,"tags":{"height":"70","name":"Grande Grotta","natural":"cliff","sport":"climbing"}},"1112734596":{"lat":37.00308,"lon":26.9439172,"ts":"2022-11-13T17:10:48Z","tz":2,"tags":{"name":"Panorama","natural":"cliff","sport":"climbing"}},"1112734597":{"lat":37.0019383,"lon":26.9436512,"ts":"2022-11-13T17:10:48Z","tz":2,"tags":{"name":"Stankill","natural":"cliff","sport":"climbing"}},"1112734598":{"lat":37.0010077,"lon":26.9432072,"ts":"2022-11-13T17:10:48Z","tz":2,"tags":{"name":"Ivory Tower","natural":"cliff","sport":"climbing"}},"1112734599":{"lat":36.9999176,"lon":26.9425609,"ts":"2022-11-13T17:10:48Z","tz":2,"tags":{"name":"Poets Iannis","natural":"cliff","sport":"climbing"}},"1112734600":{"lat":37.0004616,"lon":26.9429216,"ts":"2022-11-13T17:10:48Z","tz":2,"tags":{"name":"Kalydna","natural":"cliff","sport":"climbing"}},"1115958319":{"lat":37.0052458,"lon":26.9469906,"ts":"2022-11-21T09:44:47Z","tz":2,"tags":{"height":"90","name":"Spartacus","natural":"cliff","sport":"climbing"}},"1117116037":{"lat":37.0153759,"lon":26.955869,"ts":"2022-11-25T11:01:37Z","tz":2,"tags":{"name":"Summer Wine","natural":"cliff","sport":"climbing"}},"1228327396":{"lat":37.0140459,"lon":26.9061131,"ts":"2023-12-10T00:27:24Z","tz":2,"tags":{"name":"Lambda","natural":"cliff","sport":"climbing"}},"1228381082":{"lat":37.0147908,"lon":26.9096621,"ts":"2023-12-06T18:11:21Z","tz":2,"tags":{"name":"Eros","natural":"cliff","sport":"climbing"}},"1228407077":{"lat":37.0059001,"lon":26.9179524,"ts":"2023-12-10T00:27:24Z","tz":2,"tags":{"name":"North Face","natural":"cliff","sport":"climbing"}},"1229100455":{"lat":37.0063596,"lon":26.9217694,"ts":"2023-12-06T17:09:10Z","tz":2,"tags":{"name":"Three Caves","natural":"cliff","sport":"climbing"}},"1229105024":{"lat":37.0139583,"lon":26.9128715,"ts":"2023-12-06T17:13:44Z","tz":2,"tags":{"name":"Miltiadis","natural":"cliff","sport":"climbing"}},"1229119625":{"lat":37.0163287,"lon":26.9096719,"ts":"2023-12-06T18:11:21Z","tz":2,"tags":{"name":"Irox","natural":"cliff","sport":"climbing"}},"1229119626":{"lat":37.0091666,"lon":26.8965502,"ts":"2023-12-06T18:11:21Z","tz":2,"tags":{"name":"Princess Canyon","natural":"cliff","sport":"climbing"}},"1229119627":{"lat":37.0075054,"lon":26.9042222,"ts":"2023-12-06T18:11:21Z","tz":2,"tags":{"name":"South Face","natural":"cliff","sport":"climbing"}},"1229119628":{"lat":36.9918396,"lon":26.9193839,"ts":"2023-12-06T18:11:21Z","tz":2,"tags":{"name":"Snow White","natural":"cliff","sport":"climbing"}},"1230010430":{"lat":37.0066129,"lon":26.9168619,"ts":"2023-12-10T00:27:24Z","tz":2,"tags":{"name":"North Face","natural":"cliff","sport":"climbing"}},"1230010435":{"lat":37.0063773,"lon":26.9170297,"ts":"2023-12-10T00:27:24Z","tz":2,"tags":{"name":"North Face","natural":"cliff","sport":"climbing"}},"1231950988":{"lat":37.0296907,"lon":26.9597633,"ts":"2023-12-17T17:34:36Z","tz":2,"tags":{"name":"Galatianí, Reservoir Dogs","natural":"cliff","sport":"climbing"}},"1231950989":{"lat":37.0294179,"lon":26.9612809,"ts":"2023-12-17T17:34:36Z","tz":2,"tags":{"name":"Galatianí, Left Wall & Calcite Cave","natural":"cliff","sport":"climbing"}},"2494977212":{"lat":37.0179906,"lon":26.9674358,"ts":"2015-11-10T10:07:15Z","tz":2,"tags":{"name":"Sea Breeze","sport":"climbing"}},"2494977247":{"lat":37.0514516,"lon":26.9362563,"ts":"2014-01-12T14:43:59Z","tz":2,"tags":{"leisure":"yes","name":"Kastri","natural":"cliff","sport":"climbing"}},"2619768415":{"lat":37.0157908,"lon":26.9720478,"ts":"2015-11-10T10:07:15Z","tz":2,"tags":{"name":"Arginonta","sport":"climbing"}},"3386879856":{"lat":37.0187593,"lon":26.9411613,"ts":"2021-09-26T19:28:09Z","tz":2,"tags":{"description":"abseil","name":"Paula the seal","sport":"climbing"}},"3739945936":{"lat":37.0009765,"lon":26.9430705,"ts":"2015-11-10T09:59:44Z","tz":2,"tags":{"name":"Ivory Tower","sport":"climbing"}},"3739946746":{"lat":37.0035448,"lon":26.9439461,"ts":"2015-11-10T10:01:20Z","tz":2,"tags":{"name":"Panorama","sport":"climbing"}},"3739948555":{"lat":37.0037906,"lon":26.9439173,"ts":"2015-11-10T10:01:20Z","tz":2,"tags":{"name":"Grande Grotta","sport":"climbing"}},"3739949205":{"lat":37.0153516,"lon":26.9558932,"ts":"2015-11-10T10:07:14Z","tz":2,"tags":{"name":"andro drom","sport":"climbing"}},"3739949206":{"lat":37.0151306,"lon":26.9562095,"ts":"2015-11-10T10:07:14Z","tz":2,"tags":{"name":"magoulias wall","sport":"climbing"}},"5559868696":{"lat":37.0145482,"lon":26.9575891,"ts":"2018-04-17T18:01:12Z","tz":2,"tags":{"name":"Tonga Cave","sport":"climbing"}},"7839087728":{"lat":36.9787,"lon":27.0388,"ts":"2020-08-24T07:43:30Z","tz":2,"tags":{"sport":"climbing"}},"9077446275":{"lat":36.999387,"lon":26.9416117,"ts":"2021-09-09T17:54:31Z","tz":2,"tags":{"name":"Poets","natural":"cliff","sport":"climbing"}},"9082389125":{"lat":37.0110301,"lon":26.9694582,"ts":"2022-09-30T12:50:07Z","tz":2,"tags":{"name":"Black Buddha","natural":"cliff","sport":"climbing"}},"9082389126":{"lat":37.0116529,"lon":26.9629443,"ts":"2022-09-30T12:50:07Z","tz":2,"tags":{"name":"Comic Tree","natural":"cliff","sport":"climbing"}},"9749905057":{"lat":37.0123542,"lon":26.9746791,"ts":"2022-05-17T19:04:11Z","tz":2,"tags":{"name":"Arginonta Valley","sport":"climbing"}},"10056826392":{"lat":36.992371,"lon":26.9376996,"ts":"2022-09-27T18:34:40Z","tz":2,"tags":{"name":"Gerakios","sport":"climbing"}},"10059400327":{"lat":37.0431294,"lon":26.9756059,"ts":"2022-09-28T18:44:29Z","tz":2,"tags":{"name":"Palionisos Bay","sport":"climbing"}},"10069976549":{"lat":36.9958601,"lon":26.9570069,"ts":"2022-10-03T07:25:54Z","tz":2,"tags":{"name":"Griffig","sport":"climbing"}},"10079346279":{"lat":36.9676326,"lon":26.9635922,"ts":"2022-10-06T07:41:36Z","tz":2,"tags":{"name":"Dodoni","sport":"climbing"}},"12015065063":{"lat":37.012481,"lon":26.9457913,"ts":"2024-06-27T14:29:48Z","tz":2,"tags":{"name":"Marci Marc cave","sport":"climbing"}},"12015080891":{"lat":37.0118416,"lon":26.9446022,"ts":"2024-06-27T14:29:29Z","tz":2,"tags":{"name":"On the verge","sport":"climbing"}},"12015084078":{"lat":37.0129924,"lon":26.9461224,"ts":"2024-06-27T14:29:58Z","tz":2,"tags":{"name":"Feta wall","sport":"climbing"}},"12015086121":{"lat":37.0121366,"lon":26.9451724,"ts":"2024-06-27T14:29:34Z","tz":2,"tags":{"name":"Imia wall","sport":"climbing"}},"12015087578":{"lat":37.0119757,"lon":26.9448815,"ts":"2024-06-27T14:29:38Z","tz":2,"tags":{"name":"Atena wall","sport":"climbing"}},"12015091007":{"lat":37.0128423,"lon":26.9460468,"ts":"2024-06-27T14:29:52Z","tz":2,"tags":{"name":"Orion wall","sport":"climbing"}},"12015092073":{"lat":37.0123137,"lon":26.9455494,"ts":"2024-06-27T14:29:42Z","tz":2,"tags":{"name":"Sirene wall","sport":"climbing"}}}