{"11931231":{"lat":38.433752,"lon":-9.1197358,"ts":"2021-05-20T20:07:25Z","tz":0,"tags":{"climbing":"area","climbing:deepwater":"yes","climbing:sport":"yes","name":"Sesimbra Velha","natural":"cliff","sport":"climbing","type":"site"}},"11931634":{"lat":38.4901809,"lon":-8.9361589,"ts":"2021-06-14T21:41:46Z","tz":0,"tags":{"climbing":"area","climbing:multipitch":"6","climbing:rock":"limestone","climbing:sport":"yes","name":"Escola de Escalada do Outão","natural":"cliff","sport":"climbing","type":"site"}},"12184562":{"lat":38.4548837,"lon":-9.0161264,"ts":"2022-03-20T23:25:12Z","tz":0,"tags":{"climbing":"area","climbing:multipitch":"yes","climbing:sport":"yes","name":"Fojo dos Morcegos","natural":"cliff","sport":"climbing","type":"site"}},"12724048":{"lat":38.4297865,"lon":-9.1352746,"ts":"2022-01-12T21:23:28Z","tz":0,"tags":{"climbing":"area","name":"Pinheirinhos","sport":"climbing","type":"site"}},"13291484":{"lat":38.4793587,"lon":-8.9837643,"ts":"2023-06-21T12:23:24Z","tz":0,"tags":{"climbing":"crag","climbing:bolted":"yes","climbing:grade:french:max":"8a","climbing:grade:french:min":"III+","climbing:rock":"limestone","climbing:sport":"13","name":"Cú de Judas","sport":"climbing"}},"13291485":{"lat":38.4790051,"lon":-8.983852,"ts":"2023-06-21T12:23:24Z","tz":0,"tags":{"climbing":"crag","climbing:bolted":"yes","climbing:grade:french:max":"7c+","climbing:grade:french:min":"V+","climbing:rock":"limestone","climbing:sport":"17","name":"Piratas","sport":"climbing"}},"876280887":{"lat":38.4333221,"lon":-9.1204668,"ts":"2020-11-23T19:15:46Z","tz":0,"tags":{"climbing":"crag","climbing:deepwater":"yes","climbing:orientation":"S","climbing:rock":"limestone","natural":"cliff","sport":"climbing"}},"876280889":{"lat":38.4336149,"lon":-9.1200885,"ts":"2021-02-03T20:05:21Z","tz":0,"tags":{"climbing":"crag","climbing:bolted":"2","climbing:grade:french:max":"8a","climbing:grade:french:mean":"6b","climbing:grade:french:min":"IV+","climbing:orientation":"S","climbing:quality":"solid","climbing:rock":"limestone","climbing:sport":"15","name":"Portugal dos Pequeninos","natural":"cliff","sport":"climbing"}},"876307546":{"lat":38.490117,"lon":-8.9365164,"ts":"2021-06-14T21:41:46Z","tz":0,"tags":{"climbing":"crag","climbing:grade:french:max":"7a","climbing:grade:french:min":"V","climbing:rock":"limestone","climbing:sport":"6","name":"Termópilas","natural":"cliff","sport":"climbing"}},"876307547":{"lat":38.4902565,"lon":-8.9358486,"ts":"2021-06-14T21:41:46Z","tz":0,"tags":{"climbing":"crag","climbing:grade:french:max":"7a","climbing:grade:french:mean":"V","climbing:grade:french:min":"III","climbing:multipitch":"1","climbing:rock":"limestone","climbing:sport":"8","name":"Creta","natural":"cliff","sport":"climbing"}},"876307548":{"lat":38.4901495,"lon":-8.9363491,"ts":"2021-06-14T21:41:46Z","tz":0,"tags":{"climbing":"crag","climbing:grade:french:max":"6c","climbing:grade:french:mean":"6a","climbing:grade:french:min":"V","climbing:multipitch":"4","climbing:rock":"limestone","climbing:sport":"9","name":"Tróia","natural":"cliff","sport":"climbing"}},"876307550":{"lat":38.4902337,"lon":-8.9360193,"ts":"2021-06-14T21:41:46Z","tz":0,"tags":{"climbing":"crag","climbing:grade:french:max":"6b","climbing:grade:french:mean":"6b","climbing:grade:french:min":"6b","climbing:multipitch":"1","climbing:rock":"limestone","climbing:sport":"4","name":"Titãs","natural":"cliff","sport":"climbing"}},"876362364":{"lat":38.4389063,"lon":-9.0877462,"ts":"2020-11-23T23:25:56Z","tz":0,"tags":{"climbing":"crag","climbing:bolted":"yes","climbing:grade:french:max":"7c","climbing:grade:french:mean":"7a","climbing:grade:french:min":"6b+","climbing:rock":"limestone","climbing:sport":"11","name":"Dente de Leão","natural":"rock","sport":"climbing"}},"888002459":{"lat":38.4403962,"lon":-9.0645875,"ts":"2020-12-23T23:26:39Z","tz":0,"tags":{"climbing":"route","climbing:bolted":"3","climbing:grade:french":"III","climbing:orientation":"S","climbing:rock":"limestone","climbing:sport":"yes","name":"Tirem-me daqui"}},"888002464":{"lat":38.4405711,"lon":-9.0646058,"ts":"2021-02-23T19:58:02Z","tz":0,"tags":{"climbing":"crag","climbing:bolted":"2","climbing:grade:french:max":"7c","climbing:grade:french:mean":"6b","climbing:grade:french:min":"IV","climbing:orientation":"S","climbing:rock":"limestone","climbing:sport":"24","name":"Pedreiras","natural":"cliff","sport":"climbing"}},"888289265":{"lat":38.4337808,"lon":-9.1217782,"ts":"2021-05-20T19:58:47Z","tz":0,"tags":{"climbing":"crag","climbing:bolted":"2","climbing:grade:french:max":"7c","climbing:grade:french:min":"5","climbing:orientation":"S","climbing:quality":"medium","climbing:rock":"limestone","climbing:sport":"31","climbing:trad":"1","name":"Vertigem","natural":"cliff","sport":"climbing"}},"895090673":{"lat":38.4548287,"lon":-9.0156278,"ts":"2022-03-20T23:25:12Z","tz":0,"tags":{"climbing":"crag","climbing:bolted":"2","climbing:grade:french:max":"7a","climbing:grade:french:mean":"6b","climbing:grade:french:min":"V","climbing:orientation":"S","climbing:rock":"limestone","climbing:sport":"13","name":"Diedro","natural":"cliff","sport":"climbing"}},"895090676":{"lat":38.4550223,"lon":-9.0154141,"ts":"2022-03-30T19:43:12Z","tz":0,"tags":{"climbing":"crag","climbing:bolted":"2","climbing:grade:french:max":"8a+","climbing:grade:french:mean":"6c","climbing:grade:french:min":"6a","climbing:multipitch":"3","climbing:orientation":"S","climbing:rock":"limestone","climbing:sport":"14","name":"Central","natural":"cliff","sport":"climbing"}},"895090677":{"lat":38.4550502,"lon":-9.0157087,"ts":"2022-03-30T19:43:12Z","tz":0,"tags":{"alt_name":"Iniciação","climbing":"crag","climbing:bolted":"2","climbing:grade:french:max":"6c","climbing:grade:french:mean":"6a","climbing:grade:french:min":"V","climbing:multipitch":"1","climbing:orientation":"W","climbing:rock":"limestone","climbing:sport":"12","name":"Komeni","natural":"cliff","sport":"climbing"}},"895345076":{"lat":38.4367498,"lon":-9.0730865,"ts":"2021-01-14T22:34:15Z","tz":0,"tags":{"climbing":"crag","climbing:bolted":"2","climbing:grade:french:max":"7a","climbing:grade:french:mean":"6b","climbing:grade:french:min":"V+","climbing:multipitch":"3","climbing:orientation":"SE","climbing:rock":"limestone","climbing:sport":"8","climbing:trad":"yes","name":"Admirável Mundo Novo","natural":"cliff","sport":"climbing"}},"903202301":{"lat":38.4922223,"lon":-8.9759999,"ts":"2023-01-21T20:02:36Z","tz":0,"tags":{"alt_name":"Antenas;Fim-de-semana Lusitano;Murteira","climbing":"crag","climbing:rock":"limestone","climbing:sport":"yes","name":"Lusitânia","natural":"cliff","sport":"climbing"}},"942931967":{"lat":38.429276,"lon":-9.1365563,"ts":"2021-05-17T16:34:21Z","tz":0,"tags":{"climbing":"crag","climbing:grade:french:max":"6c+","climbing:grade:french:min":"6b","climbing:rock":"limestone","climbing:sport":"4","climbing:trad":"1","name":"Dentinho do Gatinho","natural":"rock","sport":"climbing"}},"942931970":{"lat":38.4304059,"lon":-9.1399396,"ts":"2021-08-29T22:12:19Z","tz":0,"tags":{"climbing":"crag","climbing:bolted":"yes","climbing:multipitch":"yes","climbing:orientation":"S","climbing:quality":"fragile","climbing:rock":"limestone","climbing:sport":"5","climbing:trad":"3","name":"Parede Amarela","natural":"cliff"}},"942931971":{"lat":38.4301902,"lon":-9.1349838,"ts":"2021-05-14T16:24:56Z","tz":0,"tags":{"climbing":"route","climbing:bolted":"5","climbing:grade:french":"6a","climbing:length":"100","climbing:orientation":"S","climbing:pitches":"4","climbing:quality":"fragile","climbing:rock":"limestone","climbing:sport":"yes","name":"Elite do Medo"}},"943954742":{"lat":38.4299295,"lon":-9.1338387,"ts":"2021-05-17T16:34:21Z","tz":0,"tags":{"climbing":"crag","climbing:grade:french:max":"6b","climbing:grade:french:min":"6a","climbing:orientation":"SE","climbing:quality":"fragile","climbing:rock":"limestone","climbing:trad":"4","name":"Esporão do Pé-Descalço","natural":"cliff","sport":"climbing"}},"943954744":{"lat":38.4302247,"lon":-9.1350149,"ts":"2021-05-17T16:34:21Z","tz":0,"tags":{"climbing":"crag","climbing:grade:french:max":"6c+","climbing:grade:french:min":"6a+","climbing:orientation":"S","climbing:quality":"fragile","climbing:rock":"limestone","climbing:sport":"1","climbing:trad":"4","name":"Flanco Direito","natural":"cliff","sport":"climbing"}},"943954745":{"lat":38.4301069,"lon":-9.1352307,"ts":"2021-08-29T22:12:19Z","tz":0,"tags":{"climbing":"crag","climbing:grade:french:max":"8a+","climbing:grade:french:min":"6b","climbing:orientation":"S","climbing:quality":"fragile","climbing:rock":"limestone","climbing:sport":"6","climbing:trad":"6","name":"Cova da Areia","natural":"cliff","sport":"climbing"}},"943954746":{"lat":38.4298307,"lon":-9.1355404,"ts":"2021-05-17T16:34:21Z","tz":0,"tags":{"climbing":"crag","climbing:grade:french:max":"8b","climbing:grade:french:min":"6b","climbing:orientation":"S","climbing:quality":"fragile","climbing:rock":"limestone","climbing:sport":"1","climbing:trad":"2","name":"Parede Grande","natural":"cliff","sport":"climbing"}},"943954747":{"lat":38.4299311,"lon":-9.1359979,"ts":"2021-05-17T16:34:21Z","tz":0,"tags":{"climbing":"crag","climbing:grade:french:max":"8b","climbing:grade:french:min":"6b+","climbing:orientation":"S","climbing:quality":"fragile","climbing:rock":"limestone","climbing:sport":"3","climbing:trad":"1","name":"Cova das Ovelhas","natural":"cliff","sport":"climbing"}},"943954749":{"lat":38.4296531,"lon":-9.1362438,"ts":"2021-05-17T16:34:21Z","tz":0,"tags":{"climbing":"crag","climbing:grade:french:max":"6c+","climbing:grade:french:min":"6a+","climbing:orientation":"S","climbing:quality":"fragile","climbing:rock":"limestone","climbing:sport":"2","climbing:trad":"7","name":"Flanco Esquerdo","natural":"cliff","sport":"climbing"}},"945251529":{"lat":38.4340252,"lon":-9.1171132,"ts":"2021-05-20T20:07:25Z","tz":0,"tags":{"climbing":"crag","climbing:deepwater":"yes","climbing:orientation":"S","climbing:rock":"limestone","name":"Pescas","natural":"cliff","sport":"climbing"}},"962060479":{"lat":38.4553712,"lon":-9.0149436,"ts":"2022-03-20T23:25:12Z","tz":0,"tags":{"climbing":"route","climbing:bolted":"yes","climbing:grade:french:max":"6c","climbing:grade:french:min":"V","climbing:orientation":"SE","climbing:pitches":"3","climbing:rock":"limestone","climbing:sport":"yes","name":"Meteoritos","sport":"climbing"}},"989702260":{"lat":38.4852399,"lon":-8.9516708,"ts":"2022-10-26T15:14:08Z","tz":0,"tags":{"climbing":"crag","climbing:bolted":"yes","climbing:grade:french:max":"7b+","climbing:grade:french:min":"6b","climbing:orientation":"S","climbing:rock":"limestone","climbing:sport":"15","climbing:trad":"4","name":"Figueirinha","natural":"cliff","sport":"climbing"}},"989741268":{"lat":38.4810705,"lon":-8.9812398,"ts":"2021-10-04T21:15:10Z","tz":0,"tags":{"climbing":"crag","climbing:bolted":"yes","climbing:grade:french:max":"7b","climbing:grade:french:min":"6a+","climbing:orientation":"E","climbing:rock":"limestone","climbing:sport":"13","name":"Giroflé-Giroflá","natural":"cliff","sport":"climbing"}},"989741270":{"lat":38.4791568,"lon":-8.9838789,"ts":"2021-10-04T21:15:10Z","tz":0,"tags":{"climbing":"route","climbing:bolted":"yes","climbing:grade:french":"III+","climbing:rock":"limestone","climbing:sport":"yes","climbing:toprope":"yes","name":"Quinto Pirata","sport":"climbing"}},"989741275":{"lat":38.4798989,"lon":-8.9827222,"ts":"2023-06-21T12:23:24Z","tz":0,"tags":{"alt_name":"Fenda do Portinho;Fenda do Creiro","climbing":"area","climbing:sport":"yes","landuse":"recreation_ground","name":"Fenda da Arrábida","place":"locality","short_name":"Fenda","sport":"climbing","wikipedia":"pt:Serra da Arrábida#Escalada na Serra da Arrábida"}},"989741278":{"lat":38.4802412,"lon":-8.9826721,"ts":"2021-10-04T21:15:10Z","tz":0,"tags":{"climbing":"crag","climbing:bolted":"yes","climbing:grade:french:max":"7c+","climbing:grade:french:min":"6a","climbing:orientation":"SW","climbing:rock":"limestone","climbing:sport":"35","name":"Amarelas","natural":"cliff","sport":"climbing"}},"989741279":{"lat":38.4804728,"lon":-8.9821196,"ts":"2021-10-04T21:15:10Z","tz":0,"tags":{"climbing":"crag","climbing:bolted":"yes","climbing:grade:french:max":"8a+","climbing:grade:french:min":"6a+","climbing:orientation":"SW","climbing:rock":"limestone","climbing:sport":"23","name":"El Carallon","natural":"cliff","sport":"climbing"}},"989741282":{"lat":38.4803302,"lon":-8.9821377,"ts":"2021-10-04T21:15:10Z","tz":0,"tags":{"climbing":"crag","climbing:bolted":"yes","climbing:grade:french:max":"V+","climbing:grade:french:min":"III","climbing:orientation":"NW","climbing:rock":"limestone","climbing:sport":"7","name":"Placas","natural":"cliff","sport":"climbing"}},"989741288":{"lat":38.4784622,"lon":-8.9845933,"ts":"2021-10-04T21:15:10Z","tz":0,"tags":{"climbing":"crag","climbing:bolted":"yes","climbing:grade:french:max":"8a","climbing:grade:french:min":"6a","climbing:orientation":"SE","climbing:rock":"limestone","climbing:sport":"24","name":"Crocodilos","natural":"cliff","sport":"climbing"}},"1020660377":{"lat":38.4539951,"lon":-9.0183147,"ts":"2022-03-20T23:25:12Z","tz":0,"tags":{"climbing":"crag","climbing:multipitch":"yes","climbing:orientation":"S","climbing:rock":"limestone","climbing:sport":"1","climbing:trad":"5","name":"Parede dos Figos","natural":"cliff","sport":"climbing"}},"1020660382":{"lat":38.4527308,"lon":-9.0200194,"ts":"2022-01-12T20:58:59Z","tz":0,"tags":{"alt_name":"Parede do Calhau dos Alhos","climbing":"crag","climbing:orientation":"S","climbing:rock":"limestone","climbing:trad":"2","name":"Parede Branca","natural":"cliff","sport":"climbing"}},"1020660384":{"lat":38.454618,"lon":-9.0165683,"ts":"2022-03-23T21:03:25Z","tz":0,"tags":{"climbing":"crag","climbing:bolted":"yes","climbing:grade:french:max":"7b+","climbing:grade:french:min":"III","climbing:orientation":"S","climbing:rock":"limestone","climbing:sport":"15","climbing:trad":"6","name":"Parede Grande","natural":"cliff","sport":"climbing"}},"1020669282":{"lat":38.4298037,"lon":-9.1368332,"ts":"2022-01-12T21:23:28Z","tz":0,"tags":{"climbing":"crag","climbing:grade:french:max":"7a","climbing:grade:french:min":"6a","climbing:orientation":"S","climbing:quality":"fragile","climbing:rock":"limestone","climbing:trad":"3","name":"Buíacos","natural":"cliff","sport":"climbing"}},"1042066886":{"lat":38.4535709,"lon":-9.0193042,"ts":"2022-03-20T23:25:12Z","tz":0,"tags":{"climbing":"crag","climbing:orientation":"S","climbing:rock":"limestone","climbing:trad":"4","name":"Sector dos Amigos","natural":"cliff","sport":"climbing"}},"1046618952":{"lat":38.4563306,"lon":-9.0125386,"ts":"2022-03-30T19:50:35Z","tz":0,"tags":{"climbing":"crag","climbing:multipitch":"yes","climbing:orientation":"S","climbing:rock":"limestone","climbing:trad":"5","name":"Muralha","natural":"cliff","sport":"climbing"}},"1082833423":{"lat":38.5333178,"lon":-8.8729043,"ts":"2022-08-01T08:52:18Z","tz":0,"tags":{"addr:city":"Setúbal","addr:housenumber":"20","addr:postcode":"2910-381","addr:street":"Avenida Alentejo","addr:unit":"E","building":"industrial","description":"InWall - centro de escalada\n. boulder\n. escalada desportiva\n. cross training\n. pilates","email":"info@inwallclimbing.pt","fee":"yes","leisure":"sports_centre","name":"InWall climbing center","payment:cards":"yes","payment:cash":"yes","phone":"+351969001773","sport":"climbing","start_date":"2022/06/24","website":"https://inwallclimbing.pt/"}},"4394268383":{"lat":38.4791414,"lon":-8.9838959,"ts":"2021-10-04T21:15:10Z","tz":0,"tags":{"climbing":"route_top"}},"4675294034":{"lat":38.440581,"lon":-9.0642987,"ts":"2020-12-23T23:26:39Z","tz":0,"tags":{"climbing":"crag","climbing:bolted":"2","climbing:grade:french:max":"8","climbing:grade:french:mean":"7b","climbing:grade:french:min":"6c+","climbing:orientation":"S","climbing:rock":"limestone","climbing:sport":"4","name":"Lapa da Cova","natural":"cave_entrance","sport":"climbing"}},"5555008452":{"lat":38.4544589,"lon":-9.0166768,"ts":"2022-03-20T23:25:12Z","tz":0,"tags":{"alt_name":"Fojo dos Morcegos","climbing":"crag","climbing:bolted":"yes","climbing:grade:french:max":"8b","climbing:grade:french:min":"6c","climbing:orientation":"S","climbing:rock":"limestone","climbing:sport":"9","name":"Gruta dos Morcegos","natural":"cave_entrance","sport":"climbing"}},"8256039487":{"lat":38.4404497,"lon":-9.0646363,"ts":"2020-12-23T23:26:39Z","tz":0,"tags":{"climbing":"route_top"}},"8256039490":{"lat":38.4403428,"lon":-9.0645387,"ts":"2020-12-23T23:26:39Z","tz":0,"tags":{"climbing":"route_bottom"}},"8731497655":{"lat":38.4300998,"lon":-9.1349083,"ts":"2021-05-14T16:24:56Z","tz":0,"tags":{"climbing":"route_bottom"}},"8731497656":{"lat":38.4302806,"lon":-9.1350594,"ts":"2022-10-13T17:00:54Z","tz":0,"tags":{"climbing":"route_top"}},"8833624943":{"lat":38.4901429,"lon":-8.9365037,"ts":"2021-06-14T21:41:46Z","tz":0,"tags":{"climbing":"bolt","climbing:bolt":"abseil"}},"8899241653":{"lat":38.4552853,"lon":-9.0148339,"ts":"2022-03-20T23:25:12Z","tz":0,"tags":{"climbing":"route_bottom"}},"8899241654":{"lat":38.455457,"lon":-9.0150534,"ts":"2022-03-20T23:25:12Z","tz":0,"tags":{"climbing":"route_top"}},"9146872318":{"lat":38.4791721,"lon":-8.9838619,"ts":"2021-10-04T21:15:10Z","tz":0,"tags":{"climbing":"route_bottom"}}}