{"8849192":{"lat":44.6740245,"lon":6.7626815,"ts":"2023-02-21T20:35:58Z","tz":1,"tags":{"climbing":"route","name":"Via Ferrata Les Rochers de la Clapière","route":"via_ferrata","type":"route","via_ferrata_scale":"4"}},"8859356":{"lat":44.7548842,"lon":6.7894552,"ts":"2024-02-14T19:50:10Z","tz":1,"tags":{"climbing":"route","name":"Via Ferrata Château-Queyras","route":"via_ferrata","type":"route","via_ferrata_scale":"2"}},"8859714":{"lat":44.8022296,"lon":6.6987124,"ts":"2023-02-06T21:44:23Z","tz":1,"tags":{"climbing":"route","name":"Via Ferrata Pra Premier","route":"via_ferrata","type":"route","via_ferrata_scale":"3+"}},"736656045":{"lat":44.673521,"lon":6.7635081,"ts":"2021-08-17T17:04:51Z","tz":1,"tags":{"climbing:rock":"limestone","climbing:sport":"yes","height":"20","name":"La Viste","natural":"cliff","sport":"climbing"}},"2616034429":{"lat":44.7831915,"lon":6.8690689,"ts":"2016-07-09T22:20:53Z","tz":1,"tags":{"climbing:ice":"yes","name":"Aiguilles - villages","sport":"climbing"}},"4088772927":{"lat":44.6813059,"lon":6.927173,"ts":"2016-03-31T17:54:54Z","tz":1,"tags":{"name":"Le Cornivier - Secteur Anarchitecte","sport":"climbing"}},"4948255559":{"lat":44.6631741,"lon":6.9429637,"ts":"2017-07-03T06:59:14Z","tz":1,"tags":{"climbing:bolted":"yes","sport":"climbing"}},"7894228681":{"lat":44.8063442,"lon":6.6995486,"ts":"2020-09-10T15:34:14Z","tz":1,"tags":{"name":"Site d'escalade école","sport":"climbing"}},"9143005226":{"lat":44.7956661,"lon":6.7386061,"ts":"2022-10-01T07:28:42Z","tz":1,"tags":{"ele":"1900","information":"guidepost","name":"Le Partus, site d'escalade","sport":"climbing","tourism":"information"}},"9979496208":{"lat":44.8047377,"lon":6.7037884,"ts":"2022-08-26T10:07:25Z","tz":1,"tags":{"description":"Départ de la grand voie Anopham 6 longueurs","name":"Départ voie Anopham","sport":"climbing"}},"11054907615":{"lat":44.6105047,"lon":6.8756336,"ts":"2023-07-19T13:51:31Z","tz":1,"tags":{"climbing:length":"400","climbing:multipitch":"yes","climbing:rock":"limestone","name":"Péouvou","natural":"cliff","sport":"climbing"}},"11054907616":{"lat":44.608725,"lon":6.8797159,"ts":"2023-07-19T13:51:31Z","tz":1,"tags":{"climbing:length":"400","climbing:multipitch":"yes","climbing:rock":"limestone","name":"Péouvou","natural":"cliff","sport":"climbing"}},"12492145899":{"lat":44.6304627,"lon":7.0143795,"ts":"2025-01-13T14:39:18Z","tz":1,"tags":{"climbing:ice":"yes","name":"Gallina Galli Di Destra","sport":"climbing"}}}