{"151191515":{"lat":46.4921186,"lon":7.6906096,"ts":"2012-05-29T19:59:33Z","tz":1,"tags":{"name":"Oeschiwald","natural":"cliff","sport":"climbing"}},"242750521":{"lat":46.4521783,"lon":7.4485341,"ts":"2019-09-09T08:25:32Z","tz":1,"tags":{"addr:city":"Lenk im Simmental","addr:country":"CH","addr:housenumber":"3g","addr:postcode":"3775","addr:street":"Simmendamm","building":"barn","contact:email":"info@boulderschuer.ch","contact:website":"http://boulderschuer.ch","fee":"yes","leisure":"sports_centre","name":"BoulderSchüür Lenk","sport":"climbing"}},"428965200":{"lat":46.4827385,"lon":7.6399029,"ts":"2018-08-02T09:54:02Z","tz":1,"tags":{"name":"Klettergebiet Ueschenen","natural":"cliff","sport":"climbing"}},"567338483":{"lat":46.3478716,"lon":7.4445922,"ts":"2021-04-08T14:46:35Z","tz":1,"tags":{"leisure":"sports_centre","name":"Cry Baby","sport":"climbing"}},"567338485":{"lat":46.3489914,"lon":7.441631,"ts":"2021-04-06T16:22:29Z","tz":1,"tags":{"leisure":"sports_centre","sport":"climbing"}},"613364058":{"lat":46.4779944,"lon":7.6333643,"ts":"2018-08-02T10:00:17Z","tz":1,"tags":{"name":"Klettergebiet Ueschenen","natural":"cliff","sport":"climbing"}},"1640163352":{"lat":46.4921789,"lon":7.6905011,"ts":"2015-04-07T13:41:32Z","tz":1,"tags":{"name":"Kletterfelsen Oeschiwald","sport":"climbing"}},"1640164406":{"lat":46.4908493,"lon":7.677369,"ts":"2015-04-07T13:41:32Z","tz":1,"tags":{"name":"Kletterfelsen Wildi","sport":"climbing"}},"5803745332":{"lat":46.4802926,"lon":7.635479,"ts":"2018-08-02T09:54:02Z","tz":1,"tags":{"name":"Klettergebiet Ueschenen","sport":"climbing"}},"8599760474":{"lat":46.3406927,"lon":7.4775431,"ts":"2024-08-03T07:04:42Z","tz":1,"tags":{"description":"56 routes -6a to 8a up to 40m long","leisure":"sports_centre","name":"Panoramix","sport":"climbing","url":"https://www.thecrag.com/en/climbing/switzerland/alpen/wallis/area/3301853940"}},"8599760475":{"lat":46.3389226,"lon":7.4870379,"ts":"2021-04-08T14:46:35Z","tz":1,"tags":{"leisure":"sports_centre","name":"Les Violettes","sport":"climbing"}},"8599760476":{"lat":46.3418222,"lon":7.4612015,"ts":"2021-04-08T14:46:35Z","tz":1,"tags":{"leisure":"sports_centre","name":"Mondralèche","sport":"climbing"}},"8599760477":{"lat":46.3444715,"lon":7.4358326,"ts":"2021-04-06T16:22:29Z","tz":1,"tags":{"leisure":"sports_centre","sport":"climbing"}},"8599760478":{"lat":46.3601691,"lon":7.4194952,"ts":"2021-04-08T14:46:35Z","tz":1,"tags":{"leisure":"sports_centre","name":"Armeillon","sport":"climbing"}},"8607090761":{"lat":46.3419945,"lon":7.4978842,"ts":"2021-04-08T14:46:35Z","tz":1,"tags":{"leisure":"sports_centre","sport":"climbing"}},"8807297643":{"lat":46.3226122,"lon":7.5128581,"ts":"2021-06-05T16:57:18Z","tz":1,"tags":{"leisure":"sports_centre","source":"https://i.imgur.com/GmjxNqf.png","sport":"climbing"}},"9850467994":{"lat":46.5075707,"lon":7.6977838,"ts":"2022-06-27T12:41:28Z","tz":1,"tags":{"name:de":"Bire Südost-Flanke","name:en":"Bire SE-Flank","name:fr":"Bire Versant SE","sport":"climbing"}},"11162891929":{"lat":46.5556898,"lon":7.4758231,"ts":"2023-09-07T15:22:16Z","tz":1,"tags":{"climbing:boulder":"yes","name":"Grimmimutz Kletterwand","playground":"climbingframe","sport":"climbing"}},"12101055138":{"lat":46.3421595,"lon":7.439177,"ts":"2024-08-09T16:22:55Z","tz":1,"tags":{"climbing":"crag","climbing:sport":"yes","name":"M12","sport":"climbing"}}}