{"10230301":{"lat":43.8027348,"lon":7.4054117,"ts":"2023-03-08T20:50:58Z","tz":1,"tags":{"access":"no","climbing":"route","name":"Via Ferrata L'Escale","route":"via_ferrata","type":"route","via_ferrata_scale":"5"}},"22978327":{"lat":43.7930017,"lon":7.4474183,"ts":"2009-02-02T20:08:29Z","tz":1,"tags":{"area":"yes","created_by":"Potlatch 0.10f","sport":"climbing"}},"2258304266":{"lat":43.7309988,"lon":7.4010796,"ts":"2017-06-17T19:31:05Z","tz":1,"tags":{"climbing:multipitch":"yes","climbing:orientation":"S","climbing:sport":"yes","fixme":"create 1 node for each different crag, then delete this \"group node\"","name":"La Turbie / Monaco","natural":"cliff","sport":"climbing","website":"http://www.coronn.com/TOPOS/france/la_turbie_monaco/la_turbie_monaco.html"}},"2504765029":{"lat":43.7822716,"lon":7.3927412,"ts":"2018-05-22T10:41:42Z","tz":1,"tags":{"sport":"climbing"}},"2938052189":{"lat":43.73058,"lon":7.3972,"ts":"2014-06-28T21:11:17Z","tz":1,"tags":{"name":"Les Surplombs","source":"data.gouv.fr:Le ministère des droits des femmes, de la ville, de la jeunesse et des sports - 2014","sport":"climbing"}},"2938054627":{"lat":43.82739,"lon":7.48338,"ts":"2024-09-25T21:02:42Z","tz":1,"tags":{"name":"Site d'Escalade de Castillon","source":"data.gouv.fr:Le ministère des droits des femmes, de la ville, de la jeunesse et des sports - 2014","sport":"climbing","wikidata":"Q120324625"}},"2938054654":{"lat":43.72952,"lon":7.3958,"ts":"2014-06-28T21:11:22Z","tz":1,"tags":{"name":"Tête de Chien","source":"data.gouv.fr:Le ministère des droits des femmes, de la ville, de la jeunesse et des sports - 2014","sport":"climbing"}},"6779611925":{"lat":43.7322238,"lon":7.4048532,"ts":"2025-03-03T22:38:54Z","tz":1,"tags":{"name":"Le Gentil","sport":"climbing"}},"10760766074":{"lat":43.7298815,"lon":7.3966587,"ts":"2023-03-25T09:22:16Z","tz":1,"tags":{"name":"La dalle à l'oiseau","sport":"climbing"}},"10760832655":{"lat":43.729201,"lon":7.3953564,"ts":"2023-03-25T10:12:27Z","tz":1,"tags":{"name":"La roche à roche","sport":"climbing"}},"10760856893":{"lat":43.7302555,"lon":7.3986575,"ts":"2023-03-25T10:31:43Z","tz":1,"tags":{"name":"La dalle à l'oiseau","sport":"climbing"}}}