{"614068827":{"lat":53.1764977,"lon":-6.073534,"ts":"2024-09-22T13:45:33Z","tz":0,"tags":{"climbing":"crag","climbing:rock":"slate","climbing:trad":"yes","height":"28","natural":"cliff","sport":"climbing"}},"913690018":{"lat":53.2709087,"lon":-6.1049333,"ts":"2013-12-20T12:08:47Z","tz":0,"tags":{"name":"Dalkey East Valley","sport":"climbing"}},"913690046":{"lat":53.2705054,"lon":-6.1078575,"ts":"2010-09-15T17:23:41Z","tz":0,"tags":{"name":"Dalkey West Valley","sport":"climbing"}},"1207810890":{"lat":53.2699982,"lon":-6.1074644,"ts":"2011-03-18T21:16:59Z","tz":0,"tags":{"name":"Dalkey Upper Cliffs","sport":"climbing"}},"1317384975":{"lat":53.1764906,"lon":-6.0730932,"ts":"2024-09-22T13:45:33Z","tz":0,"tags":{"climbing":"crag","climbing:orientation":"NE","climbing:rock":"slate","climbing:trad":"yes","height":"15","name":"Pulpit Area","natural":"cliff","sport":"climbing"}},"1317388146":{"lat":53.1764327,"lon":-6.0739002,"ts":"2024-09-22T13:50:58Z","tz":0,"tags":{"climbing:rock":"slate","climbing:trad":"yes","height":"29","name":"Telegraph Slab","natural":"cliff","sport":"climbing"}},"1317394173":{"lat":53.1819106,"lon":-6.0752909,"ts":"2024-09-22T14:38:23Z","tz":0,"tags":{"climbing":"crag","climbing:orientation":"SW","climbing:rock":"slate","climbing:trad":"yes","height":"18","name":"Streaky Slab","natural":"cliff","sport":"climbing"}},"1317429041":{"lat":53.1826977,"lon":-6.0762477,"ts":"2024-09-22T18:08:48Z","tz":0,"tags":{"climbing":"route","climbing:orientation":"NE","climbing:rock":"quarzite","climbing:trad":"yes","height":"20","name":"The Shaft","natural":"cliff","sport":"climbing"}},"5273551765":{"lat":53.2182617,"lon":-6.17904,"ts":"2017-12-09T13:34:40Z","tz":0,"tags":{"description":"The Scalp bouldering","name":"Crimpnarris","sport":"climbing"}},"5809034322":{"lat":53.1764794,"lon":-6.0737542,"ts":"2024-09-22T13:45:33Z","tz":0,"tags":{"climbing:orientation":"N","climbing:rock":"slate","climbing:trad":"yes","height":"28","name":"Bracket Slab","natural":"cliff","sport":"climbing"}},"8394424920":{"lat":53.1764696,"lon":-6.0729784,"ts":"2024-09-22T13:52:29Z","tz":0,"tags":{"climbing:orientation":"E","climbing:trad":"yes","name":"The Pulpit","natural":"rock","sport":"climbing"}}}