{"236100108":{"lat":50.5192286,"lon":13.6664395,"ts":"2015-05-12T18:56:54Z","tz":1,"tags":{"natural":"cliff","sport":"climbing"}},"281781443":{"lat":50.6281542,"lon":13.5655959,"ts":"2018-02-18T07:36:39Z","tz":1,"tags":{"leisure":"pitch","name":"Hor. stěna","sport":"climbing"}},"365593503":{"lat":50.6201266,"lon":13.6871905,"ts":"2015-08-13T20:11:55Z","tz":1,"tags":{"name":"Lanové překážky","sport":"climbing"}},"427714201":{"lat":50.6133694,"lon":13.5200718,"ts":"2019-08-18T13:25:52Z","tz":1,"tags":{"ele":"787.9","name":"Jeřabina","natural":"peak","sport":"climbing"}},"430199146":{"lat":50.516076,"lon":13.7106455,"ts":"2016-07-10T15:18:15Z","tz":1,"tags":{"natural":"cliff","sport":"climbing"}},"3743382403":{"lat":50.629405,"lon":13.5270688,"ts":"2024-08-25T18:53:06Z","tz":1,"tags":{"ele":"816.1","name":"Na kamenci","natural":"peak","sport":"climbing"}},"3743389481":{"lat":50.6289596,"lon":13.5278469,"ts":"2015-09-14T20:46:21Z","tz":1,"tags":{"name":"Rozpukana vez","natural":"peak","sport":"climbing"}},"3744587760":{"lat":50.5996185,"lon":13.3608165,"ts":"2016-05-12T07:11:02Z","tz":1,"tags":{"name":"U Josefova kříže","name:de":"Josefskreuz","natural":"peak","sport":"climbing"}},"3744587761":{"lat":50.5997902,"lon":13.3611235,"ts":"2020-03-01T15:45:10Z","tz":1,"tags":{"name":"Lesní masiv","natural":"peak","sport":"climbing"}},"3744587762":{"lat":50.5863891,"lon":13.3883724,"ts":"2015-09-15T20:04:11Z","tz":1,"tags":{"name":"Na volarne","natural":"peak","sport":"climbing"}},"3744603626":{"lat":50.5973628,"lon":13.360884,"ts":"2016-05-12T07:11:02Z","tz":1,"tags":{"name":"Rolnička","natural":"peak","sport":"climbing"}},"7798988262":{"lat":50.6946576,"lon":13.5855057,"ts":"2020-08-09T19:01:48Z","tz":1,"tags":{"name":"Puklá skála","natural":"rock","sport":"climbing"}}}