{"17556013":{"lat":49.8547054,"lon":13.6844311,"ts":"2024-05-04T08:36:20Z","tz":1,"tags":{"climbing":"crag","name":"Bechlov","site":"climbing","sport":"climbing","type":"site","website":"https://www.horosvaz.cz/skaly-skala-7384/"}},"17612024":{"lat":49.9537273,"lon":13.3616027,"ts":"2024-05-19T20:47:29Z","tz":1,"tags":{"climbing":"crag","name":"Skála u Horního Hradiště","site":"climbing","sport":"climbing","type":"site","website":"https://www.horosvaz.cz/skaly-skala-17488/"}},"1310600213":{"lat":49.8889966,"lon":13.3781986,"ts":"2024-08-23T14:18:04Z","tz":1,"tags":{"building":"detached","leisure":"sports_centre","sport":"climbing"}},"11878474083":{"lat":49.8546484,"lon":13.6842951,"ts":"2024-05-04T08:36:20Z","tz":1,"tags":{"climbing":"route_bottom","climbing:grade:uiaa":"2","name":"Ekloga","sport":"climbing","website":"https://www.horosvaz.cz/skaly-cesta-52795/"}},"11878474084":{"lat":49.8546636,"lon":13.6843102,"ts":"2024-05-04T08:36:20Z","tz":1,"tags":{"climbing":"route_bottom","climbing:grade:uiaa":"4","name":"Za kostelem","sport":"climbing","website":"https://www.horosvaz.cz/skaly-cesta-52796/"}},"11878474085":{"lat":49.854678,"lon":13.684328,"ts":"2024-05-04T08:36:20Z","tz":1,"tags":{"climbing":"route_bottom","climbing:grade:uiaa":"3+","name":"Jsem in","sport":"climbing","website":"https://www.horosvaz.cz/skaly-cesta-52797/"}},"11878474086":{"lat":49.8546888,"lon":13.6843389,"ts":"2024-05-04T08:36:20Z","tz":1,"tags":{"climbing":"route_bottom","climbing:grade:uiaa":"3-","name":"Bělehorská","sport":"climbing","website":"https://www.horosvaz.cz/skaly-cesta-52793/"}},"11878474087":{"lat":49.854695,"lon":13.6843579,"ts":"2024-05-04T08:36:20Z","tz":1,"tags":{"climbing":"route_bottom","climbing:grade:uiaa":"3","name":"Kořalečnická","sport":"climbing","website":"https://www.horosvaz.cz/skaly-cesta-52798/"}},"11878474088":{"lat":49.8547011,"lon":13.684377,"ts":"2024-05-04T08:36:20Z","tz":1,"tags":{"climbing":"route_bottom","climbing:grade:uiaa":"2","name":"Semtínská","sport":"climbing","website":"https://www.horosvaz.cz/skaly-cesta-52799/"}},"11878474089":{"lat":49.8547072,"lon":13.684396,"ts":"2024-05-04T08:36:20Z","tz":1,"tags":{"climbing":"route_bottom","climbing:grade:uiaa":"4+","name":"Hledání","sport":"climbing","website":"https://www.horosvaz.cz/skaly-cesta-52800/"}},"11878474090":{"lat":49.8547134,"lon":13.684415,"ts":"2024-05-04T08:36:20Z","tz":1,"tags":{"climbing":"route_bottom","climbing:grade:uiaa":"2","name":"Točoid","sport":"climbing","website":"https://www.horosvaz.cz/skaly-cesta-52801/"}},"11878474091":{"lat":49.8547195,"lon":13.6844341,"ts":"2024-05-04T08:36:20Z","tz":1,"tags":{"climbing":"route_bottom","climbing:grade:uiaa":"2","name":"Šimradlo","sport":"climbing","website":"https://www.horosvaz.cz/skaly-cesta-52803/"}},"11878474092":{"lat":49.8547256,"lon":13.6844531,"ts":"2024-05-04T08:36:20Z","tz":1,"tags":{"climbing":"route_bottom","climbing:grade:uiaa":"4+","name":"Bechelovka","sport":"climbing","website":"https://www.horosvaz.cz/skaly-cesta-52802/"}},"11878474093":{"lat":49.8547318,"lon":13.6844721,"ts":"2024-05-04T08:36:20Z","tz":1,"tags":{"climbing":"route_bottom","climbing:grade:uiaa":"4+","name":"Půl tmy","sport":"climbing","website":"https://www.horosvaz.cz/skaly-cesta-52804/"}},"11878474094":{"lat":49.8547379,"lon":13.6844911,"ts":"2024-05-04T08:36:20Z","tz":1,"tags":{"climbing":"route_bottom","climbing:grade:uiaa":"3","name":"Bžunda","sport":"climbing","website":"https://www.horosvaz.cz/skaly-cesta-52805/"}},"11878474095":{"lat":49.854744,"lon":13.6845102,"ts":"2024-05-04T08:36:20Z","tz":1,"tags":{"climbing":"route_bottom","climbing:grade:uiaa":"3-","name":"Brmbolec","sport":"climbing","website":"https://www.horosvaz.cz/skaly-cesta-52794/"}},"11878474096":{"lat":49.8547502,"lon":13.6845292,"ts":"2024-05-04T08:36:20Z","tz":1,"tags":{"climbing":"route_bottom","climbing:grade:uiaa":"4-","name":"Načerno","sport":"climbing","website":"https://www.horosvaz.cz/skaly-cesta-52806/"}},"11878474097":{"lat":49.8547563,"lon":13.6845482,"ts":"2024-05-04T08:36:20Z","tz":1,"tags":{"climbing":"route_bottom","climbing:grade:uiaa":"2","name":"Naboso","sport":"climbing","website":"https://www.horosvaz.cz/skaly-cesta-52808/"}},"11878474098":{"lat":49.8547624,"lon":13.6845672,"ts":"2024-05-04T08:36:20Z","tz":1,"tags":{"climbing":"route_bottom","climbing:grade:uiaa":"2","name":"Naruby","sport":"climbing","website":"https://www.horosvaz.cz/skaly-cesta-52807/"}},"11918489771":{"lat":49.9537052,"lon":13.3615873,"ts":"2024-05-19T20:47:29Z","tz":1,"tags":{"climbing":"route_bottom","climbing:grade:uiaa":"3","name":"Cesta tří vidliček","sport":"climbing","website":"https://www.horosvaz.cz/skaly-cesta-100133/"}},"11918489772":{"lat":49.9537199,"lon":13.3615975,"ts":"2024-05-19T20:47:29Z","tz":1,"tags":{"climbing":"route_bottom","climbing:grade:uiaa":"3","name":"Skobová","sport":"climbing","website":"https://www.horosvaz.cz/skaly-cesta-100132/"}},"11918489773":{"lat":49.9537347,"lon":13.3616078,"ts":"2024-05-19T20:47:29Z","tz":1,"tags":{"climbing":"route_bottom","climbing:grade:uiaa":"3","name":"Spára","sport":"climbing","website":"https://www.horosvaz.cz/skaly-cesta-100131/"}},"11918489774":{"lat":49.9537495,"lon":13.361618,"ts":"2024-05-19T20:47:29Z","tz":1,"tags":{"climbing":"route_bottom","climbing:grade:uiaa":"3","name":"Koutová","sport":"climbing","website":"https://www.horosvaz.cz/skaly-cesta-100130/"}}}