{"17613707":{"lat":49.6832753,"lon":13.5165897,"ts":"2024-05-20T09:18:03Z","tz":1,"tags":{"climbing":"crag","name":"Melicharka","site":"climbing","sport":"climbing","type":"site","website":"https://www.horosvaz.cz/skaly-skala-13379/"}},"17641365":{"lat":49.633048,"lon":13.6306119,"ts":"2024-05-27T08:27:47Z","tz":1,"tags":{"climbing":"crag","name":"Dolní věž","site":"climbing","sport":"climbing","type":"site","website":"https://www.horosvaz.cz/skaly-skala-15777/"}},"17641367":{"lat":49.6328091,"lon":13.6315482,"ts":"2024-05-27T08:28:48Z","tz":1,"tags":{"climbing":"crag","name":"Pagoda","site":"climbing","sport":"climbing","type":"site","website":"https://www.horosvaz.cz/skaly-skala-15774/"}},"17698297":{"lat":49.7392229,"lon":13.6524197,"ts":"2024-06-10T08:09:10Z","tz":1,"tags":{"climbing":"crag","climbing:restriction":"yes","climbing:restriction:time_description":"Lezení zakázáno 1.1.-30.6.","name":"Vyhlídková skála","site":"climbing","sport":"climbing","type":"site","website":"https://www.horosvaz.cz/skaly-skala-12955/"}},"17698304":{"lat":49.7397533,"lon":13.6548742,"ts":"2024-06-10T08:10:30Z","tz":1,"tags":{"climbing":"crag","climbing:restriction":"yes","climbing:restriction:time_description":"Lezení zakázáno 1.1.-30.6.","name":"Malý oltář","site":"climbing","sport":"climbing","type":"site","website":"https://www.horosvaz.cz/skaly-skala-12956/"}},"17698308":{"lat":49.7397335,"lon":13.6554147,"ts":"2024-06-10T08:13:29Z","tz":1,"tags":{"climbing":"crag","climbing:restriction":"yes","climbing:restriction:time_description":"Lezení zakázáno 1.1.-30.6.","name":"Velký oltář","site":"climbing","sport":"climbing","type":"site","website":"https://www.horosvaz.cz/skaly-skala-12957/"}},"17699464":{"lat":49.655177,"lon":13.5653481,"ts":"2024-06-10T14:18:54Z","tz":1,"tags":{"climbing":"crag","name":"Marianina skála","site":"climbing","sport":"climbing","type":"site","website":"https://www.horosvaz.cz/skaly-skala-1193/"}},"17699467":{"lat":49.6139211,"lon":13.6622313,"ts":"2024-06-10T14:20:37Z","tz":1,"tags":{"climbing":"crag","climbing:restriction":"yes","name":"Homole u Hořehled","site":"climbing","sport":"climbing","type":"site","website":"https://www.horosvaz.cz/skaly-skala-10390/"}},"17747644":{"lat":49.7671131,"lon":13.4197032,"ts":"2024-06-21T16:05:51Z","tz":1,"tags":{"climbing":"crag","name":"U vody","site":"climbing","sport":"climbing","type":"site","website":"https://www.horosvaz.cz/skaly-skala-4266/"}},"17747646":{"lat":49.7669541,"lon":13.4198883,"ts":"2024-06-21T16:06:34Z","tz":1,"tags":{"climbing":"crag","name":"Plotýnka","site":"climbing","sport":"climbing","type":"site","website":"https://www.horosvaz.cz/skaly-skala-17707/"}},"17747648":{"lat":49.7372851,"lon":13.4793782,"ts":"2024-06-21T16:07:45Z","tz":1,"tags":{"climbing":"crag","name":"Cvičná skála","site":"climbing","sport":"climbing","type":"site","website":"https://www.horosvaz.cz/skaly-skala-17880/"}},"18878788":{"lat":49.6826,"lon":13.458422,"ts":"2025-03-22T18:47:07Z","tz":1,"tags":{"climbing":"crag","name":"Svatební blok","sport":"climbing"}},"129241049":{"lat":49.7770312,"lon":13.5384927,"ts":"2025-01-30T08:27:30Z","tz":1,"tags":{"alt_name":"Kokotský dolní rybník","climbing":"no","dog":"unleashed","fishing":"no","hiking":"yes","name":"Dolní kokotský rybník","natural":"water","operator":"cs:Město Plzeň","salt":"no","start_date":"C16","surface":"water","swimming":"no","water":"pond","wikidata":"Q11817819"}},"198951194":{"lat":49.7500888,"lon":13.3867018,"ts":"2023-07-05T14:35:11Z","tz":1,"tags":{"building":"tower","climbing:sport":"yes","fee":"no","man_made":"tower","name":"Kobra","outdoor":"yes","source":"cuzk:km;survey","sport":"climbing","tower:type":"climbing"}},"282482119":{"lat":49.7672167,"lon":13.4301372,"ts":"2025-01-25T10:10:00Z","tz":1,"tags":{"access":"yes","climbing":"no","direction":"360","ele":"416.2","fee":"donation","heritage":"yes","hiking":"yes","name":"Chlum","natural":"peak","note":"Bývalá sopka","summit:cross":"no","summit:register":"no","tourism":"viewpoint","trail_visibility":"excellent","wikidata":"Q11725182","wikipedia":"cs:Chlum (Rokycanská pahorkatina)"}},"307775636":{"lat":49.7838072,"lon":13.435073,"ts":"2025-01-25T10:20:14Z","tz":1,"tags":{"access":"yes","climbing":"yes","colour":"yellow","direction":"90","ele":"340","est_width":"0.7","fee":"no","hiking":"yes","incline":"11%","network":"lwn","note":"Výhled na řeku Berounku","operator":"KČT","osmc:symbol":"yellow:white:yellow_stripe","sac_scale":"mountain_hiking","smoothness":"intermediate","smoothness:date":"2024","summit:cross":"no","summit:register":"yes","surface":"cobblestone","tourism":"viewpoint","tracktype":"grade4","trail_visibility":"intermediate"}},"525465057":{"lat":49.7396023,"lon":13.39782,"ts":"2023-09-14T18:49:37Z","tz":1,"tags":{"leisure":"sports_centre","name":"Lezecká stěna Hannah","sport":"climbing"}},"1106282463":{"lat":49.7228401,"lon":13.3906953,"ts":"2022-11-02T19:05:10Z","tz":1,"tags":{"area":"yes","building":"yes","climbing:sport":"yes","fee":"no","man_made":"tower","outdoor":"yes","source":"survey","sport":"climbing","tower:type":"climbing"}},"1187635236":{"lat":49.7501656,"lon":13.386589,"ts":"2023-07-05T14:35:11Z","tz":1,"tags":{"building":"yes","climbing:boulder":"yes","climbing:sport":"no","description":"Venkovní boulder stěna","fee":"no","leisure":"sports_centre","outdoor":"yes","sport":"climbing"}},"1278760711":{"lat":49.8215667,"lon":13.650564,"ts":"2025-01-27T11:21:51Z","tz":1,"tags":{"access":"yes","alt_name":"Vyhlídkové místo Bílá skála","climbing":"no","direction":"180","ele":"650","hiking":"yes","name":"Bílá skála","tourism":"viewpoint"}},"6085547866":{"lat":49.7493402,"lon":13.3796394,"ts":"2018-11-23T13:00:44Z","tz":1,"tags":{"amenity":"bar","indoor":"yes","leisure":"sports_centre","level":"0","name":"Rock 'n' Wall","source":"survey","sport":"climbing"}},"6376522326":{"lat":49.7475094,"lon":13.369037,"ts":"2023-11-02T10:02:20Z","tz":1,"tags":{"addr:housenumber":"19","addr:street":"Kollárova","climbing:boulder":"yes","fee":"yes","indoor":"yes","leisure":"sports_centre","name":"Lezecké centrum V16","opening_hours":"Mo-Su 10:00-22:00","outdoor":"no","phone":"+420 725 889 568","short_name":"V16","source":"survey","sport":"climbing","website":"https://www.v16.cz/"}},"11919424481":{"lat":49.6832736,"lon":13.5169004,"ts":"2024-05-20T09:18:03Z","tz":1,"tags":{"climbing":"route_bottom","climbing:grade:uiaa":"3","name":"Koutková","sport":"climbing","website":"https://www.horosvaz.cz/skaly-cesta-70858/"}},"11919424482":{"lat":49.6832737,"lon":13.5168782,"ts":"2024-05-20T09:18:03Z","tz":1,"tags":{"climbing":"route_bottom","climbing:grade:uiaa":"4-","name":"Kozácká","sport":"climbing","website":"https://www.horosvaz.cz/skaly-cesta-70857/"}},"11919424483":{"lat":49.6832738,"lon":13.516856,"ts":"2024-05-20T09:18:03Z","tz":1,"tags":{"climbing":"route_bottom","climbing:grade:uiaa":"3+","name":"Svidenský kout","sport":"climbing","website":"https://www.horosvaz.cz/skaly-cesta-67536/"}},"11919424484":{"lat":49.6832739,"lon":13.5168338,"ts":"2024-05-20T09:18:03Z","tz":1,"tags":{"climbing":"route_bottom","climbing:grade:uiaa":"5","name":"Za pět minut doma","sport":"climbing","website":"https://www.horosvaz.cz/skaly-cesta-67535/"}},"11919424485":{"lat":49.683274,"lon":13.5168116,"ts":"2024-05-20T09:18:03Z","tz":1,"tags":{"climbing":"route_bottom","climbing:grade:uiaa":"5-","name":"Melicharův hněv","sport":"climbing","website":"https://www.horosvaz.cz/skaly-cesta-67534/"}},"11919424486":{"lat":49.6832742,"lon":13.5167894,"ts":"2024-05-20T09:18:03Z","tz":1,"tags":{"climbing":"route_bottom","climbing:grade:uiaa":"4+","name":"Žíznivá čára","sport":"climbing","website":"https://www.horosvaz.cz/skaly-cesta-70856/"}},"11919424487":{"lat":49.6832743,"lon":13.5167672,"ts":"2024-05-20T09:18:03Z","tz":1,"tags":{"climbing":"route_bottom","climbing:grade:uiaa":"3","name":"Vyhraněná","sport":"climbing","website":"https://www.horosvaz.cz/skaly-cesta-67533/"}},"11919424488":{"lat":49.6832744,"lon":13.516745,"ts":"2024-05-20T09:18:03Z","tz":1,"tags":{"climbing":"route_bottom","climbing:grade:uiaa":"3+","name":"Ortopedická","sport":"climbing","website":"https://www.horosvaz.cz/skaly-cesta-67532/"}},"11919424489":{"lat":49.6832745,"lon":13.5167228,"ts":"2024-05-20T09:18:03Z","tz":1,"tags":{"climbing":"route_bottom","climbing:grade:uiaa":"4","name":"Ortodontická","sport":"climbing","website":"https://www.horosvaz.cz/skaly-cesta-67531/"}},"11919424490":{"lat":49.6832746,"lon":13.5167006,"ts":"2024-05-20T09:18:03Z","tz":1,"tags":{"climbing":"route_bottom","climbing:grade:uiaa":"6+","name":"Stařecká cesta","sport":"climbing","website":"https://www.horosvaz.cz/skaly-cesta-70855/"}},"11919424491":{"lat":49.6832748,"lon":13.5166784,"ts":"2024-05-20T09:18:03Z","tz":1,"tags":{"climbing":"route_bottom","climbing:grade:uiaa":"7+","name":"Žabí Krev","sport":"climbing","website":"https://www.horosvaz.cz/skaly-cesta-115189/"}},"11919424492":{"lat":49.6832749,"lon":13.5166562,"ts":"2024-05-20T09:18:03Z","tz":1,"tags":{"climbing":"route_bottom","climbing:grade:uiaa":"5","name":"Balkonová","sport":"climbing","website":"https://www.horosvaz.cz/skaly-cesta-70854/"}},"11919424493":{"lat":49.683275,"lon":13.516634,"ts":"2024-05-20T09:18:03Z","tz":1,"tags":{"climbing":"route_bottom","climbing:grade:uiaa":"4-","name":"Žebříkový traverz","sport":"climbing","website":"https://www.horosvaz.cz/skaly-cesta-67530/"}},"11919424494":{"lat":49.6832751,"lon":13.5166118,"ts":"2024-05-20T09:18:03Z","tz":1,"tags":{"climbing":"route_bottom","climbing:grade:uiaa":"5","name":"Židlová","sport":"climbing","website":"https://www.horosvaz.cz/skaly-cesta-67529/"}},"11919424495":{"lat":49.6832752,"lon":13.5165896,"ts":"2024-05-20T09:18:03Z","tz":1,"tags":{"climbing":"route_bottom","climbing:grade:uiaa":"4-","name":"Žabička","sport":"climbing","website":"https://www.horosvaz.cz/skaly-cesta-70867/"}},"11919424496":{"lat":49.6832754,"lon":13.5165674,"ts":"2024-05-20T09:18:03Z","tz":1,"tags":{"climbing":"route_bottom","climbing:grade:uiaa":"4","name":"A dost","sport":"climbing","website":"https://www.horosvaz.cz/skaly-cesta-70866/"}},"11919424497":{"lat":49.6832755,"lon":13.5165452,"ts":"2024-05-20T09:18:03Z","tz":1,"tags":{"climbing":"route_bottom","climbing:grade:uiaa":"3-","name":"Špacír","sport":"climbing","website":"https://www.horosvaz.cz/skaly-cesta-70853/"}},"11919424498":{"lat":49.6832756,"lon":13.516523,"ts":"2024-05-20T09:18:03Z","tz":1,"tags":{"climbing":"route_bottom","climbing:grade:uiaa":"6-","name":"Nástupová varianta","sport":"climbing","website":"https://www.horosvaz.cz/skaly-cesta-70852/"}},"11919424499":{"lat":49.6832757,"lon":13.5165008,"ts":"2024-05-20T09:18:03Z","tz":1,"tags":{"climbing":"route_bottom","climbing:grade:uiaa":"3-","name":"Mechová","sport":"climbing","website":"https://www.horosvaz.cz/skaly-cesta-70851/"}},"11919424500":{"lat":49.6832758,"lon":13.5164786,"ts":"2024-05-20T09:18:03Z","tz":1,"tags":{"climbing":"route_bottom","climbing:grade:uiaa":"5+","name":"Odmešený převis","sport":"climbing","website":"https://www.horosvaz.cz/skaly-cesta-70850/"}},"11919424501":{"lat":49.683276,"lon":13.5164564,"ts":"2024-05-20T09:18:03Z","tz":1,"tags":{"climbing":"route_bottom","climbing:grade:uiaa":"5","name":"Kolmice","sport":"climbing","website":"https://www.horosvaz.cz/skaly-cesta-70849/"}},"11919424502":{"lat":49.6832761,"lon":13.5164342,"ts":"2024-05-20T09:18:03Z","tz":1,"tags":{"climbing":"route_bottom","climbing:grade:uiaa":"5","name":"Opatrná jízda","sport":"climbing","website":"https://www.horosvaz.cz/skaly-cesta-70848/"}},"11919424503":{"lat":49.6832762,"lon":13.516412,"ts":"2024-05-20T09:18:03Z","tz":1,"tags":{"climbing":"route_bottom","climbing:grade:uiaa":"5+","name":"Energit","sport":"climbing","website":"https://www.horosvaz.cz/skaly-cesta-70847/"}},"11919424504":{"lat":49.6832763,"lon":13.5163899,"ts":"2024-05-20T09:18:03Z","tz":1,"tags":{"climbing":"route_bottom","climbing:grade:uiaa":"4-","name":"Pylová sezóna","sport":"climbing","website":"https://www.horosvaz.cz/skaly-cesta-67528/"}},"11919424505":{"lat":49.6832764,"lon":13.5163677,"ts":"2024-05-20T09:18:03Z","tz":1,"tags":{"climbing":"route_bottom","climbing:grade:uiaa":"4-","name":"Bambouskovo dobrodružství","sport":"climbing","website":"https://www.horosvaz.cz/skaly-cesta-67527/"}},"11919424506":{"lat":49.6832765,"lon":13.5163455,"ts":"2024-05-20T09:18:03Z","tz":1,"tags":{"climbing":"route_bottom","climbing:grade:uiaa":"4+","name":"Retrohrana","sport":"climbing","website":"https://www.horosvaz.cz/skaly-cesta-67526/"}},"11919424507":{"lat":49.6832767,"lon":13.5163233,"ts":"2024-05-20T09:18:03Z","tz":1,"tags":{"climbing":"route_bottom","climbing:grade:uiaa":"4","name":"Maršálská hůl","sport":"climbing","website":"https://www.horosvaz.cz/skaly-cesta-67525/"}},"11919424508":{"lat":49.6832768,"lon":13.5163011,"ts":"2024-05-20T09:18:03Z","tz":1,"tags":{"climbing":"route_bottom","climbing:grade:uiaa":"3+","name":"Šťáhlavská","sport":"climbing","website":"https://www.horosvaz.cz/skaly-cesta-67524/"}},"11919424509":{"lat":49.6832769,"lon":13.5162789,"ts":"2024-05-20T09:18:03Z","tz":1,"tags":{"climbing":"route_bottom","climbing:grade:uiaa":"3+","name":"Na kukačce","sport":"climbing","website":"https://www.horosvaz.cz/skaly-cesta-67523/"}},"11936591358":{"lat":49.6328205,"lon":13.6315952,"ts":"2024-05-27T08:28:48Z","tz":1,"tags":{"climbing":"route_bottom","climbing:grade:uiaa":"3","name":"Mandala","sport":"climbing","website":"https://www.horosvaz.cz/skaly-cesta-87211/"}},"11936591359":{"lat":49.6328139,"lon":13.6315752,"ts":"2024-05-27T08:28:48Z","tz":1,"tags":{"climbing":"route_bottom","climbing:grade:uiaa":"4+","name":"Hare krishna","sport":"climbing","website":"https://www.horosvaz.cz/skaly-cesta-87210/"}},"11936591360":{"lat":49.6328072,"lon":13.6315552,"ts":"2024-05-27T08:28:48Z","tz":1,"tags":{"climbing":"route_bottom","climbing:grade:uiaa":"4+","name":"Jogínská","sport":"climbing","website":"https://www.horosvaz.cz/skaly-cesta-87209/"}},"11936591361":{"lat":49.6328006,"lon":13.6315352,"ts":"2024-05-27T08:28:48Z","tz":1,"tags":{"climbing":"route_bottom","climbing:grade:uiaa":"4","name":"Lotosový květ","sport":"climbing","website":"https://www.horosvaz.cz/skaly-cesta-87208/"}},"11936591362":{"lat":49.6327982,"lon":13.6315182,"ts":"2024-05-27T08:28:48Z","tz":1,"tags":{"climbing":"route_bottom","climbing:grade:uiaa":"4+","name":"Kamasutra","sport":"climbing","website":"https://www.horosvaz.cz/skaly-cesta-87207/"}},"11936591363":{"lat":49.6327977,"lon":13.6315012,"ts":"2024-05-27T08:28:48Z","tz":1,"tags":{"climbing":"route_bottom","climbing:grade:uiaa":"4","name":"Reinkarnace","sport":"climbing","website":"https://www.horosvaz.cz/skaly-cesta-87206/"}},"11936612421":{"lat":49.6330445,"lon":13.6306499,"ts":"2024-05-27T08:27:47Z","tz":1,"tags":{"climbing":"route_bottom","climbing:grade:uiaa":"3","name":"Spárová","sport":"climbing","website":"https://www.horosvaz.cz/skaly-cesta-87224/"}},"11936612422":{"lat":49.6330498,"lon":13.6306485,"ts":"2024-05-27T08:27:47Z","tz":1,"tags":{"climbing":"route_bottom","climbing:grade:uiaa":"4","name":"Puklice","sport":"climbing","website":"https://www.horosvaz.cz/skaly-cesta-87223/"}},"11936612423":{"lat":49.633055,"lon":13.6306472,"ts":"2024-05-27T08:27:47Z","tz":1,"tags":{"climbing":"route_bottom","climbing:grade:uiaa":"4","name":"Kratochvílná","sport":"climbing","website":"https://www.horosvaz.cz/skaly-cesta-87222/"}},"11936612424":{"lat":49.6330631,"lon":13.6306421,"ts":"2024-05-27T08:27:47Z","tz":1,"tags":{"climbing":"route_bottom","climbing:grade:uiaa":"4+","name":"Delší krůček","sport":"climbing","website":"https://www.horosvaz.cz/skaly-cesta-87221/"}},"11936612425":{"lat":49.6330678,"lon":13.6306233,"ts":"2024-05-27T08:27:47Z","tz":1,"tags":{"climbing":"route_bottom","climbing:grade:uiaa":"6","name":"Čehý","sport":"climbing","website":"https://www.horosvaz.cz/skaly-cesta-87220/"}},"11936612426":{"lat":49.6330679,"lon":13.6306001,"ts":"2024-05-27T08:27:47Z","tz":1,"tags":{"climbing":"route_bottom","climbing:grade:uiaa":"5+","name":"Hot","sport":"climbing","website":"https://www.horosvaz.cz/skaly-cesta-87219/"}},"11936612427":{"lat":49.6330522,"lon":13.6305733,"ts":"2024-05-27T08:27:47Z","tz":1,"tags":{"climbing":"route_bottom","climbing:grade:uiaa":"3+","name":"Najdi duhu","sport":"climbing","website":"https://www.horosvaz.cz/skaly-cesta-87218/"}},"11936612428":{"lat":49.6330387,"lon":13.6305733,"ts":"2024-05-27T08:27:47Z","tz":1,"tags":{"climbing":"route_bottom","climbing:grade:uiaa":"3","name":"Temnice","sport":"climbing","website":"https://www.horosvaz.cz/skaly-cesta-87217/"}},"11936612429":{"lat":49.6330282,"lon":13.6305853,"ts":"2024-05-27T08:27:47Z","tz":1,"tags":{"climbing":"route_bottom","climbing:grade:uiaa":"5+","name":"Hvížďalí cesta","sport":"climbing","website":"https://www.horosvaz.cz/skaly-cesta-87216/"}},"11936612430":{"lat":49.6330292,"lon":13.630602,"ts":"2024-05-27T08:27:47Z","tz":1,"tags":{"climbing":"route_bottom","climbing:grade:uiaa":"4","name":"Strouhaná mrkvička","sport":"climbing","website":"https://www.horosvaz.cz/skaly-cesta-87215/"}},"11936612431":{"lat":49.6330297,"lon":13.6306228,"ts":"2024-05-27T08:27:47Z","tz":1,"tags":{"climbing":"route_bottom","climbing:grade:uiaa":"5","name":"Sáhodlouhá","sport":"climbing","website":"https://www.horosvaz.cz/skaly-cesta-87214/"}},"11936612432":{"lat":49.6330334,"lon":13.6306369,"ts":"2024-05-27T08:27:47Z","tz":1,"tags":{"climbing":"route_bottom","climbing:grade:uiaa":"3","name":"Bebí","sport":"climbing","website":"https://www.horosvaz.cz/skaly-cesta-87213/"}},"11936612433":{"lat":49.6330378,"lon":13.6306506,"ts":"2024-05-27T08:27:47Z","tz":1,"tags":{"climbing":"route_bottom","climbing:grade:uiaa":"2","name":"Cesta pro pěší","sport":"climbing","website":"https://www.horosvaz.cz/skaly-cesta-87212/"}},"11968443384":{"lat":49.7397808,"lon":13.6548839,"ts":"2024-06-10T08:10:30Z","tz":1,"tags":{"climbing":"route_bottom","climbing:grade:uiaa":"4","name":"Poslední","sport":"climbing","website":"https://www.horosvaz.cz/skaly-cesta-75972/"}},"11968443385":{"lat":49.7397675,"lon":13.6548954,"ts":"2024-06-10T08:10:30Z","tz":1,"tags":{"climbing":"route_bottom","climbing:grade:uiaa":"5","name":"Červnová hrana","sport":"climbing","website":"https://www.horosvaz.cz/skaly-cesta-75971/"}},"11968443386":{"lat":49.7397512,"lon":13.6549102,"ts":"2024-06-10T08:10:30Z","tz":1,"tags":{"climbing":"route_bottom","climbing:grade:uiaa":"7+","name":"Pater Noster","sport":"climbing","website":"https://www.horosvaz.cz/skaly-cesta-75970/"}},"11968443387":{"lat":49.7397322,"lon":13.6549097,"ts":"2024-06-10T08:10:30Z","tz":1,"tags":{"climbing":"route_bottom","climbing:grade:uiaa":"4","name":"Normální cesta","sport":"climbing","website":"https://www.horosvaz.cz/skaly-cesta-75969/"}},"11968443388":{"lat":49.7397263,"lon":13.6548746,"ts":"2024-06-10T08:10:30Z","tz":1,"tags":{"climbing":"route_bottom","climbing:grade:uiaa":"5","name":"Tvrdá kanta","sport":"climbing","website":"https://www.horosvaz.cz/skaly-cesta-75968/"}},"11968443389":{"lat":49.7397258,"lon":13.6548382,"ts":"2024-06-10T08:10:30Z","tz":1,"tags":{"climbing":"route_bottom","climbing:grade:uiaa":"4+","name":"Baletní hrana","sport":"climbing","website":"https://www.horosvaz.cz/skaly-cesta-75967/"}},"11968459787":{"lat":49.7391194,"lon":13.6519798,"ts":"2024-06-10T08:09:10Z","tz":1,"tags":{"climbing":"route_bottom","climbing:grade:uiaa":"2","name":"Komínek","sport":"climbing","website":"https://www.horosvaz.cz/skaly-cesta-107167/"}},"11968459788":{"lat":49.7391238,"lon":13.6519985,"ts":"2024-06-10T08:09:10Z","tz":1,"tags":{"climbing":"route_bottom","climbing:grade:uiaa":"5","name":"Cesta pro pamětníky - var.","sport":"climbing","website":"https://www.horosvaz.cz/skaly-cesta-107166/"}},"11968459789":{"lat":49.7391282,"lon":13.6520172,"ts":"2024-06-10T08:09:10Z","tz":1,"tags":{"climbing":"route_bottom","climbing:grade:uiaa":"8","name":"Žďárský strop var.","sport":"climbing","website":"https://www.horosvaz.cz/skaly-cesta-107157/"}},"11968459790":{"lat":49.7391326,"lon":13.652036,"ts":"2024-06-10T08:09:10Z","tz":1,"tags":{"climbing":"route_bottom","climbing:grade:uiaa":"3+","name":"33° ve stínu","sport":"climbing","website":"https://www.horosvaz.cz/skaly-cesta-75966/"}},"11968459791":{"lat":49.739137,"lon":13.6520547,"ts":"2024-06-10T08:09:10Z","tz":1,"tags":{"climbing":"route_bottom","climbing:grade:uiaa":"3","name":"Tatíkovská","sport":"climbing","website":"https://www.horosvaz.cz/skaly-cesta-75965/"}},"11968459792":{"lat":49.7391414,"lon":13.6520734,"ts":"2024-06-10T08:09:10Z","tz":1,"tags":{"climbing":"route_bottom","climbing:grade:uiaa":"5","name":"Strop","sport":"climbing","website":"https://www.horosvaz.cz/skaly-cesta-75964/"}},"11968459793":{"lat":49.7391458,"lon":13.6520921,"ts":"2024-06-10T08:09:10Z","tz":1,"tags":{"climbing":"route_bottom","climbing:grade:uiaa":"4","name":"Cesta pro pamětníky","sport":"climbing","website":"https://www.horosvaz.cz/skaly-cesta-75963/"}},"11968459794":{"lat":49.7391502,"lon":13.6521108,"ts":"2024-06-10T08:09:10Z","tz":1,"tags":{"climbing":"route_bottom","climbing:grade:uiaa":"4","name":"Buková hrana","sport":"climbing","website":"https://www.horosvaz.cz/skaly-cesta-75962/"}},"11968459795":{"lat":49.7391547,"lon":13.6521296,"ts":"2024-06-10T08:09:10Z","tz":1,"tags":{"climbing":"route_bottom","climbing:grade:uiaa":"4","name":"Stínová","sport":"climbing","website":"https://www.horosvaz.cz/skaly-cesta-75961/"}},"11968459796":{"lat":49.7391591,"lon":13.6521483,"ts":"2024-06-10T08:09:10Z","tz":1,"tags":{"climbing":"route_bottom","climbing:grade:uiaa":"5","name":"Opomenutá","sport":"climbing","website":"https://www.horosvaz.cz/skaly-cesta-75960/"}},"11968459797":{"lat":49.7391635,"lon":13.652167,"ts":"2024-06-10T08:09:10Z","tz":1,"tags":{"climbing":"route_bottom","climbing:grade:uiaa":"5","name":"Nevlídná spára","sport":"climbing","website":"https://www.horosvaz.cz/skaly-cesta-75959/"}},"11968459798":{"lat":49.7391679,"lon":13.6521857,"ts":"2024-06-10T08:09:10Z","tz":1,"tags":{"climbing":"route_bottom","climbing:grade:uiaa":"5","name":"Extrémní varianta","sport":"climbing","website":"https://www.horosvaz.cz/skaly-cesta-75958/"}},"11968459799":{"lat":49.7391723,"lon":13.6522044,"ts":"2024-06-10T08:09:10Z","tz":1,"tags":{"climbing":"route_bottom","climbing:grade:uiaa":"7-","name":"Extrém","sport":"climbing","website":"https://www.horosvaz.cz/skaly-cesta-75957/"}},"11968459800":{"lat":49.7391767,"lon":13.6522232,"ts":"2024-06-10T08:09:10Z","tz":1,"tags":{"climbing":"route_bottom","climbing:grade:uiaa":"6","name":"Cesta pro Zdeničku","sport":"climbing","website":"https://www.horosvaz.cz/skaly-cesta-75956/"}},"11968459801":{"lat":49.7391811,"lon":13.6522419,"ts":"2024-06-10T08:09:10Z","tz":1,"tags":{"climbing":"route_bottom","climbing:grade:uiaa":"4","name":"Antischod","sport":"climbing","website":"https://www.horosvaz.cz/skaly-cesta-75955/"}},"11968459802":{"lat":49.7391855,"lon":13.6522606,"ts":"2024-06-10T08:09:10Z","tz":1,"tags":{"climbing":"route_bottom","climbing:grade:uiaa":"4","name":"Varianta Srazové","sport":"climbing","website":"https://www.horosvaz.cz/skaly-cesta-75954/"}},"11968459803":{"lat":49.7391899,"lon":13.6522793,"ts":"2024-06-10T08:09:10Z","tz":1,"tags":{"climbing":"route_bottom","climbing:grade:uiaa":"4","name":"Srazová","sport":"climbing","website":"https://www.horosvaz.cz/skaly-cesta-75953/"}},"11968459804":{"lat":49.7391943,"lon":13.652298,"ts":"2024-06-10T08:09:10Z","tz":1,"tags":{"climbing":"route_bottom","climbing:grade:uiaa":"6-","name":"Milionářská varianta","sport":"climbing","website":"https://www.horosvaz.cz/skaly-cesta-75952/"}},"11968459805":{"lat":49.7391987,"lon":13.6523168,"ts":"2024-06-10T08:09:10Z","tz":1,"tags":{"climbing":"route_bottom","climbing:grade:uiaa":"5","name":"Milionářská","sport":"climbing","website":"https://www.horosvaz.cz/skaly-cesta-75951/"}},"11968459806":{"lat":49.7392031,"lon":13.6523355,"ts":"2024-06-10T08:09:10Z","tz":1,"tags":{"climbing":"route_bottom","climbing:grade:uiaa":"7","name":"NC - Větrná varianta","sport":"climbing","website":"https://www.horosvaz.cz/skaly-cesta-75950/"}},"11968459807":{"lat":49.7392075,"lon":13.6523542,"ts":"2024-06-10T08:09:10Z","tz":1,"tags":{"climbing":"route_bottom","climbing:grade:uiaa":"5","name":"Svojkovická hranka","sport":"climbing","website":"https://www.horosvaz.cz/skaly-cesta-75949/"}},"11968459808":{"lat":49.7392119,"lon":13.6523729,"ts":"2024-06-10T08:09:10Z","tz":1,"tags":{"climbing":"route_bottom","climbing:grade:uiaa":"5","name":"Hodinová","sport":"climbing","website":"https://www.horosvaz.cz/skaly-cesta-75948/"}},"11968459809":{"lat":49.7392163,"lon":13.6523916,"ts":"2024-06-10T08:09:10Z","tz":1,"tags":{"climbing":"route_bottom","climbing:grade:uiaa":"4","name":"Hrádecká","sport":"climbing","website":"https://www.horosvaz.cz/skaly-cesta-75947/"}},"11968459810":{"lat":49.7392207,"lon":13.6524104,"ts":"2024-06-10T08:09:10Z","tz":1,"tags":{"climbing":"route_bottom","climbing:grade:uiaa":"7-","name":"Živočišná výroba","sport":"climbing","website":"https://www.horosvaz.cz/skaly-cesta-75946/"}},"11968459811":{"lat":49.7392251,"lon":13.6524291,"ts":"2024-06-10T08:09:10Z","tz":1,"tags":{"climbing":"route_bottom","climbing:grade:uiaa":"6","name":"NC - Přímá varianta","sport":"climbing","website":"https://www.horosvaz.cz/skaly-cesta-75945/"}},"11968459812":{"lat":49.7392295,"lon":13.6524478,"ts":"2024-06-10T08:09:10Z","tz":1,"tags":{"climbing":"route_bottom","climbing:grade:uiaa":"9+","name":"Babí léto","sport":"climbing","website":"https://www.horosvaz.cz/skaly-cesta-75944/"}},"11968459813":{"lat":49.739234,"lon":13.6524665,"ts":"2024-06-10T08:09:10Z","tz":1,"tags":{"climbing":"route_bottom","climbing:grade:uiaa":"5","name":"Labutí píseň","sport":"climbing","website":"https://www.horosvaz.cz/skaly-cesta-75943/"}},"11968459814":{"lat":49.7392384,"lon":13.6524852,"ts":"2024-06-10T08:09:10Z","tz":1,"tags":{"climbing":"route_bottom","climbing:grade:uiaa":"6-","name":"Var. Hermanova odkazu","sport":"climbing","website":"https://www.horosvaz.cz/skaly-cesta-75942/"}},"11968459815":{"lat":49.7392428,"lon":13.652504,"ts":"2024-06-10T08:09:10Z","tz":1,"tags":{"climbing":"route_bottom","climbing:grade:uiaa":"5","name":"Hermanův odkaz - var. Kojotí smích","sport":"climbing","website":"https://www.horosvaz.cz/skaly-cesta-75941/"}},"11968459816":{"lat":49.7392472,"lon":13.6525227,"ts":"2024-06-10T08:09:10Z","tz":1,"tags":{"climbing":"route_bottom","climbing:grade:uiaa":"6","name":"Hermanův odkaz","sport":"climbing","website":"https://www.horosvaz.cz/skaly-cesta-75940/"}},"11968459817":{"lat":49.7392516,"lon":13.6525414,"ts":"2024-06-10T08:09:10Z","tz":1,"tags":{"climbing":"route_bottom","climbing:grade:uiaa":"4","name":"Normální cesta","sport":"climbing","website":"https://www.horosvaz.cz/skaly-cesta-75939/"}},"11968459818":{"lat":49.739256,"lon":13.6525601,"ts":"2024-06-10T08:09:10Z","tz":1,"tags":{"climbing":"route_bottom","climbing:grade:uiaa":"5+","name":"NC - var. Středem pilíře","sport":"climbing","website":"https://www.horosvaz.cz/skaly-cesta-75938/"}},"11968459819":{"lat":49.7392604,"lon":13.6525788,"ts":"2024-06-10T08:09:10Z","tz":1,"tags":{"climbing":"route_bottom","climbing:grade:uiaa":"5","name":"Plotny - var. Lučiště","sport":"climbing","website":"https://www.horosvaz.cz/skaly-cesta-75937/"}},"11968459820":{"lat":49.7392648,"lon":13.6525976,"ts":"2024-06-10T08:09:10Z","tz":1,"tags":{"climbing":"route_bottom","climbing:grade:uiaa":"6","name":"Plotny","sport":"climbing","website":"https://www.horosvaz.cz/skaly-cesta-75936/"}},"11968459821":{"lat":49.7392692,"lon":13.6526163,"ts":"2024-06-10T08:09:10Z","tz":1,"tags":{"climbing":"route_bottom","climbing:grade:uiaa":"4","name":"Schodiště","sport":"climbing","website":"https://www.horosvaz.cz/skaly-cesta-75935/"}},"11968459822":{"lat":49.7392736,"lon":13.652635,"ts":"2024-06-10T08:09:10Z","tz":1,"tags":{"climbing":"route_bottom","climbing:grade:uiaa":"4","name":"Tatranská","sport":"climbing","website":"https://www.horosvaz.cz/skaly-cesta-75934/"}},"11968459823":{"lat":49.739278,"lon":13.6526537,"ts":"2024-06-10T08:09:10Z","tz":1,"tags":{"climbing":"route_bottom","climbing:grade:uiaa":"5+","name":"Rohová","sport":"climbing","website":"https://www.horosvaz.cz/skaly-cesta-75933/"}},"11968459824":{"lat":49.7392824,"lon":13.6526724,"ts":"2024-06-10T08:09:10Z","tz":1,"tags":{"climbing":"route_bottom","climbing:grade:uiaa":"5","name":"Koutová","sport":"climbing","website":"https://www.horosvaz.cz/skaly-cesta-75932/"}},"11968459825":{"lat":49.7392868,"lon":13.6526912,"ts":"2024-06-10T08:09:10Z","tz":1,"tags":{"climbing":"route_bottom","climbing:grade:uiaa":"5","name":"Omšelá","sport":"climbing","website":"https://www.horosvaz.cz/skaly-cesta-75931/"}},"11968459826":{"lat":49.7392912,"lon":13.6527099,"ts":"2024-06-10T08:09:10Z","tz":1,"tags":{"climbing":"route_bottom","climbing:grade:uiaa":"5","name":"Jacksonina cesta","sport":"climbing","website":"https://www.horosvaz.cz/skaly-cesta-75930/"}},"11968459827":{"lat":49.7392956,"lon":13.6527286,"ts":"2024-06-10T08:09:10Z","tz":1,"tags":{"climbing":"route_bottom","climbing:grade:uiaa":"5-","name":"Holoubkovská","sport":"climbing","website":"https://www.horosvaz.cz/skaly-cesta-75929/"}},"11968459828":{"lat":49.7393,"lon":13.6527473,"ts":"2024-06-10T08:09:10Z","tz":1,"tags":{"climbing":"route_bottom","climbing:grade:uiaa":"3","name":"Komínová varianta","sport":"climbing","website":"https://www.horosvaz.cz/skaly-cesta-75928/"}},"11968459829":{"lat":49.7393044,"lon":13.652766,"ts":"2024-06-10T08:09:10Z","tz":1,"tags":{"climbing":"route_bottom","climbing:grade:uiaa":"7-","name":"Žluté nebezpečí","sport":"climbing","website":"https://www.horosvaz.cz/skaly-cesta-75927/"}},"11968459830":{"lat":49.7393089,"lon":13.6527847,"ts":"2024-06-10T08:09:10Z","tz":1,"tags":{"climbing":"route_bottom","climbing:grade:uiaa":"6","name":"Lukášovo Přání","sport":"climbing","website":"https://www.horosvaz.cz/skaly-cesta-75926/"}},"11968459831":{"lat":49.7393133,"lon":13.6528035,"ts":"2024-06-10T08:09:10Z","tz":1,"tags":{"climbing":"route_bottom","climbing:grade:uiaa":"3","name":"Svačinka","sport":"climbing","website":"https://www.horosvaz.cz/skaly-cesta-75925/"}},"11968459832":{"lat":49.7393177,"lon":13.6528222,"ts":"2024-06-10T08:09:10Z","tz":1,"tags":{"climbing":"route_bottom","climbing:grade:uiaa":"5","name":"Safari","sport":"climbing","website":"https://www.horosvaz.cz/skaly-cesta-75924/"}},"11968459833":{"lat":49.7393221,"lon":13.6528409,"ts":"2024-06-10T08:09:10Z","tz":1,"tags":{"climbing":"route_bottom","climbing:grade:uiaa":"5","name":"Rozpor Ne","sport":"climbing","website":"https://www.horosvaz.cz/skaly-cesta-75923/"}},"11968459834":{"lat":49.7393265,"lon":13.6528596,"ts":"2024-06-10T08:09:10Z","tz":1,"tags":{"climbing":"route_bottom","climbing:grade:uiaa":"4+","name":"Česká","sport":"climbing","website":"https://www.horosvaz.cz/skaly-cesta-75922/"}},"11968463058":{"lat":49.7397885,"lon":13.6555924,"ts":"2024-06-10T08:13:29Z","tz":1,"tags":{"climbing":"route_bottom","climbing:grade:uiaa":"6-","name":"Potkaní","sport":"climbing","website":"https://www.horosvaz.cz/skaly-cesta-76000/"}},"11968463059":{"lat":49.7397687,"lon":13.655596,"ts":"2024-06-10T08:13:29Z","tz":1,"tags":{"climbing":"route_bottom","climbing:grade:uiaa":"6","name":"Var. Potkaní cesty","sport":"climbing","website":"https://www.horosvaz.cz/skaly-cesta-75999/"}},"11968463060":{"lat":49.739754,"lon":13.6555983,"ts":"2024-06-10T08:13:29Z","tz":1,"tags":{"climbing":"route_bottom","climbing:grade:uiaa":"7","name":"Unionistická","sport":"climbing","website":"https://www.horosvaz.cz/skaly-cesta-114629/"}},"11968463061":{"lat":49.7397359,"lon":13.6555992,"ts":"2024-06-10T08:13:29Z","tz":1,"tags":{"climbing":"route_bottom","climbing:grade:uiaa":"8","name":"Hmatadla","sport":"climbing","website":"https://www.horosvaz.cz/skaly-cesta-75998/"}},"11968463062":{"lat":49.7397247,"lon":13.6555998,"ts":"2024-06-10T08:13:29Z","tz":1,"tags":{"climbing":"route_bottom","climbing:grade:uiaa":"6+","name":"Hokejka","sport":"climbing","website":"https://www.horosvaz.cz/skaly-cesta-75997/"}},"11968463063":{"lat":49.7397142,"lon":13.6556004,"ts":"2024-06-10T08:13:29Z","tz":1,"tags":{"climbing":"route_bottom","climbing:grade:uiaa":"7-","name":"Chrámová","sport":"climbing","website":"https://www.horosvaz.cz/skaly-cesta-75996/"}},"11968463064":{"lat":49.7397018,"lon":13.655598,"ts":"2024-06-10T08:13:29Z","tz":1,"tags":{"climbing":"route_bottom","climbing:grade:uiaa":"8","name":"Růžové brýle","sport":"climbing","website":"https://www.horosvaz.cz/skaly-cesta-75995/"}},"11968463065":{"lat":49.7396917,"lon":13.6555974,"ts":"2024-06-10T08:13:29Z","tz":1,"tags":{"climbing":"route_bottom","climbing:grade:uiaa":"6","name":"Var. Rubačky","sport":"climbing","website":"https://www.horosvaz.cz/skaly-cesta-75991/"}},"11968463066":{"lat":49.7396808,"lon":13.6555923,"ts":"2024-06-10T08:13:29Z","tz":1,"tags":{"climbing":"route_bottom","climbing:grade:uiaa":"6","name":"Rubačka","sport":"climbing","website":"https://www.horosvaz.cz/skaly-cesta-75990/"}},"11968463067":{"lat":49.7396785,"lon":13.6555767,"ts":"2024-06-10T08:13:29Z","tz":1,"tags":{"climbing":"route_bottom","climbing:grade:uiaa":"6","name":"Var. Nedělní cesty","sport":"climbing","website":"https://www.horosvaz.cz/skaly-cesta-75993/"}},"11968463068":{"lat":49.7396784,"lon":13.6555615,"ts":"2024-06-10T08:13:29Z","tz":1,"tags":{"climbing":"route_bottom","climbing:grade:uiaa":"5","name":"Nedělní","sport":"climbing","website":"https://www.horosvaz.cz/skaly-cesta-75992/"}},"11968468469":{"lat":49.739681,"lon":13.6555423,"ts":"2024-06-10T08:13:29Z","tz":1,"tags":{"climbing":"route_bottom","climbing:grade:uiaa":"6","name":"Muší rys","sport":"climbing","website":"https://www.horosvaz.cz/skaly-cesta-75989/"}},"11968468470":{"lat":49.7396837,"lon":13.6555231,"ts":"2024-06-10T08:13:29Z","tz":1,"tags":{"climbing":"route_bottom","climbing:grade:uiaa":"7+","name":"Posilovák","sport":"climbing","website":"https://www.horosvaz.cz/skaly-cesta-75994/"}},"11968468471":{"lat":49.7396864,"lon":13.655504,"ts":"2024-06-10T08:13:29Z","tz":1,"tags":{"climbing":"route_bottom","climbing:grade:uiaa":"6-","name":"Srpnová spára","sport":"climbing","website":"https://www.horosvaz.cz/skaly-cesta-75988/"}},"11968468472":{"lat":49.7396891,"lon":13.6554848,"ts":"2024-06-10T08:13:29Z","tz":1,"tags":{"climbing":"route_bottom","climbing:grade:uiaa":"6+","name":"Mrazivá","sport":"climbing","website":"https://www.horosvaz.cz/skaly-cesta-75987/"}},"11968468473":{"lat":49.7396918,"lon":13.6554656,"ts":"2024-06-10T08:13:29Z","tz":1,"tags":{"climbing":"route_bottom","climbing:grade:uiaa":"5","name":"Nová cesta","sport":"climbing","website":"https://www.horosvaz.cz/skaly-cesta-75986/"}},"11968468474":{"lat":49.7396944,"lon":13.6554464,"ts":"2024-06-10T08:13:29Z","tz":1,"tags":{"climbing":"route_bottom","climbing:grade:uiaa":"3","name":"Trojice","sport":"climbing","website":"https://www.horosvaz.cz/skaly-cesta-75985/"}},"11968468475":{"lat":49.7396971,"lon":13.6554272,"ts":"2024-06-10T08:13:29Z","tz":1,"tags":{"climbing":"route_bottom","climbing:grade:uiaa":"7","name":"Deštivá","sport":"climbing","website":"https://www.horosvaz.cz/skaly-cesta-75984/"}},"11968468476":{"lat":49.7396998,"lon":13.6554081,"ts":"2024-06-10T08:13:29Z","tz":1,"tags":{"climbing":"route_bottom","climbing:grade:uiaa":"7+","name":"Liepavá stěnka","sport":"climbing","website":"https://www.horosvaz.cz/skaly-cesta-75983/"}},"11968468477":{"lat":49.7397025,"lon":13.6553889,"ts":"2024-06-10T08:13:29Z","tz":1,"tags":{"climbing":"route_bottom","climbing:grade:uiaa":"6-","name":"Hrana","sport":"climbing","website":"https://www.horosvaz.cz/skaly-cesta-75982/"}},"11968468478":{"lat":49.7397051,"lon":13.6553697,"ts":"2024-06-10T08:13:29Z","tz":1,"tags":{"climbing":"route_bottom","climbing:grade:uiaa":"5","name":"Slimejší","sport":"climbing","website":"https://www.horosvaz.cz/skaly-cesta-75981/"}},"11968468479":{"lat":49.7397078,"lon":13.6553505,"ts":"2024-06-10T08:13:29Z","tz":1,"tags":{"climbing":"route_bottom","climbing:grade:uiaa":"4","name":"Západní komín","sport":"climbing","website":"https://www.horosvaz.cz/skaly-cesta-75980/"}},"11968468480":{"lat":49.7397105,"lon":13.6553313,"ts":"2024-06-10T08:13:29Z","tz":1,"tags":{"climbing":"route_bottom","climbing:grade:uiaa":"6","name":"Západní stěnka","sport":"climbing","website":"https://www.horosvaz.cz/skaly-cesta-75979/"}},"11968468481":{"lat":49.7397132,"lon":13.6553121,"ts":"2024-06-10T08:13:29Z","tz":1,"tags":{"climbing":"route_bottom","climbing:grade:uiaa":"5","name":"Údolní spára","sport":"climbing","website":"https://www.horosvaz.cz/skaly-cesta-75978/"}},"11968468482":{"lat":49.7397159,"lon":13.655293,"ts":"2024-06-10T08:13:29Z","tz":1,"tags":{"climbing":"route_bottom","climbing:grade:uiaa":"6-","name":"Meší","sport":"climbing","website":"https://www.horosvaz.cz/skaly-cesta-75977/"}},"11968468483":{"lat":49.7397185,"lon":13.6552738,"ts":"2024-06-10T08:13:29Z","tz":1,"tags":{"climbing":"route_bottom","climbing:grade:uiaa":"5+","name":"Cyklistická","sport":"climbing","website":"https://www.horosvaz.cz/skaly-cesta-75976/"}},"11968468484":{"lat":49.7397201,"lon":13.6552616,"ts":"2024-06-10T08:13:29Z","tz":1,"tags":{"climbing":"route_bottom","climbing:grade:uiaa":"7+","name":"Cesta tučného climbera","sport":"climbing","website":"https://www.horosvaz.cz/skaly-cesta-75975/"}},"11968468485":{"lat":49.7397235,"lon":13.6552505,"ts":"2024-06-10T08:13:29Z","tz":1,"tags":{"climbing":"route_bottom","climbing:grade:uiaa":"6+","name":"Plzeňská cesta","sport":"climbing","website":"https://www.horosvaz.cz/skaly-cesta-75974/"}},"11968468486":{"lat":49.7397266,"lon":13.6552454,"ts":"2024-06-10T08:13:29Z","tz":1,"tags":{"climbing":"route_bottom","climbing:grade:uiaa":"5+","name":"Zapomenutá hrana","sport":"climbing","website":"https://www.horosvaz.cz/skaly-cesta-75973/"}},"11968468487":{"lat":49.7397327,"lon":13.6552463,"ts":"2024-06-10T08:13:29Z","tz":1,"tags":{"climbing":"route_bottom","climbing:grade:uiaa":"3","name":"Stará cesta - Nástupová var.","sport":"climbing","website":"https://www.horosvaz.cz/skaly-cesta-114952/"}},"11968468488":{"lat":49.7397467,"lon":13.6552443,"ts":"2024-06-10T08:13:29Z","tz":1,"tags":{"climbing":"route_bottom","climbing:grade:uiaa":"3","name":"Stará cesta","sport":"climbing","website":"https://www.horosvaz.cz/skaly-cesta-114951/"}},"11968468489":{"lat":49.7397598,"lon":13.6552328,"ts":"2024-06-10T08:13:29Z","tz":1,"tags":{"climbing":"route_bottom","climbing:grade:uiaa":"3","name":"Koutek","sport":"climbing","website":"https://www.horosvaz.cz/skaly-cesta-114950/"}},"11968468490":{"lat":49.7397813,"lon":13.655229,"ts":"2024-06-10T08:13:29Z","tz":1,"tags":{"climbing":"route_bottom","climbing:grade:uiaa":"2","name":"Sestupová cesta","sport":"climbing","website":"https://www.horosvaz.cz/skaly-cesta-114949/"}},"11969162397":{"lat":49.6552694,"lon":13.5654723,"ts":"2024-06-10T14:18:54Z","tz":1,"tags":{"climbing":"route_bottom","climbing:grade:uiaa":"3","name":"Hranka","sport":"climbing","website":"https://www.horosvaz.cz/skaly-cesta-13852/"}},"11969162398":{"lat":49.6552596,"lon":13.5654592,"ts":"2024-06-10T14:18:54Z","tz":1,"tags":{"climbing":"route_bottom","climbing:grade:uiaa":"3","name":"Stěnka","sport":"climbing","website":"https://www.horosvaz.cz/skaly-cesta-13853/"}},"11969162399":{"lat":49.6552499,"lon":13.5654461,"ts":"2024-06-10T14:18:54Z","tz":1,"tags":{"climbing":"route_bottom","climbing:grade:uiaa":"3","name":"Sokolík","sport":"climbing","website":"https://www.horosvaz.cz/skaly-cesta-13854/"}},"11969162400":{"lat":49.6552402,"lon":13.565433,"ts":"2024-06-10T14:18:54Z","tz":1,"tags":{"climbing":"route_bottom","climbing:grade:uiaa":"4","name":"Ponurá","sport":"climbing","website":"https://www.horosvaz.cz/skaly-cesta-13855/"}},"11969162401":{"lat":49.6552305,"lon":13.5654199,"ts":"2024-06-10T14:18:54Z","tz":1,"tags":{"climbing":"route_bottom","climbing:grade:uiaa":"6+","name":"Jalovcová","sport":"climbing","website":"https://www.horosvaz.cz/skaly-cesta-13856/"}},"11969162402":{"lat":49.6552207,"lon":13.5654069,"ts":"2024-06-10T14:18:54Z","tz":1,"tags":{"climbing":"route_bottom","climbing:grade:uiaa":"6+","name":"Spárová","sport":"climbing","website":"https://www.horosvaz.cz/skaly-cesta-13857/"}},"11969162403":{"lat":49.655211,"lon":13.5653938,"ts":"2024-06-10T14:18:54Z","tz":1,"tags":{"climbing":"route_bottom","climbing:grade:uiaa":"6-","name":"Rybízová","sport":"climbing","website":"https://www.horosvaz.cz/skaly-cesta-13858/"}},"11969162404":{"lat":49.6552013,"lon":13.5653807,"ts":"2024-06-10T14:18:54Z","tz":1,"tags":{"climbing":"route_bottom","climbing:grade:uiaa":"4+","name":"Průkopnická","sport":"climbing","website":"https://www.horosvaz.cz/skaly-cesta-13859/"}},"11969162405":{"lat":49.6551916,"lon":13.5653676,"ts":"2024-06-10T14:18:54Z","tz":1,"tags":{"climbing":"route_bottom","climbing:grade:uiaa":"3","name":"Sobotní","sport":"climbing","website":"https://www.horosvaz.cz/skaly-cesta-13860/"}},"11969162406":{"lat":49.6551819,"lon":13.5653546,"ts":"2024-06-10T14:18:54Z","tz":1,"tags":{"climbing":"route_bottom","climbing:grade:uiaa":"4","name":"Ošemetná","sport":"climbing","website":"https://www.horosvaz.cz/skaly-cesta-13861/"}},"11969162407":{"lat":49.6551721,"lon":13.5653415,"ts":"2024-06-10T14:18:54Z","tz":1,"tags":{"climbing":"route_bottom","climbing:grade:uiaa":"6","name":"Buližníková","sport":"climbing","website":"https://www.horosvaz.cz/skaly-cesta-13862/"}},"11969162408":{"lat":49.6551624,"lon":13.5653284,"ts":"2024-06-10T14:18:54Z","tz":1,"tags":{"climbing":"route_bottom","climbing:grade:uiaa":"5","name":"Plotna","sport":"climbing","website":"https://www.horosvaz.cz/skaly-cesta-13863/"}},"11969162409":{"lat":49.6551527,"lon":13.5653153,"ts":"2024-06-10T14:18:54Z","tz":1,"tags":{"climbing":"route_bottom","climbing:grade:uiaa":"5","name":"Meruňková","sport":"climbing","website":"https://www.horosvaz.cz/skaly-cesta-13864/"}},"11969162410":{"lat":49.655143,"lon":13.5653023,"ts":"2024-06-10T14:18:54Z","tz":1,"tags":{"climbing":"route_bottom","climbing:grade:uiaa":"2","name":"Hlaďák","sport":"climbing","website":"https://www.horosvaz.cz/skaly-cesta-13865/"}},"11969162411":{"lat":49.6551332,"lon":13.5652892,"ts":"2024-06-10T14:18:54Z","tz":1,"tags":{"climbing":"route_bottom","climbing:grade:uiaa":"4","name":"Do vé","sport":"climbing","website":"https://www.horosvaz.cz/skaly-cesta-13866/"}},"11969162412":{"lat":49.6551235,"lon":13.5652761,"ts":"2024-06-10T14:18:54Z","tz":1,"tags":{"climbing":"route_bottom","climbing:grade:uiaa":"4","name":"Želví","sport":"climbing","website":"https://www.horosvaz.cz/skaly-cesta-13867/"}},"11969162413":{"lat":49.6551138,"lon":13.565263,"ts":"2024-06-10T14:18:54Z","tz":1,"tags":{"climbing":"route_bottom","climbing:grade:uiaa":"4","name":"Lednová","sport":"climbing","website":"https://www.horosvaz.cz/skaly-cesta-13868/"}},"11969162414":{"lat":49.6551041,"lon":13.56525,"ts":"2024-06-10T14:18:54Z","tz":1,"tags":{"climbing":"route_bottom","climbing:grade:uiaa":"4","name":"Svištice","sport":"climbing","website":"https://www.horosvaz.cz/skaly-cesta-13869/"}},"11969162415":{"lat":49.6550943,"lon":13.5652369,"ts":"2024-06-10T14:18:54Z","tz":1,"tags":{"climbing":"route_bottom","climbing:grade:uiaa":"4+","name":"Svišť","sport":"climbing","website":"https://www.horosvaz.cz/skaly-cesta-13870/"}},"11969162416":{"lat":49.6550846,"lon":13.5652238,"ts":"2024-06-10T14:18:54Z","tz":1,"tags":{"climbing":"route_bottom","climbing:grade:uiaa":"2","name":"Somárský koutek","sport":"climbing","website":"https://www.horosvaz.cz/skaly-cesta-13871/"}},"11969170187":{"lat":49.6139926,"lon":13.6624164,"ts":"2024-06-10T14:20:37Z","tz":1,"tags":{"climbing":"route_bottom","climbing:grade:uiaa":"3+","name":"Pazourek","sport":"climbing","website":"https://www.horosvaz.cz/skaly-cesta-61800/"}},"11969170188":{"lat":49.6139687,"lon":13.6623547,"ts":"2024-06-10T14:20:37Z","tz":1,"tags":{"climbing":"route_bottom","climbing:grade:uiaa":"4","name":"Neolitická","sport":"climbing","website":"https://www.horosvaz.cz/skaly-cesta-61801/"}},"11969170189":{"lat":49.6139449,"lon":13.662293,"ts":"2024-06-10T14:20:37Z","tz":1,"tags":{"climbing":"route_bottom","climbing:grade:uiaa":"4+","name":"Palisáda","sport":"climbing","website":"https://www.horosvaz.cz/skaly-cesta-61802/"}},"11969170190":{"lat":49.6139211,"lon":13.6622313,"ts":"2024-06-10T14:20:37Z","tz":1,"tags":{"climbing":"route_bottom","climbing:grade:uiaa":"6","name":"Oppidum","sport":"climbing","website":"https://www.horosvaz.cz/skaly-cesta-61803/"}},"11969170191":{"lat":49.6138972,"lon":13.6621696,"ts":"2024-06-10T14:20:37Z","tz":1,"tags":{"climbing":"route_bottom","climbing:grade:uiaa":"3","name":"Laténská","sport":"climbing","website":"https://www.horosvaz.cz/skaly-cesta-61804/"}},"11969170192":{"lat":49.6138734,"lon":13.6621079,"ts":"2024-06-10T14:20:37Z","tz":1,"tags":{"climbing":"route_bottom","climbing:grade:uiaa":"3-","name":"Halštatská","sport":"climbing","website":"https://www.horosvaz.cz/skaly-cesta-61805/"}},"11969170193":{"lat":49.6138496,"lon":13.6620462,"ts":"2024-06-10T14:20:37Z","tz":1,"tags":{"climbing":"route_bottom","climbing:grade:uiaa":"2","name":"Vypíchaná","sport":"climbing","website":"https://www.horosvaz.cz/skaly-cesta-61806/"}},"11999182198":{"lat":49.7669426,"lon":13.419897,"ts":"2024-06-21T16:06:34Z","tz":1,"tags":{"climbing":"route_bottom","climbing:grade:uiaa":"4","name":"Pravá hrana","sport":"climbing","website":"https://www.horosvaz.cz/skaly-cesta-14473/"}},"11999182199":{"lat":49.7669541,"lon":13.4198883,"ts":"2024-06-21T16:06:34Z","tz":1,"tags":{"climbing":"route_bottom","climbing:grade:uiaa":"5","name":"Střed stěnky","sport":"climbing","website":"https://www.horosvaz.cz/skaly-cesta-14474/"}},"11999182200":{"lat":49.7669656,"lon":13.4198796,"ts":"2024-06-21T16:06:34Z","tz":1,"tags":{"climbing":"route_bottom","climbing:grade:uiaa":"4","name":"Hranka","sport":"climbing","website":"https://www.horosvaz.cz/skaly-cesta-14475/"}},"11999205405":{"lat":49.7670172,"lon":13.4198022,"ts":"2024-06-21T16:05:51Z","tz":1,"tags":{"climbing":"route_bottom","climbing:grade:uiaa":"5+","name":"Převislé mechy","sport":"climbing","website":"https://www.horosvaz.cz/skaly-cesta-14476/"}},"11999205406":{"lat":49.7670278,"lon":13.4197912,"ts":"2024-06-21T16:05:51Z","tz":1,"tags":{"climbing":"route_bottom","climbing:grade:uiaa":"5+","name":"Varianta Převisu","sport":"climbing","website":"https://www.horosvaz.cz/skaly-cesta-14477/"}},"11999205407":{"lat":49.7670385,"lon":13.4197802,"ts":"2024-06-21T16:05:51Z","tz":1,"tags":{"climbing":"route_bottom","climbing:grade:uiaa":"5+","name":"Převis","sport":"climbing","website":"https://www.horosvaz.cz/skaly-cesta-14478/"}},"11999205408":{"lat":49.7670491,"lon":13.4197692,"ts":"2024-06-21T16:05:51Z","tz":1,"tags":{"climbing":"route_bottom","climbing:grade:uiaa":"4","name":"Trojka","sport":"climbing","website":"https://www.horosvaz.cz/skaly-cesta-14479/"}},"11999205409":{"lat":49.7670598,"lon":13.4197582,"ts":"2024-06-21T16:05:51Z","tz":1,"tags":{"climbing":"route_bottom","climbing:grade:uiaa":"3","name":"Barokní opera","sport":"climbing","website":"https://www.horosvaz.cz/skaly-cesta-105651/"}},"11999205410":{"lat":49.7670704,"lon":13.4197472,"ts":"2024-06-21T16:05:51Z","tz":1,"tags":{"climbing":"route_bottom","climbing:grade:uiaa":"3","name":"Oak tree","sport":"climbing","website":"https://www.horosvaz.cz/skaly-cesta-105649/"}},"11999205411":{"lat":49.7670811,"lon":13.4197362,"ts":"2024-06-21T16:05:51Z","tz":1,"tags":{"climbing":"route_bottom","climbing:grade:uiaa":"4-","name":"Růžový sad","sport":"climbing","website":"https://www.horosvaz.cz/skaly-cesta-105646/"}},"11999205412":{"lat":49.7670917,"lon":13.4197252,"ts":"2024-06-21T16:05:51Z","tz":1,"tags":{"climbing":"route_bottom","climbing:grade:uiaa":"7+","name":"Martinova","sport":"climbing","website":"https://www.horosvaz.cz/skaly-cesta-14480/"}},"11999205413":{"lat":49.7671024,"lon":13.4197142,"ts":"2024-06-21T16:05:51Z","tz":1,"tags":{"climbing":"route_bottom","climbing:grade:uiaa":"6+","name":"Pumpa","sport":"climbing","website":"https://www.horosvaz.cz/skaly-cesta-14481/"}},"11999205414":{"lat":49.7671131,"lon":13.4197032,"ts":"2024-06-21T16:05:51Z","tz":1,"tags":{"climbing":"route_bottom","climbing:grade:uiaa":"4","name":"Sestupovka","sport":"climbing","website":"https://www.horosvaz.cz/skaly-cesta-14482/"}},"11999205415":{"lat":49.7671237,"lon":13.4196922,"ts":"2024-06-21T16:05:51Z","tz":1,"tags":{"climbing":"route_bottom","climbing:grade:uiaa":"5+","name":"Boční","sport":"climbing","website":"https://www.horosvaz.cz/skaly-cesta-14483/"}},"11999205416":{"lat":49.7671344,"lon":13.4196812,"ts":"2024-06-21T16:05:51Z","tz":1,"tags":{"climbing":"route_bottom","climbing:grade:uiaa":"6+","name":"Varianta Trojúhelníkové","sport":"climbing","website":"https://www.horosvaz.cz/skaly-cesta-14484/"}},"11999205417":{"lat":49.767145,"lon":13.4196703,"ts":"2024-06-21T16:05:51Z","tz":1,"tags":{"climbing":"route_bottom","climbing:grade:uiaa":"6+","name":"Trojúhelníková","sport":"climbing","website":"https://www.horosvaz.cz/skaly-cesta-14485/"}},"11999205418":{"lat":49.7671557,"lon":13.4196593,"ts":"2024-06-21T16:05:51Z","tz":1,"tags":{"climbing":"route_bottom","climbing:grade:uiaa":"7+","name":"Fík","sport":"climbing","website":"https://www.horosvaz.cz/skaly-cesta-14486/"}},"11999205419":{"lat":49.7671663,"lon":13.4196483,"ts":"2024-06-21T16:05:51Z","tz":1,"tags":{"climbing":"route_bottom","climbing:boulder":"yes","climbing:grade:french":"7","name":"R.A.F. (Rafinovaná)","sport":"climbing","website":"https://www.horosvaz.cz/skaly-cesta-14487/"}},"11999205420":{"lat":49.767177,"lon":13.4196373,"ts":"2024-06-21T16:05:51Z","tz":1,"tags":{"climbing":"route_bottom","climbing:boulder":"yes","climbing:grade:french":"4","name":"Kout","sport":"climbing","website":"https://www.horosvaz.cz/skaly-cesta-14488/"}},"11999205421":{"lat":49.7671876,"lon":13.4196263,"ts":"2024-06-21T16:05:51Z","tz":1,"tags":{"climbing":"route_bottom","climbing:boulder":"yes","climbing:grade:french":"7+","name":"Tlučhuba","sport":"climbing","website":"https://www.horosvaz.cz/skaly-cesta-14472/"}},"11999205422":{"lat":49.7671983,"lon":13.4196153,"ts":"2024-06-21T16:05:51Z","tz":1,"tags":{"climbing":"route_bottom","climbing:boulder":"yes","climbing:grade:french":"7-","name":"Hladká","sport":"climbing","website":"https://www.horosvaz.cz/skaly-cesta-14489/"}},"11999205423":{"lat":49.7672089,"lon":13.4196043,"ts":"2024-06-21T16:05:51Z","tz":1,"tags":{"climbing":"route_bottom","climbing:boulder":"yes","climbing:grade:french":"4","name":"Přes skobu","sport":"climbing","website":"https://www.horosvaz.cz/skaly-cesta-14490/"}},"11999226853":{"lat":49.7372619,"lon":13.4794519,"ts":"2024-06-21T16:07:45Z","tz":1,"tags":{"climbing":"route_bottom","climbing:grade:uiaa":"4+","name":"Přerušovaná","sport":"climbing","website":"https://www.horosvaz.cz/skaly-cesta-107273/"}},"11999226854":{"lat":49.737266,"lon":13.4794317,"ts":"2024-06-21T16:07:45Z","tz":1,"tags":{"climbing":"route_bottom","climbing:grade:uiaa":"6-","name":"Hladká plotna","sport":"climbing","website":"https://www.horosvaz.cz/skaly-cesta-107272/"}},"11999226855":{"lat":49.7372702,"lon":13.4794009,"ts":"2024-06-21T16:07:45Z","tz":1,"tags":{"climbing":"route_bottom","climbing:grade:uiaa":"7","name":"Nechytatá","sport":"climbing","website":"https://www.horosvaz.cz/skaly-cesta-107271/"}},"11999226856":{"lat":49.7372758,"lon":13.4793816,"ts":"2024-06-21T16:07:45Z","tz":1,"tags":{"climbing":"route_bottom","climbing:grade:uiaa":"6+","name":"Pod převisem","sport":"climbing","website":"https://www.horosvaz.cz/skaly-cesta-107270/"}},"11999226857":{"lat":49.7372814,"lon":13.4793623,"ts":"2024-06-21T16:07:45Z","tz":1,"tags":{"climbing":"route_bottom","climbing:grade:uiaa":"4+","name":"Komín","sport":"climbing","website":"https://www.horosvaz.cz/skaly-cesta-107269/"}},"11999226858":{"lat":49.7372871,"lon":13.479343,"ts":"2024-06-21T16:07:45Z","tz":1,"tags":{"climbing":"route_bottom","climbing:grade:uiaa":"5+","name":"Trhlina","sport":"climbing","website":"https://www.horosvaz.cz/skaly-cesta-107268/"}},"11999226859":{"lat":49.7372927,"lon":13.4793237,"ts":"2024-06-21T16:07:45Z","tz":1,"tags":{"climbing":"route_bottom","climbing:grade:uiaa":"4+","name":"Kout","sport":"climbing","website":"https://www.horosvaz.cz/skaly-cesta-107267/"}},"11999226860":{"lat":49.7372983,"lon":13.4793044,"ts":"2024-06-21T16:07:45Z","tz":1,"tags":{"climbing":"route_bottom","climbing:grade:uiaa":"3","name":"Hrana","sport":"climbing","website":"https://www.horosvaz.cz/skaly-cesta-107266/"}},"11999226861":{"lat":49.7373084,"lon":13.4793067,"ts":"2024-06-21T16:07:45Z","tz":1,"tags":{"climbing":"route_bottom","climbing:grade:uiaa":"5-","name":"Balvan","sport":"climbing","website":"https://www.horosvaz.cz/skaly-cesta-107265/"}},"12565349265":{"lat":49.8335015,"lon":13.5907292,"ts":"2025-02-07T11:14:24Z","tz":1,"tags":{"access":"no","bicycle":"no","climbing":"no","hiking":"no","lifeguard":"no","name":"Pláž lom Břasy","natural":"beach","note":"K LOMU SE JIŽ NESMÍ!","supervised":"no","surface":"clay","swimming":"no","wheelchair":"no"}},"12691509701":{"lat":49.6826,"lon":13.458422,"ts":"2025-03-22T18:45:04Z","tz":1,"tags":{"climbing":"crag","name":"Svatební blok","sport":"climbing"}},"12691511401":{"lat":49.6826,"lon":13.458422,"ts":"2025-03-22T18:47:07Z","tz":1,"tags":{"climbing":"route_bottom","climbing:boulder":"5A (SD)","description":"nástup z mírně poklopeného madla (na kameni zcela vlevo) a přímo nahoru","name":"Petrův boulder","sport":"climbing"}}}