{"17611898":{"lat":49.5003433,"lon":13.548785,"ts":"2024-05-19T20:26:36Z","tz":1,"tags":{"climbing":"crag","name":"Skalice","site":"climbing","sport":"climbing","type":"site","website":"https://www.horosvaz.cz/skaly-skala-4243/"}},"17611900":{"lat":49.5668498,"lon":13.559494,"ts":"2024-05-19T20:27:23Z","tz":1,"tags":{"climbing":"crag","name":"Horní masiv","site":"climbing","sport":"climbing","type":"site","website":"https://www.horosvaz.cz/skaly-skala-16912/"}},"17611902":{"lat":49.5666649,"lon":13.5596167,"ts":"2024-05-19T20:28:10Z","tz":1,"tags":{"climbing":"crag","name":"Střední masiv","site":"climbing","sport":"climbing","type":"site","website":"https://www.horosvaz.cz/skaly-skala-16913/"}},"17611903":{"lat":49.5664271,"lon":13.5597166,"ts":"2024-05-19T20:28:28Z","tz":1,"tags":{"climbing":"crag","name":"Dolní masiv","site":"climbing","sport":"climbing","type":"site","website":"https://www.horosvaz.cz/skaly-skala-16914/"}},"17611908":{"lat":49.5989747,"lon":13.5331444,"ts":"2024-05-19T20:30:19Z","tz":1,"tags":{"climbing":"crag","name":"Plotýnka","site":"climbing","sport":"climbing","type":"site","website":"https://www.horosvaz.cz/skaly-skala-16891/"}},"17611913":{"lat":49.5989667,"lon":13.5332274,"ts":"2024-05-19T20:31:00Z","tz":1,"tags":{"climbing":"crag","name":"Zoban","site":"climbing","sport":"climbing","type":"site","website":"https://www.horosvaz.cz/skaly-skala-16892/"}},"17611914":{"lat":49.5989372,"lon":13.5333492,"ts":"2024-05-19T20:31:37Z","tz":1,"tags":{"climbing":"crag","name":"Polánka","site":"climbing","sport":"climbing","type":"site","website":"https://www.horosvaz.cz/skaly-skala-16893/"}},"17699471":{"lat":49.5932965,"lon":13.5198323,"ts":"2024-06-10T14:21:51Z","tz":1,"tags":{"climbing":"crag","name":"Rohatá","site":"climbing","sport":"climbing","type":"site","website":"https://www.horosvaz.cz/skaly-skala-7709/"}},"17699472":{"lat":49.5932995,"lon":13.5197126,"ts":"2025-03-23T19:45:57Z","tz":1,"tags":{"climbing":"area","name":"Rohatá","site":"climbing","sport":"climbing","type":"site","website":"https://www.horosvaz.cz/skaly-sektor-591/"}},"692949275":{"lat":49.5729072,"lon":13.5273753,"ts":"2025-01-30T14:14:51Z","tz":1,"tags":{"access":"yes","alt_name":"Nová cyklostezka Komorno - Blovice","bicycle":"designated","climbing":"no","foot":"yes","highway":"track","hiking":"yes","name":"Komorno - Blovice","note":"Na místě staré cesty je nyní nová cyklostezka.","opening_hours":"24/7","smoothness":"excellent","surface":"asphalt","tracktype":"grade1","trail_visibility":"excellent","wheelchair":"yes","width":"1"}},"1847209923":{"lat":49.4241397,"lon":13.5175823,"ts":"2012-08-01T18:17:38Z","tz":1,"tags":{"name":"Velký Kámen","natural":"stone","source":"GPS","sport":"climbing"}},"11918394490":{"lat":49.5989642,"lon":13.5332586,"ts":"2024-05-19T20:31:00Z","tz":1,"tags":{"climbing":"route_bottom","climbing:grade:uiaa":"3+","name":"Klůcek","sport":"climbing","website":"https://www.horosvaz.cz/skaly-cesta-96454/"}},"11918394491":{"lat":49.5989659,"lon":13.5332378,"ts":"2024-05-19T20:31:00Z","tz":1,"tags":{"climbing":"route_bottom","climbing:grade:uiaa":"4+","name":"Zodiakální","sport":"climbing","website":"https://www.horosvaz.cz/skaly-cesta-96453/"}},"11918394492":{"lat":49.5989675,"lon":13.533217,"ts":"2024-05-19T20:31:00Z","tz":1,"tags":{"climbing":"route_bottom","climbing:grade:uiaa":"6","name":"Šem ha-mforaš","sport":"climbing","website":"https://www.horosvaz.cz/skaly-cesta-96452/"}},"11918394493":{"lat":49.5989691,"lon":13.5331962,"ts":"2024-05-19T20:31:00Z","tz":1,"tags":{"climbing":"route_bottom","climbing:grade:uiaa":"4+","name":"Filištínská","sport":"climbing","website":"https://www.horosvaz.cz/skaly-cesta-96451/"}},"11918425926":{"lat":49.5668063,"lon":13.5595842,"ts":"2024-05-19T20:27:23Z","tz":1,"tags":{"climbing":"route_bottom","climbing:grade:uiaa":"3+","name":"Hraněná","sport":"climbing","website":"https://www.horosvaz.cz/skaly-cesta-96674/"}},"11918425927":{"lat":49.566815,"lon":13.5595662,"ts":"2024-05-19T20:27:23Z","tz":1,"tags":{"climbing":"route_bottom","climbing:grade:uiaa":"4+","name":"Břit","sport":"climbing","website":"https://www.horosvaz.cz/skaly-cesta-96673/"}},"11918425928":{"lat":49.5668237,"lon":13.5595481,"ts":"2024-05-19T20:27:23Z","tz":1,"tags":{"climbing":"route_bottom","climbing:grade:uiaa":"6","name":"Skuhravá","sport":"climbing","website":"https://www.horosvaz.cz/skaly-cesta-96672/"}},"11918425929":{"lat":49.5668324,"lon":13.5595301,"ts":"2024-05-19T20:27:23Z","tz":1,"tags":{"climbing":"route_bottom","climbing:grade:uiaa":"5","name":"Kuní pomsta","sport":"climbing","website":"https://www.horosvaz.cz/skaly-cesta-96671/"}},"11918425930":{"lat":49.5668411,"lon":13.559512,"ts":"2024-05-19T20:27:23Z","tz":1,"tags":{"climbing":"route_bottom","climbing:grade:uiaa":"3+","name":"Huťský kout","sport":"climbing","website":"https://www.horosvaz.cz/skaly-cesta-96670/"}},"11918425931":{"lat":49.5668498,"lon":13.559494,"ts":"2024-05-19T20:27:23Z","tz":1,"tags":{"climbing":"route_bottom","climbing:grade:uiaa":"3+","name":"Koutná","sport":"climbing","website":"https://www.horosvaz.cz/skaly-cesta-96669/"}},"11918425932":{"lat":49.5668585,"lon":13.5594759,"ts":"2024-05-19T20:27:23Z","tz":1,"tags":{"climbing":"route_bottom","climbing:grade:uiaa":"4+","name":"Ve stráni","sport":"climbing","website":"https://www.horosvaz.cz/skaly-cesta-96668/"}},"11918425933":{"lat":49.5668672,"lon":13.5594579,"ts":"2024-05-19T20:27:23Z","tz":1,"tags":{"climbing":"route_bottom","climbing:grade:uiaa":"5+","name":"Cesta oběšenců","sport":"climbing","website":"https://www.horosvaz.cz/skaly-cesta-96667/"}},"11918425934":{"lat":49.5668759,"lon":13.5594398,"ts":"2024-05-19T20:27:23Z","tz":1,"tags":{"climbing":"route_bottom","climbing:grade:uiaa":"4+","name":"Dubová spára","sport":"climbing","website":"https://www.horosvaz.cz/skaly-cesta-96666/"}},"11918425935":{"lat":49.5668845,"lon":13.5594217,"ts":"2024-05-19T20:27:23Z","tz":1,"tags":{"climbing":"route_bottom","climbing:grade:uiaa":"3","name":"Vlčická stěnka","sport":"climbing","website":"https://www.horosvaz.cz/skaly-cesta-96665/"}},"11918425936":{"lat":49.5668932,"lon":13.5594037,"ts":"2024-05-19T20:27:23Z","tz":1,"tags":{"climbing":"route_bottom","climbing:grade:uiaa":"3","name":"Plotýnkou","sport":"climbing","website":"https://www.horosvaz.cz/skaly-cesta-96664/"}},"11918426029":{"lat":49.5666601,"lon":13.5596267,"ts":"2024-05-19T20:28:10Z","tz":1,"tags":{"climbing":"route_bottom","climbing:grade:uiaa":"4","name":"Tatranská","sport":"climbing","website":"https://www.horosvaz.cz/skaly-cesta-96676/"}},"11918426030":{"lat":49.5666697,"lon":13.5596066,"ts":"2024-05-19T20:28:10Z","tz":1,"tags":{"climbing":"route_bottom","climbing:grade:uiaa":"3","name":"Lámavka","sport":"climbing","website":"https://www.horosvaz.cz/skaly-cesta-96675/"}},"11918457545":{"lat":49.5004064,"lon":13.5488421,"ts":"2024-05-19T20:26:36Z","tz":1,"tags":{"climbing":"route_bottom","climbing:grade:uiaa":"2","name":"Pr(á)delní","sport":"climbing","website":"https://www.horosvaz.cz/skaly-cesta-13874/"}},"11918457546":{"lat":49.5003937,"lon":13.5488307,"ts":"2024-05-19T20:26:36Z","tz":1,"tags":{"climbing":"route_bottom","climbing:grade:uiaa":"2","name":"Zelenohorská","sport":"climbing","website":"https://www.horosvaz.cz/skaly-cesta-13875/"}},"11918457547":{"lat":49.5003811,"lon":13.5488193,"ts":"2024-05-19T20:26:36Z","tz":1,"tags":{"climbing":"route_bottom","climbing:grade:uiaa":"3+","name":"Rozpravy","sport":"climbing","website":"https://www.horosvaz.cz/skaly-cesta-13872/"}},"11918457548":{"lat":49.5003685,"lon":13.5488079,"ts":"2024-05-19T20:26:36Z","tz":1,"tags":{"climbing":"route_bottom","climbing:grade:uiaa":"5-","name":"Ztracená iluze","sport":"climbing","website":"https://www.horosvaz.cz/skaly-cesta-13876/"}},"11918457549":{"lat":49.5003559,"lon":13.5487965,"ts":"2024-05-19T20:26:36Z","tz":1,"tags":{"climbing":"route_bottom","climbing:grade:uiaa":"6","name":"Iluminata","sport":"climbing","website":"https://www.horosvaz.cz/skaly-cesta-13877/"}},"11918457550":{"lat":49.5003432,"lon":13.5487851,"ts":"2024-05-19T20:26:36Z","tz":1,"tags":{"climbing":"route_bottom","climbing:grade:uiaa":"8-","name":"Eutanazie","sport":"climbing","website":"https://www.horosvaz.cz/skaly-cesta-13882/"}},"11918457551":{"lat":49.5003306,"lon":13.5487737,"ts":"2024-05-19T20:26:36Z","tz":1,"tags":{"climbing":"route_bottom","climbing:grade:uiaa":"7+","name":"Inferno","sport":"climbing","website":"https://www.horosvaz.cz/skaly-cesta-13878/"}},"11918457552":{"lat":49.500318,"lon":13.5487623,"ts":"2024-05-19T20:26:36Z","tz":1,"tags":{"climbing":"route_bottom","climbing:grade:uiaa":"7","name":"Stroj času","sport":"climbing","website":"https://www.horosvaz.cz/skaly-cesta-13879/"}},"11918457553":{"lat":49.5003053,"lon":13.5487509,"ts":"2024-05-19T20:26:36Z","tz":1,"tags":{"climbing":"route_bottom","climbing:grade:uiaa":"5","name":"Tichnoucí kroky","sport":"climbing","website":"https://www.horosvaz.cz/skaly-cesta-13880/"}},"11918457554":{"lat":49.5002927,"lon":13.5487395,"ts":"2024-05-19T20:26:36Z","tz":1,"tags":{"climbing":"route_bottom","climbing:grade:uiaa":"4+","name":"Vzpomínka na Zuzanu","sport":"climbing","website":"https://www.horosvaz.cz/skaly-cesta-13881/"}},"11918457555":{"lat":49.5002801,"lon":13.548728,"ts":"2024-05-19T20:26:36Z","tz":1,"tags":{"climbing":"route_bottom","climbing:grade:uiaa":"1","name":"Sestupovka","sport":"climbing","website":"https://www.horosvaz.cz/skaly-cesta-13873/"}},"11918461548":{"lat":49.566414,"lon":13.5597437,"ts":"2024-05-19T20:28:28Z","tz":1,"tags":{"climbing":"route_bottom","climbing:grade:uiaa":"3+","name":"Údolní marš","sport":"climbing","website":"https://www.horosvaz.cz/skaly-cesta-96680/"}},"11918461549":{"lat":49.5664227,"lon":13.5597256,"ts":"2024-05-19T20:28:28Z","tz":1,"tags":{"climbing":"route_bottom","climbing:grade:uiaa":"4+","name":"Nenaolejujelijůlije","sport":"climbing","website":"https://www.horosvaz.cz/skaly-cesta-96679/"}},"11918461550":{"lat":49.5664314,"lon":13.5597075,"ts":"2024-05-19T20:28:28Z","tz":1,"tags":{"climbing":"route_bottom","climbing:grade:uiaa":"4","name":"Po másle","sport":"climbing","website":"https://www.horosvaz.cz/skaly-cesta-96678/"}},"11918461551":{"lat":49.5664401,"lon":13.5596894,"ts":"2024-05-19T20:28:28Z","tz":1,"tags":{"climbing":"route_bottom","climbing:grade:uiaa":"4","name":"Klouzačka","sport":"climbing","website":"https://www.horosvaz.cz/skaly-cesta-96677/"}},"11918480770":{"lat":49.5989305,"lon":13.5334061,"ts":"2024-05-19T20:31:37Z","tz":1,"tags":{"climbing":"route_bottom","climbing:grade:uiaa":"5","name":"Výšinná","sport":"climbing","website":"https://www.horosvaz.cz/skaly-cesta-96461/"}},"11918480771":{"lat":49.5989328,"lon":13.5333872,"ts":"2024-05-19T20:31:37Z","tz":1,"tags":{"climbing":"route_bottom","climbing:grade:uiaa":"5+","name":"Hovadní skutkové","sport":"climbing","website":"https://www.horosvaz.cz/skaly-cesta-96460/"}},"11918480772":{"lat":49.598935,"lon":13.5333682,"ts":"2024-05-19T20:31:37Z","tz":1,"tags":{"climbing":"route_bottom","climbing:grade:uiaa":"4+","name":"Břečťanový dýchánek","sport":"climbing","website":"https://www.horosvaz.cz/skaly-cesta-96459/"}},"11918480773":{"lat":49.5989372,"lon":13.5333492,"ts":"2024-05-19T20:31:37Z","tz":1,"tags":{"climbing":"route_bottom","climbing:grade:uiaa":"5-","name":"Čortův hrád","sport":"climbing","website":"https://www.horosvaz.cz/skaly-cesta-96458/"}},"11918480774":{"lat":49.5989395,"lon":13.5333303,"ts":"2024-05-19T20:31:37Z","tz":1,"tags":{"climbing":"route_bottom","climbing:grade:uiaa":"4+","name":"Mlýnská diversiála","sport":"climbing","website":"https://www.horosvaz.cz/skaly-cesta-96457/"}},"11918480775":{"lat":49.5989417,"lon":13.5333113,"ts":"2024-05-19T20:31:37Z","tz":1,"tags":{"climbing":"route_bottom","climbing:grade:uiaa":"4+","name":"S řekou v zádech","sport":"climbing","website":"https://www.horosvaz.cz/skaly-cesta-96456/"}},"11918480776":{"lat":49.5989439,"lon":13.5332923,"ts":"2024-05-19T20:31:37Z","tz":1,"tags":{"climbing":"route_bottom","climbing:grade:uiaa":"4+","name":"Užovčina","sport":"climbing","website":"https://www.horosvaz.cz/skaly-cesta-96455/"}},"11918482750":{"lat":49.5989747,"lon":13.5331444,"ts":"2024-05-19T20:30:19Z","tz":1,"tags":{"climbing":"route_bottom","climbing:grade:uiaa":"3","name":"Kamenská","sport":"climbing","website":"https://www.horosvaz.cz/skaly-cesta-96450/"}},"11969157755":{"lat":49.5933749,"lon":13.5199121,"ts":"2024-06-10T14:21:51Z","tz":1,"tags":{"climbing":"route_bottom","climbing:grade:uiaa":"4+","name":"Zapadlá cesta","sport":"climbing","website":"https://www.horosvaz.cz/skaly-cesta-104398/"}},"11969157756":{"lat":49.5933553,"lon":13.5198921,"ts":"2024-06-10T14:21:51Z","tz":1,"tags":{"climbing":"route_bottom","climbing:grade:uiaa":"5","name":"Pepův kout","sport":"climbing","website":"https://www.horosvaz.cz/skaly-cesta-104397/"}},"11969157757":{"lat":49.5933357,"lon":13.5198722,"ts":"2024-06-10T14:21:51Z","tz":1,"tags":{"climbing":"route_bottom","climbing:grade:uiaa":"7-","name":"Převislý sokolík","sport":"climbing","website":"https://www.horosvaz.cz/skaly-cesta-104396/"}},"11969157758":{"lat":49.5933161,"lon":13.5198522,"ts":"2024-06-10T14:21:51Z","tz":1,"tags":{"climbing":"route_bottom","climbing:grade:uiaa":"8+","name":"Ke všem čertům","sport":"climbing","website":"https://www.horosvaz.cz/skaly-cesta-104388/"}},"11969157759":{"lat":49.5932965,"lon":13.5198322,"ts":"2024-06-10T14:21:51Z","tz":1,"tags":{"climbing":"route_bottom","climbing:grade:uiaa":"5-","name":"Jarní varianta","sport":"climbing","website":"https://www.horosvaz.cz/skaly-cesta-54481/"}},"11969157760":{"lat":49.5932769,"lon":13.5198123,"ts":"2024-06-10T14:21:51Z","tz":1,"tags":{"climbing":"route_bottom","climbing:grade:uiaa":"6","name":"Jarní","sport":"climbing","website":"https://www.horosvaz.cz/skaly-cesta-104395/"}},"11969157761":{"lat":49.5932573,"lon":13.5197923,"ts":"2024-06-10T14:21:51Z","tz":1,"tags":{"climbing":"route_bottom","climbing:grade:uiaa":"5","name":"Jižní cesta","sport":"climbing","website":"https://www.horosvaz.cz/skaly-cesta-54482/"}},"11969157762":{"lat":49.5932377,"lon":13.5197723,"ts":"2024-06-10T14:21:51Z","tz":1,"tags":{"climbing":"route_bottom","climbing:grade:uiaa":"5-","name":"Znovuzrození","sport":"climbing","website":"https://www.horosvaz.cz/skaly-cesta-104387/"}},"11969157763":{"lat":49.5932181,"lon":13.5197524,"ts":"2024-06-10T14:21:51Z","tz":1,"tags":{"climbing":"route_bottom","climbing:grade:uiaa":"1","name":"Sestupovka","sport":"climbing","website":"https://www.horosvaz.cz/skaly-cesta-104394/"}}}