{"18915593":{"lat":49.1480777,"lon":13.5102088,"ts":"2025-03-30T15:58:07Z","tz":1,"tags":{"climbing":"crag","name":"Skála u Radešova","site":"climbing","sport":"climbing","type":"site","website":"https://www.horosvaz.cz/skaly-skala-19182/"}},"12713995098":{"lat":49.1482524,"lon":13.5103184,"ts":"2025-03-30T15:58:07Z","tz":1,"tags":{"author":"Autoři neznámí","climbing":"route_bottom","climbing:grade:uiaa":"4","name":"Dlouhá ruka","sport":"climbing","website":"https://www.horosvaz.cz/skaly-cesta-113782/"}},"12713995099":{"lat":49.1482087,"lon":13.510291,"ts":"2025-03-30T15:58:07Z","tz":1,"tags":{"author":"1. RP Jan Švíka","climbing":"route_bottom","climbing:grade:uiaa":"8","name":"Žolík","sport":"climbing","website":"https://www.horosvaz.cz/skaly-cesta-113778/"}},"12713995100":{"lat":49.148165,"lon":13.5102636,"ts":"2025-03-30T15:58:07Z","tz":1,"tags":{"author":"Autoři neznámí","climbing":"route_bottom","climbing:grade:uiaa":"7-","name":"Eso - Peso","sport":"climbing","website":"https://www.horosvaz.cz/skaly-cesta-113774/"}},"12714014901":{"lat":49.1481214,"lon":13.5102362,"ts":"2025-03-30T15:58:07Z","tz":1,"tags":{"author":"1. RP Jan Švíka","climbing":"route_bottom","climbing:grade:uiaa":"7","name":"Gravidita","sport":"climbing","website":"https://www.horosvaz.cz/skaly-cesta-113779/"}},"12714014902":{"lat":49.1480777,"lon":13.5102087,"ts":"2025-03-30T15:58:07Z","tz":1,"tags":{"author":"Autoři neznámí","climbing":"route_bottom","climbing:grade:uiaa":"5+","name":"Šafi (Pětka)","sport":"climbing","website":"https://www.horosvaz.cz/skaly-cesta-113775/"}},"12714014903":{"lat":49.148034,"lon":13.5101813,"ts":"2025-03-30T15:58:07Z","tz":1,"tags":{"author":"Autoři neznámí","climbing":"route_bottom","climbing:grade:uiaa":"6","name":"Tleskač","sport":"climbing","website":"https://www.horosvaz.cz/skaly-cesta-113781/"}},"12714014904":{"lat":49.1479904,"lon":13.5101539,"ts":"2025-03-30T15:58:07Z","tz":1,"tags":{"author":"Autoři neznámí","climbing":"route_bottom","climbing:grade:uiaa":"7","name":"Albatros","sport":"climbing","website":"https://www.horosvaz.cz/skaly-cesta-113776/"}},"12714014905":{"lat":49.1479467,"lon":13.5101265,"ts":"2025-03-30T15:58:07Z","tz":1,"tags":{"author":"Autoři neznámí","climbing":"route_bottom","climbing:grade:uiaa":"7","name":"Dárek rekreantům","sport":"climbing","website":"https://www.horosvaz.cz/skaly-cesta-113780/"}},"12714014906":{"lat":49.147903,"lon":13.5100991,"ts":"2025-03-30T15:58:07Z","tz":1,"tags":{"author":"Autoři neznámí, duben 2004","climbing":"route_bottom","climbing:grade:uiaa":"9","name":"Liga výjimečných","sport":"climbing","website":"https://www.horosvaz.cz/skaly-cesta-113777/"}}}