{"120419267":{"lat":42.4784675,"lon":13.5385219,"ts":"2022-07-25T08:49:54Z","tz":1,"tags":{"name":"Le Strutture","natural":"cliff","source":"Bing!","sport":"climbing"}},"212330370":{"lat":42.3126791,"lon":13.4680121,"ts":"2019-01-17T22:17:10Z","tz":1,"tags":{"name":"Palestra di roccia Andrea Bafile M.O.V.M.","natural":"cliff","sport":"climbing"}},"1186801508":{"lat":42.4930608,"lon":13.573424,"ts":"2024-11-09T06:55:37Z","tz":1,"tags":{"name":"Arapietra","natural":"cliff","sport":"climbing"}},"1289065998":{"lat":42.5003742,"lon":13.5754155,"ts":"2024-06-03T08:13:06Z","tz":1,"tags":{"area":"yes","name":"Città di Pietra","natural":"rock","sport":"climbing"}},"1289065999":{"lat":42.5002753,"lon":13.5761008,"ts":"2024-06-03T08:13:06Z","tz":1,"tags":{"area":"yes","natural":"rock","sport":"climbing"}},"2221969688":{"lat":42.3676533,"lon":13.480312,"ts":"2019-07-03T22:05:15Z","tz":1,"tags":{"name":"Madonna d'Appari","sport":"climbing"}},"8780853339":{"lat":42.3127445,"lon":13.4679771,"ts":"2023-08-30T09:28:11Z","tz":1,"tags":{"leisure":"sports_centre","name":"Falesia di Andrea Bafile M.O.V,M.","sport":"climbing"}},"10272118620":{"lat":42.2973933,"lon":13.4671901,"ts":"2022-12-18T23:10:55Z","tz":1,"tags":{"leisure":"sports_centre","name":"Falesia di San Felice d'Ocre","sport":"climbing"}},"10757106599":{"lat":42.4830447,"lon":13.6688937,"ts":"2023-03-30T16:22:32Z","tz":1,"tags":{"climbing":"crag","description":"Si tratta di un unico masso arrampicabile a tutto tondo e che cambia stile d’arrampicata a seconda del lato in cui si stà. Sinistro e centrale prevalentemente a buconi strapiombante. Destra e retro placca piuttosto liscia.","name":"Falesia - Sasso del Ghiro","natural":"rock","sport":"climbing"}},"11953382035":{"lat":42.5001487,"lon":13.5755336,"ts":"2024-11-08T15:23:21Z","tz":1,"tags":{"name":"Città di Pietra","natural":"cliff","sport":"climbing"}},"12323858491":{"lat":42.5026788,"lon":13.5687107,"ts":"2024-11-08T15:23:21Z","tz":1,"tags":{"name":"Vena dell'Aschiero","natural":"cliff","sport":"climbing"}},"12323858492":{"lat":42.4931784,"lon":13.5735965,"ts":"2024-11-08T15:23:21Z","tz":1,"tags":{"name":"Arapietra","natural":"cliff","sport":"climbing"}},"12323880202":{"lat":42.477566,"lon":13.5656653,"ts":"2024-11-08T15:23:21Z","tz":1,"tags":{"name":"Sperone Franchetti","natural":"cliff","sport":"climbing"}},"12412882229":{"lat":42.5148809,"lon":13.5696831,"ts":"2024-12-11T16:24:53Z","tz":1,"tags":{"name":"Palestra delle Aquile","natural":"cliff","sport":"climbing"}}}