{"6527769534":{"lat":32.8269361,"lon":-117.050406,"ts":"2023-11-26T15:53:29Z","tz":-8,"tags":{"climbing":"route","climbing:grade:yds_class":"5.9","name":"Suzie's Wild Ride","sport":"climbing"}},"11376282285":{"lat":32.8252547,"lon":-117.0508497,"ts":"2023-11-26T00:56:29Z","tz":-8,"tags":{"climbing":"route","climbing:grade:yds_class":"5.10c","name":"Standard Deviation","sport":"climbing"}},"11376333225":{"lat":32.8254892,"lon":-117.0508657,"ts":"2023-11-26T01:00:30Z","tz":-8,"tags":{"climbing":"route","climbing:grade:yds_class":"5.7","name":"The Tower","sport":"climbing"}},"11376359025":{"lat":32.825455,"lon":-117.0508564,"ts":"2023-11-26T01:03:22Z","tz":-8,"tags":{"climbing":"route","climbing:grade:yds_class":"5.7","name":"As the Crow Flies","sport":"climbing"}},"11376422004":{"lat":32.8242263,"lon":-117.0506785,"ts":"2023-11-26T01:07:37Z","tz":-8,"tags":{"climbing":"route","climbing:grade:yds_class":"5.10d","name":"Orange Sunshine","sport":"climbing"}},"11376422005":{"lat":32.824149,"lon":-117.0509436,"ts":"2023-11-26T01:07:37Z","tz":-8,"tags":{"climbing":"route","climbing:grade:yds_class":"5.7","name":"Easy Rider","sport":"climbing"}},"11376458469":{"lat":32.824141,"lon":-117.0507626,"ts":"2023-11-26T01:10:10Z","tz":-8,"tags":{"climbing":"route","climbing:grade:yds_class":"5.9","name":"ME Overhang","sport":"climbing"}},"11376530570":{"lat":32.8247666,"lon":-117.0505774,"ts":"2023-11-26T01:23:47Z","tz":-8,"tags":{"climbing":"route","climbing:grade:yds_class":"5.10a","name":"Art of the Pissant","sport":"climbing"}},"11376607833":{"lat":32.826126,"lon":-117.0507991,"ts":"2023-11-26T16:07:55Z","tz":-8,"tags":{"climbing":"route","climbing:grade:yds_class":"5.7+","name":"Skyline Arete","sport":"climbing"}},"11376667775":{"lat":32.8239975,"lon":-117.0507868,"ts":"2023-11-26T01:27:36Z","tz":-8,"tags":{"climbing":"route","climbing:grade:yds_class":"5.7","name":"Gandalf","sport":"climbing"}},"11376721834":{"lat":32.8242827,"lon":-117.0505075,"ts":"2023-11-26T01:33:14Z","tz":-8,"tags":{"climbing":"route","climbing:grade:yds_class":"5.8","name":"Sam I Am","sport":"climbing"}},"11377844648":{"lat":32.8255343,"lon":-117.0500935,"ts":"2023-11-26T15:46:03Z","tz":-8,"tags":{"climbing":"route","climbing:grade:yds_class":"5.8","name":"Craig's Crack","sport":"climbing"}},"11377862947":{"lat":32.8238502,"lon":-117.0524018,"ts":"2023-11-26T15:30:17Z","tz":-8,"tags":{"climbing":"route","climbing:grade:yds_class":"V1","name":"Les Girl Rock","sport":"climbing"}},"11377870828":{"lat":32.8240159,"lon":-117.0528974,"ts":"2023-11-26T15:34:34Z","tz":-8,"tags":{"climbing":"route","climbing:grade:yds_class":"V0-V6","name":"Big Orange Block","sport":"climbing"}},"11377870829":{"lat":32.8242375,"lon":-117.0536047,"ts":"2023-11-26T15:34:34Z","tz":-8,"tags":{"climbing":"route","climbing:grade:yds_class":"V1-V8","name":"Indian Village Boulder","sport":"climbing"}},"11377878045":{"lat":32.8266077,"lon":-117.0504335,"ts":"2023-11-26T15:27:24Z","tz":-8,"tags":{"climbing":"route","climbing:grade:yds_class":"5.9","name":"Alley Oop Boulder","sport":"climbing"}},"11377898769":{"lat":32.8241633,"lon":-117.0528859,"ts":"2023-11-26T15:31:50Z","tz":-8,"tags":{"climbing":"route","climbing:grade:yds_class":"V0-V3","name":"Tomahawk","sport":"climbing"}},"11377899344":{"lat":32.8289312,"lon":-117.0574105,"ts":"2023-11-26T15:37:37Z","tz":-8,"tags":{"climbing":"route","climbing:grade:yds_class":"V3","name":"Split Pea Boulders","sport":"climbing"}},"11377916409":{"lat":32.8269932,"lon":-117.050778,"ts":"2023-11-26T15:50:48Z","tz":-8,"tags":{"climbing":"route","climbing:grade:yds_class":"5.12c","name":"Thumb","sport":"climbing"}},"11377930783":{"lat":32.8269586,"lon":-117.0502874,"ts":"2023-11-26T15:53:29Z","tz":-8,"tags":{"climbing":"route","climbing:grade:yds_class":"5.4","name":"Sierra Club Chimney","sport":"climbing"}},"11377948399":{"lat":32.8262097,"lon":-117.0507714,"ts":"2023-11-26T16:07:55Z","tz":-8,"tags":{"climbing":"route","name":"Lunch Rock","sport":"climbing"}},"11377963484":{"lat":32.8262912,"lon":-117.0507672,"ts":"2023-11-26T16:07:55Z","tz":-8,"tags":{"climbing":"route","climbing:grade:yds_class":"5.7","name":"The Ramp","sport":"climbing"}}}