{"16021849":{"lat":43.6419242,"lon":3.1778506,"ts":"2023-10-01T15:44:09Z","tz":1,"tags":{"climbing":"route","name":"Via Ferrata les Balcons de l'Orb","route":"via_ferrata","type":"route","via_ferrata_scale":"2"}},"410307322":{"lat":43.6041096,"lon":3.4379802,"ts":"2021-06-12T06:43:19Z","tz":1,"tags":{"building":"yes","leisure":"sports_centre","name":"Escalagou","sport":"climbing"}},"4877741181":{"lat":43.7085971,"lon":3.4980646,"ts":"2021-08-29T06:15:26Z","tz":1,"tags":{"climbing:grade:french:max":"8a","climbing:grade:french:min":"4b","climbing:routes":"70","leisure":"pitch","name":"Le Joncas (canyon, via ferrata, escalade)","sport":"climbing","website":"https://www.grimper.com/site-escalade-le-joncas"}},"4877774640":{"lat":43.73753,"lon":3.3625438,"ts":"2023-09-07T09:52:10Z","tz":1,"tags":{"climbing:boulder":"yes","name":"Le Prieuré","sport":"climbing"}},"9633868901":{"lat":43.7884676,"lon":3.382264,"ts":"2022-04-03T16:55:03Z","tz":1,"tags":{"leisure":"pitch","name":"Cirque du Bout du Monde","sport":"climbing"}},"9633878305":{"lat":43.8037667,"lon":3.2755362,"ts":"2022-04-03T17:00:40Z","tz":1,"tags":{"leisure":"pitch","name":"Cirque de Labeil","sport":"climbing"}},"9893137073":{"lat":43.7382921,"lon":3.4569383,"ts":"2022-07-17T11:37:55Z","tz":1,"tags":{"leisure":"pitch","name":"Site d'escalade de Roc Traucat","source":"BDTopo IGN","sport":"climbing"}},"10293837704":{"lat":43.6193276,"lon":3.175758,"ts":"2022-12-29T18:40:13Z","tz":1,"tags":{"climbing:orientation":"S","climbing:sport":"yes","name":"Le Roc Rouge","sport":"climbing"}},"10761833740":{"lat":43.7079334,"lon":3.4992912,"ts":"2023-03-25T19:11:29Z","tz":1,"tags":{"name":"Le Joncas - secteur Sainte éthique","sport":"climbing"}},"10761887797":{"lat":43.708319,"lon":3.4983222,"ts":"2023-03-25T19:10:44Z","tz":1,"tags":{"name":"Le Joncas - secteur pensée oblique","sport":"climbing"}},"10761891575":{"lat":43.7086792,"lon":3.4987438,"ts":"2023-03-25T19:10:16Z","tz":1,"tags":{"name":"Le Joncas - secteur déflagration","sport":"climbing"}},"11104693252":{"lat":43.6399128,"lon":3.176052,"ts":"2023-08-10T12:21:04Z","tz":1,"tags":{"climbing:routes":"33","leisure":"natural","name":"Le Caussanel","sport":"climbing"}}}