{"1609784277":{"lat":31.6861064,"lon":-106.408732,"ts":"2023-10-20T18:40:46Z","tz":-7,"tags":{"addr:housenumber":"8681","addr:street":"Boulevard Teofilo Borunda","email":"juarez@totalfitnessmexico.com","leisure":"fitness_centre","name":"Total Fitness","phone":"+52 656 648 2140","sport":"climbing","website":"https://www.totalfitnessjuarez.com/"}},"2325890404":{"lat":31.837152,"lon":-106.4883492,"ts":"2013-05-30T16:08:40Z","tz":-7,"tags":{"sport":"climbing"}},"2325890407":{"lat":31.8360332,"lon":-106.4843929,"ts":"2013-05-30T16:08:40Z","tz":-7,"tags":{"climbing":"crag","name":"Flower Power Ledge"}},"2325890411":{"lat":31.8366074,"lon":-106.4852056,"ts":"2013-05-30T16:08:40Z","tz":-7,"tags":{"climbing":"crag","name":"Picnic Rock"}},"2325890413":{"lat":31.8368831,"lon":-106.4883304,"ts":"2013-05-30T16:08:40Z","tz":-7,"tags":{"sport":"climbing"}},"2325890416":{"lat":31.8362064,"lon":-106.487861,"ts":"2013-05-30T16:08:40Z","tz":-7,"tags":{"sport":"climbing"}}}