{"17564344":{"lat":49.3507763,"lon":18.0297392,"ts":"2024-05-06T08:00:25Z","tz":1,"tags":{"climbing":"crag","name":"Valova skála u Vsetína","site":"climbing","sport":"climbing","type":"site","website":"https://www.horosvaz.cz/skaly-skala-11710/"}},"11883118670":{"lat":49.350755,"lon":18.0300516,"ts":"2024-05-06T08:00:25Z","tz":1,"tags":{"climbing":"route_bottom","climbing:grade:uiaa":"5","name":"Levá hrana","sport":"climbing","website":"https://www.horosvaz.cz/skaly-cesta-12219/"}},"11883118671":{"lat":49.350756,"lon":18.0300367,"ts":"2024-05-06T08:00:25Z","tz":1,"tags":{"climbing":"route_bottom","climbing:grade:uiaa":"7","name":"Varianta hranou","sport":"climbing","website":"https://www.horosvaz.cz/skaly-cesta-12212/"}},"11883118672":{"lat":49.3507571,"lon":18.0300219,"ts":"2024-05-06T08:00:25Z","tz":1,"tags":{"climbing":"route_bottom","climbing:grade:uiaa":"6","name":"Varianta koutem","sport":"climbing","website":"https://www.horosvaz.cz/skaly-cesta-12211/"}},"11883118673":{"lat":49.3507581,"lon":18.030007,"ts":"2024-05-06T08:00:25Z","tz":1,"tags":{"climbing":"route_bottom","climbing:grade:uiaa":"6","name":"Cesta na památku Honzy Mynaříka","sport":"climbing","website":"https://www.horosvaz.cz/skaly-cesta-12210/"}},"11883118674":{"lat":49.3507591,"lon":18.0299921,"ts":"2024-05-06T08:00:25Z","tz":1,"tags":{"climbing":"route_bottom","climbing:grade:uiaa":"4","name":"Jatagan","sport":"climbing","website":"https://www.horosvaz.cz/skaly-cesta-12183/"}},"11883118675":{"lat":49.3507601,"lon":18.0299772,"ts":"2024-05-06T08:00:25Z","tz":1,"tags":{"climbing":"route_bottom","climbing:grade:uiaa":"4-","name":"Úplně poslední","sport":"climbing","website":"https://www.horosvaz.cz/skaly-cesta-12184/"}},"11883118676":{"lat":49.3507611,"lon":18.0299623,"ts":"2024-05-06T08:00:25Z","tz":1,"tags":{"climbing":"route_bottom","climbing:grade:uiaa":"5-","name":"Cesta na východní vrchol","sport":"climbing","website":"https://www.horosvaz.cz/skaly-cesta-12185/"}},"11883118677":{"lat":49.3507621,"lon":18.0299475,"ts":"2024-05-06T08:00:25Z","tz":1,"tags":{"climbing":"route_bottom","climbing:grade:uiaa":"3","name":"Poslední","sport":"climbing","website":"https://www.horosvaz.cz/skaly-cesta-12187/"}},"11883118678":{"lat":49.3507632,"lon":18.0299326,"ts":"2024-05-06T08:00:25Z","tz":1,"tags":{"climbing":"route_bottom","climbing:grade:uiaa":"7-","name":"Heloušek","sport":"climbing","website":"https://www.horosvaz.cz/skaly-cesta-12186/"}},"11883118679":{"lat":49.3507642,"lon":18.0299177,"ts":"2024-05-06T08:00:25Z","tz":1,"tags":{"climbing":"route_bottom","climbing:grade:uiaa":"6+","name":"Cecilka","sport":"climbing","website":"https://www.horosvaz.cz/skaly-cesta-12188/"}},"11883118680":{"lat":49.3507652,"lon":18.0299028,"ts":"2024-05-06T08:00:25Z","tz":1,"tags":{"climbing":"route_bottom","climbing:grade:uiaa":"5","name":"Malá stěnka","sport":"climbing","website":"https://www.horosvaz.cz/skaly-cesta-12189/"}},"11883118681":{"lat":49.3507662,"lon":18.029888,"ts":"2024-05-06T08:00:25Z","tz":1,"tags":{"climbing":"route_bottom","climbing:grade:uiaa":"7","name":"Hrana komína","sport":"climbing","website":"https://www.horosvaz.cz/skaly-cesta-12191/"}},"11883118682":{"lat":49.3507672,"lon":18.0298731,"ts":"2024-05-06T08:00:25Z","tz":1,"tags":{"climbing":"route_bottom","climbing:grade:uiaa":"3","name":"Komín","sport":"climbing","website":"https://www.horosvaz.cz/skaly-cesta-12190/"}},"11883118683":{"lat":49.3507682,"lon":18.0298582,"ts":"2024-05-06T08:00:25Z","tz":1,"tags":{"climbing":"route_bottom","climbing:grade:uiaa":"4","name":"Stará cesta","sport":"climbing","website":"https://www.horosvaz.cz/skaly-cesta-12192/"}},"11883118684":{"lat":49.3507693,"lon":18.0298433,"ts":"2024-05-06T08:00:25Z","tz":1,"tags":{"climbing":"route_bottom","climbing:grade:uiaa":"7","name":"Vůně podzimu","sport":"climbing","website":"https://www.horosvaz.cz/skaly-cesta-12193/"}},"11883118685":{"lat":49.3507703,"lon":18.0298285,"ts":"2024-05-06T08:00:25Z","tz":1,"tags":{"climbing":"route_bottom","climbing:grade:uiaa":"5","name":"Na koně!","sport":"climbing","website":"https://www.horosvaz.cz/skaly-cesta-12194/"}},"11883118686":{"lat":49.3507713,"lon":18.0298136,"ts":"2024-05-06T08:00:25Z","tz":1,"tags":{"climbing":"route_bottom","climbing:grade:uiaa":"6-","name":"Zkroucené ruce","sport":"climbing","website":"https://www.horosvaz.cz/skaly-cesta-12195/"}},"11883118687":{"lat":49.3507723,"lon":18.0297987,"ts":"2024-05-06T08:00:25Z","tz":1,"tags":{"climbing":"route_bottom","climbing:grade:uiaa":"5+","name":"Vegetační klid","sport":"climbing","website":"https://www.horosvaz.cz/skaly-cesta-12196/"}},"11883118688":{"lat":49.3507733,"lon":18.0297838,"ts":"2024-05-06T08:00:25Z","tz":1,"tags":{"climbing":"route_bottom","climbing:grade:uiaa":"5+/6-","name":"Baba Žaba","sport":"climbing","website":"https://www.horosvaz.cz/skaly-cesta-12197/"}},"11883118689":{"lat":49.3507743,"lon":18.0297689,"ts":"2024-05-06T08:00:25Z","tz":1,"tags":{"climbing":"route_bottom","climbing:grade:uiaa":"5+","name":"Milanova","sport":"climbing","website":"https://www.horosvaz.cz/skaly-cesta-12198/"}},"11883118690":{"lat":49.3507753,"lon":18.0297541,"ts":"2024-05-06T08:00:25Z","tz":1,"tags":{"climbing":"route_bottom","climbing:grade:uiaa":"5","name":"Varianta Dáreček","sport":"climbing","website":"https://www.horosvaz.cz/skaly-cesta-12199/"}},"11883118691":{"lat":49.3507764,"lon":18.0297392,"ts":"2024-05-06T08:00:25Z","tz":1,"tags":{"climbing":"route_bottom","climbing:grade:uiaa":"3","name":"Zbrojovácká","sport":"climbing","website":"https://www.horosvaz.cz/skaly-cesta-12200/"}},"11883118692":{"lat":49.3507774,"lon":18.0297243,"ts":"2024-05-06T08:00:25Z","tz":1,"tags":{"climbing":"route_bottom","climbing:grade:uiaa":"5","name":"Mokrý kout","sport":"climbing","website":"https://www.horosvaz.cz/skaly-cesta-12201/"}},"11883118693":{"lat":49.3507784,"lon":18.0297094,"ts":"2024-05-06T08:00:25Z","tz":1,"tags":{"climbing":"route_bottom","climbing:grade:uiaa":"6+","name":"Podzimní hranění","sport":"climbing","website":"https://www.horosvaz.cz/skaly-cesta-65109/"}},"11883118694":{"lat":49.3507794,"lon":18.0296946,"ts":"2024-05-06T08:00:25Z","tz":1,"tags":{"climbing":"route_bottom","climbing:grade:uiaa":"7","name":"Převisek","sport":"climbing","website":"https://www.horosvaz.cz/skaly-cesta-12202/"}},"11883118695":{"lat":49.3507804,"lon":18.0296797,"ts":"2024-05-06T08:00:25Z","tz":1,"tags":{"climbing":"route_bottom","climbing:grade:uiaa":"4","name":"Balkónek","sport":"climbing","website":"https://www.horosvaz.cz/skaly-cesta-12203/"}},"11883118696":{"lat":49.3507814,"lon":18.0296648,"ts":"2024-05-06T08:00:25Z","tz":1,"tags":{"climbing":"route_bottom","climbing:grade:uiaa":"6","name":"Varianta Balkónku","sport":"climbing","website":"https://www.horosvaz.cz/skaly-cesta-12204/"}},"11883118697":{"lat":49.3507825,"lon":18.0296499,"ts":"2024-05-06T08:00:25Z","tz":1,"tags":{"climbing":"route_bottom","climbing:grade:uiaa":"7+","name":"Varianta Převisové","sport":"climbing","website":"https://www.horosvaz.cz/skaly-cesta-12205/"}},"11883118698":{"lat":49.3507835,"lon":18.0296351,"ts":"2024-05-06T08:00:25Z","tz":1,"tags":{"climbing":"route_bottom","climbing:grade:uiaa":"5+","name":"Převisová","sport":"climbing","website":"https://www.horosvaz.cz/skaly-cesta-12206/"}},"11883118699":{"lat":49.3507845,"lon":18.0296202,"ts":"2024-05-06T08:00:25Z","tz":1,"tags":{"climbing":"route_bottom","climbing:grade:uiaa":"7+","name":"Pro Janu","sport":"climbing","website":"https://www.horosvaz.cz/skaly-cesta-12207/"}},"11883118700":{"lat":49.3507855,"lon":18.0296053,"ts":"2024-05-06T08:00:25Z","tz":1,"tags":{"climbing":"route_bottom","climbing:grade:uiaa":"7","name":"Jardova","sport":"climbing","website":"https://www.horosvaz.cz/skaly-cesta-12208/"}},"11883118701":{"lat":49.3507865,"lon":18.0295904,"ts":"2024-05-06T08:00:25Z","tz":1,"tags":{"climbing":"route_bottom","climbing:grade:uiaa":"6+","name":"Varianta dolním koutem","sport":"climbing","website":"https://www.horosvaz.cz/skaly-cesta-65108/"}},"11883118702":{"lat":49.3507875,"lon":18.0295756,"ts":"2024-05-06T08:00:25Z","tz":1,"tags":{"climbing":"route_bottom","climbing:grade:uiaa":"7","name":"Krvavý kout varianta hranou","sport":"climbing","website":"https://www.horosvaz.cz/skaly-cesta-65107/"}},"11883118703":{"lat":49.3507886,"lon":18.0295607,"ts":"2024-05-06T08:00:25Z","tz":1,"tags":{"climbing":"route_bottom","climbing:grade:uiaa":"5+","name":"Krvavý kout","sport":"climbing","website":"https://www.horosvaz.cz/skaly-cesta-12213/"}},"11883118704":{"lat":49.3507896,"lon":18.0295458,"ts":"2024-05-06T08:00:25Z","tz":1,"tags":{"climbing":"route_bottom","climbing:grade:uiaa":"7","name":"Drastissima","sport":"climbing","website":"https://www.horosvaz.cz/skaly-cesta-12214/"}},"11883118705":{"lat":49.3507906,"lon":18.0295309,"ts":"2024-05-06T08:00:25Z","tz":1,"tags":{"climbing":"route_bottom","climbing:grade:uiaa":"7-","name":"Superdirettissima","sport":"climbing","website":"https://www.horosvaz.cz/skaly-cesta-65106/"}},"11883118706":{"lat":49.3507916,"lon":18.029516,"ts":"2024-05-06T08:00:25Z","tz":1,"tags":{"climbing":"route_bottom","climbing:grade:uiaa":"4+","name":"Traverzová","sport":"climbing","website":"https://www.horosvaz.cz/skaly-cesta-12209/"}},"11883118707":{"lat":49.3507926,"lon":18.0295012,"ts":"2024-05-06T08:00:25Z","tz":1,"tags":{"climbing":"route_bottom","climbing:grade:uiaa":"5+","name":"Direttissima","sport":"climbing","website":"https://www.horosvaz.cz/skaly-cesta-65105/"}},"11883118708":{"lat":49.3507936,"lon":18.0294863,"ts":"2024-05-06T08:00:25Z","tz":1,"tags":{"climbing":"route_bottom","climbing:grade:uiaa":"6","name":"Bílá Direttissima","sport":"climbing","website":"https://www.horosvaz.cz/skaly-cesta-12217/"}},"11883118709":{"lat":49.3507946,"lon":18.0294714,"ts":"2024-05-06T08:00:25Z","tz":1,"tags":{"climbing":"route_bottom","climbing:grade:uiaa":"6+","name":"Cesta návratů","sport":"climbing","website":"https://www.horosvaz.cz/skaly-cesta-12218/"}},"11883118710":{"lat":49.3507957,"lon":18.0294565,"ts":"2024-05-06T08:00:25Z","tz":1,"tags":{"climbing":"route_bottom","climbing:grade:uiaa":"5-","name":"Škračenica","sport":"climbing","website":"https://www.horosvaz.cz/skaly-cesta-65104/"}},"11883118711":{"lat":49.3507967,"lon":18.0294417,"ts":"2024-05-06T08:00:25Z","tz":1,"tags":{"climbing":"route_bottom","climbing:boulder":"yes","climbing:grade:french":"6c","name":"Na ostří nože","sport":"climbing","website":"https://www.horosvaz.cz/skaly-cesta-12182/"}},"11883118712":{"lat":49.3507977,"lon":18.0294268,"ts":"2024-05-06T08:00:25Z","tz":1,"tags":{"climbing":"route_bottom","climbing:boulder":"yes","climbing:grade:french":"6c","name":"Dírky","sport":"climbing","website":"https://www.horosvaz.cz/skaly-cesta-12181/"}}}