{"7991672513":{"lat":49.1757033,"lon":18.585115,"ts":"2024-07-09T15:22:40Z","tz":1,"tags":{"climbing:sport":"yes","fixme":"doplniť access:conditional,lezecké trasy majú výnimku v 5.stupni ochrany pre určitú skupinu osôb a majú tiež sezónnu uzávierku","name":"VPN","sport":"climbing"}},"7991672514":{"lat":49.1759167,"lon":18.5855514,"ts":"2024-07-09T15:22:40Z","tz":1,"tags":{"climbing:sport":"yes","fixme":"doplniť access:conditional,lezecké trasy majú výnimku v 5.stupni ochrany pre určitú skupinu osôb a majú tiež sezónnu uzávierku","name":"Obelisk","sport":"climbing"}},"7991672515":{"lat":49.1762642,"lon":18.5858816,"ts":"2024-07-09T15:22:40Z","tz":1,"tags":{"climbing:sport":"yes","fixme":"doplniť access:conditional,lezecké trasy majú výnimku v 5.stupni ochrany pre určitú skupinu osôb a majú tiež sezónnu uzávierku","name":"Vyhliadka","sport":"climbing"}},"9870764260":{"lat":49.1737101,"lon":18.5834756,"ts":"2024-07-09T15:22:40Z","tz":1,"tags":{"fixme":"doplniť access:conditional,lezecké trasy majú výnimku v 5.stupni ochrany pre určitú skupinu osôb a majú tiež sezónnu uzávierku","name":"Harfa","sport":"climbing"}},"9870779827":{"lat":49.1785301,"lon":18.5832554,"ts":"2024-07-09T15:34:17Z","tz":1,"tags":{"fixme":"doplniť access:conditional,lezecké trasy majú výnimku v 5.stupni ochrany pre určitú skupinu osôb a majú tiež sezónnu uzávierku","name":"Podsvetie","sport":"climbing"}},"9870801147":{"lat":49.177436,"lon":18.5829061,"ts":"2024-07-09T15:34:17Z","tz":1,"tags":{"fixme":"doplniť access:conditional,lezecké trasy majú výnimku v 5.stupni ochrany pre určitú skupinu osôb a majú tiež sezónnu uzávierku","name":"Veza nad ohniskom","sport":"climbing"}},"9870846570":{"lat":49.1727411,"lon":18.5825904,"ts":"2024-07-09T15:22:40Z","tz":1,"tags":{"fixme":"doplniť access:conditional,lezecké trasy majú výnimku v 5.stupni ochrany pre určitú skupinu osôb a majú tiež sezónnu uzávierku","name":"Trojzubec","sport":"climbing"}},"9870876656":{"lat":49.173115,"lon":18.5829131,"ts":"2024-07-09T15:22:40Z","tz":1,"tags":{"fixme":"doplniť access:conditional,lezecké trasy majú výnimku v 5.stupni ochrany pre určitú skupinu osôb a majú tiež sezónnu uzávierku","name":"Kridlo","sport":"climbing"}}}