{"1102662176":{"lat":50.280189,"lon":-122.853127,"ts":"2022-10-10T16:50:29Z","tz":-8,"tags":{"climbing":"crag","name":"South Beach","natural":"cliff"}},"1102662177":{"lat":50.28228,"lon":-122.8488059,"ts":"2022-10-10T16:50:29Z","tz":-8,"tags":{"climbing":"crag","name":"Night and Day Wall","natural":"cliff"}},"1102662186":{"lat":50.2279872,"lon":-122.8734997,"ts":"2022-10-10T16:50:29Z","tz":-8,"tags":{"climbing":"crag","name":"Moss and Choss Wall","natural":"cliff"}},"1102662187":{"lat":50.227318,"lon":-122.8735011,"ts":"2022-10-10T16:50:29Z","tz":-8,"tags":{"climbing":"crag","name":"Electric Edge","natural":"cliff"}},"1102662188":{"lat":50.2260989,"lon":-122.8738645,"ts":"2022-10-10T16:50:29Z","tz":-8,"tags":{"climbing":"crag","name":"Buried Treasure","natural":"cliff"}},"1227944111":{"lat":50.2865077,"lon":-122.8537867,"ts":"2023-12-01T06:00:45Z","tz":-8,"tags":{"climbing:grade:uiaa:max":"6+","climbing:grade:uiaa:min":"5","climbing:orientation":"SE","climbing:sport":"5","fee":"no","height":"20","name":"Multinational Wall","natural":"cliff","outdoor":"yes","sport":"climbing","url":"https://static1.squarespace.com/static/5ed3debb9153381e7876f4e5/t/5ed3ee02b4a2b057f380cd0f/1590947339113/Family+Crag+-+Pemberton+BC.pdf"}},"1227944112":{"lat":50.2866049,"lon":-122.8534708,"ts":"2023-12-01T06:00:45Z","tz":-8,"tags":{"climbing:grade:uiaa:max":"8","climbing:grade:uiaa:min":"6","climbing:orientation":"SE","climbing:sport":"5","fee":"no","height":"15","name":"Dad Bod Wall","natural":"cliff","outdoor":"yes","sport":"climbing","url":"https://static1.squarespace.com/static/5ed3debb9153381e7876f4e5/t/5ed3ee02b4a2b057f380cd0f/1590947339113/Family+Crag+-+Pemberton+BC.pdf"}},"1227944113":{"lat":50.2865587,"lon":-122.8535763,"ts":"2023-12-01T06:00:45Z","tz":-8,"tags":{"climbing":"crag","climbing:grade:uiaa:max":"8","climbing:grade:uiaa:min":"5","climbing:orientation":"SE","climbing:sport":"10","fee":"no","name":"Family Crag","outdoor":"yes","sport":"climbing","url":"https://static1.squarespace.com/static/5ed3debb9153381e7876f4e5/t/5ed3ee02b4a2b057f380cd0f/1590947339113/Family+Crag+-+Pemberton+BC.pdf"}},"12289146002":{"lat":50.22872,"lon":-122.8992191,"ts":"2024-10-26T01:57:52Z","tz":-8,"tags":{"climbing":"area","fee":"no","name":"Soo River Bluffs","outdoor":"yes","sport":"climbing"}}}