{"17604131":{"lat":48.9903597,"lon":15.9939338,"ts":"2024-05-17T08:46:13Z","tz":1,"tags":{"climbing":"crag","name":"Hlavní masiv","site":"climbing","sport":"climbing","type":"site","website":"https://www.horosvaz.cz/skaly-skala-12694/"}},"17604138":{"lat":48.9905673,"lon":15.9937487,"ts":"2024-05-17T08:47:40Z","tz":1,"tags":{"climbing":"crag","name":"Pilíř","site":"climbing","sport":"climbing","type":"site","website":"https://www.horosvaz.cz/skaly-skala-12693/"}},"17604140":{"lat":48.9905673,"lon":15.9932716,"ts":"2024-05-17T08:48:23Z","tz":1,"tags":{"climbing":"crag","name":"Pod Kozí skálou","site":"climbing","sport":"climbing","type":"site","website":"https://www.horosvaz.cz/skaly-skala-12692/"}},"17604155":{"lat":48.9890218,"lon":15.9911592,"ts":"2024-05-17T08:53:33Z","tz":1,"tags":{"climbing":"crag","name":"Stěna pod Marákovou věží","site":"climbing","sport":"climbing","type":"site","website":"https://www.horosvaz.cz/skaly-skala-7967/"}},"17604156":{"lat":48.9889301,"lon":15.9912216,"ts":"2024-05-17T08:54:22Z","tz":1,"tags":{"climbing":"crag","name":"Marákova věž","site":"climbing","sport":"climbing","type":"site","website":"https://www.horosvaz.cz/skaly-skala-7365/"}},"17604571":{"lat":48.9913108,"lon":15.9911138,"ts":"2024-05-17T11:54:28Z","tz":1,"tags":{"climbing":"crag","name":"Zapomenutá","site":"climbing","sport":"climbing","type":"site","website":"https://www.horosvaz.cz/skaly-skala-7346/"}},"17604969":{"lat":48.9911108,"lon":15.99106,"ts":"2024-05-17T14:27:48Z","tz":1,"tags":{"climbing":"crag","name":"Parník","site":"climbing","sport":"climbing","type":"site","website":"https://www.horosvaz.cz/skaly-skala-7347/"}},"17604970":{"lat":48.9909564,"lon":15.9911538,"ts":"2024-05-17T14:28:09Z","tz":1,"tags":{"climbing":"crag","name":"Prcek","site":"climbing","sport":"climbing","type":"site","website":"https://www.horosvaz.cz/skaly-skala-7345/"}},"17604972":{"lat":48.9906985,"lon":15.9906062,"ts":"2024-05-17T14:28:42Z","tz":1,"tags":{"climbing":"crag","name":"Malé skalky","site":"climbing","sport":"climbing","type":"site","website":"https://www.horosvaz.cz/skaly-skala-4572/"}},"17604977":{"lat":48.9900506,"lon":15.9944404,"ts":"2024-05-17T14:29:49Z","tz":1,"tags":{"climbing":"crag","name":"Venuše","site":"climbing","sport":"climbing","type":"site","website":"https://www.horosvaz.cz/skaly-skala-7321/"}},"17606015":{"lat":48.9907614,"lon":15.9908267,"ts":"2024-05-17T20:50:41Z","tz":1,"tags":{"climbing":"crag","name":"Žaludova skála","site":"climbing","sport":"climbing","type":"site","website":"https://www.horosvaz.cz/skaly-skala-6277/"}},"17606016":{"lat":48.9901221,"lon":15.994226,"ts":"2024-05-17T20:51:16Z","tz":1,"tags":{"climbing":"crag","name":"Stěna nad vodou","site":"climbing","sport":"climbing","type":"site","website":"https://www.horosvaz.cz/skaly-skala-12695/"}},"17813169":{"lat":49.0387689,"lon":16.0576363,"ts":"2024-07-07T14:43:03Z","tz":1,"tags":{"climbing":"crag","name":"Malá stěna","site":"climbing","sport":"climbing","type":"site","website":"https://www.horosvaz.cz/skaly-skala-7366/"}},"17813173":{"lat":49.0387642,"lon":16.0569491,"ts":"2024-07-07T14:44:17Z","tz":1,"tags":{"climbing":"crag","name":"Velká stěna","site":"climbing","sport":"climbing","type":"site","website":"https://www.horosvaz.cz/skaly-skala-7468/"}},"17813179":{"lat":49.0413432,"lon":16.0421629,"ts":"2024-07-07T14:46:33Z","tz":1,"tags":{"climbing":"crag","name":"Hlavní masiv","site":"climbing","sport":"climbing","type":"site","website":"https://www.horosvaz.cz/skaly-skala-13707/"}},"17813181":{"lat":49.0416425,"lon":16.0426616,"ts":"2024-07-07T14:47:25Z","tz":1,"tags":{"climbing":"crag","name":"Levý masiv","site":"climbing","sport":"climbing","type":"site","website":"https://www.horosvaz.cz/skaly-skala-13706/"}},"17813184":{"lat":48.9494378,"lon":16.0507905,"ts":"2024-07-07T14:49:29Z","tz":1,"tags":{"climbing":"crag","name":"Skalka u Rudlic","site":"climbing","sport":"climbing","type":"site","website":"https://www.horosvaz.cz/skaly-skala-7950/"}},"308647870":{"lat":49.0699956,"lon":15.9442061,"ts":"2017-05-20T19:44:03Z","tz":1,"tags":{"name":"Justinka","natural":"cliff","sport":"climbing","wikidata":"Q12027278","wikipedia":"cs:Justinka"}},"9063490483":{"lat":48.9901821,"lon":15.9939692,"ts":"2021-09-05T06:30:31Z","tz":1,"tags":{"sport":"climbing"}},"11911894956":{"lat":48.9890272,"lon":15.9912348,"ts":"2024-05-17T08:53:33Z","tz":1,"tags":{"climbing":"route_bottom","climbing:grade:uiaa":"4","name":"Se západem Slunce","sport":"climbing","website":"https://www.horosvaz.cz/skaly-cesta-55571/"}},"11911894957":{"lat":48.9890256,"lon":15.9912132,"ts":"2024-05-17T08:53:33Z","tz":1,"tags":{"climbing":"route_bottom","climbing:grade:uiaa":"4","name":"Milosrdná slepota","sport":"climbing","website":"https://www.horosvaz.cz/skaly-cesta-55570/"}},"11911894958":{"lat":48.9890241,"lon":15.9911916,"ts":"2024-05-17T08:53:33Z","tz":1,"tags":{"climbing":"route_bottom","climbing:grade:uiaa":"4+","name":"Vzácná shoda","sport":"climbing","website":"https://www.horosvaz.cz/skaly-cesta-55569/"}},"11911894959":{"lat":48.9890225,"lon":15.9911699,"ts":"2024-05-17T08:53:33Z","tz":1,"tags":{"climbing":"route_bottom","climbing:grade:uiaa":"4","name":"Gábina","sport":"climbing","website":"https://www.horosvaz.cz/skaly-cesta-55572/"}},"11911894960":{"lat":48.989021,"lon":15.9911483,"ts":"2024-05-17T08:53:33Z","tz":1,"tags":{"climbing":"route_bottom","climbing:grade:uiaa":"5-","name":"Prvorozená","sport":"climbing","website":"https://www.horosvaz.cz/skaly-cesta-55573/"}},"11911894961":{"lat":48.9890195,"lon":15.9911267,"ts":"2024-05-17T08:53:33Z","tz":1,"tags":{"climbing":"route_bottom","climbing:grade:uiaa":"3","name":"Kout","sport":"climbing","website":"https://www.horosvaz.cz/skaly-cesta-55574/"}},"11911894962":{"lat":48.9890179,"lon":15.9911051,"ts":"2024-05-17T08:53:33Z","tz":1,"tags":{"climbing":"route_bottom","climbing:grade:uiaa":"4","name":"Dlouhý dým","sport":"climbing","website":"https://www.horosvaz.cz/skaly-cesta-55575/"}},"11911894963":{"lat":48.9890164,"lon":15.9910835,"ts":"2024-05-17T08:53:33Z","tz":1,"tags":{"climbing":"route_bottom","climbing:grade:uiaa":"4","name":"Nedotýkejte se, prosím","sport":"climbing","website":"https://www.horosvaz.cz/skaly-cesta-55576/"}},"11911907026":{"lat":48.9902413,"lon":15.9941797,"ts":"2024-05-17T08:46:13Z","tz":1,"tags":{"climbing":"route_bottom","climbing:grade:uiaa":"3","name":"Kozel zahradníkem","sport":"climbing","website":"https://www.horosvaz.cz/skaly-cesta-44395/"}},"11911907027":{"lat":48.9902492,"lon":15.9941633,"ts":"2024-05-17T08:46:13Z","tz":1,"tags":{"climbing":"route_bottom","climbing:grade:uiaa":"4","name":"Svátek práce","sport":"climbing","website":"https://www.horosvaz.cz/skaly-cesta-44397/"}},"11911907028":{"lat":48.9902571,"lon":15.9941469,"ts":"2024-05-17T08:46:13Z","tz":1,"tags":{"climbing":"route_bottom","climbing:grade:uiaa":"5+","name":"Mezi kozy","sport":"climbing","website":"https://www.horosvaz.cz/skaly-cesta-44396/"}},"11911907029":{"lat":48.990265,"lon":15.9941305,"ts":"2024-05-17T08:46:13Z","tz":1,"tags":{"climbing":"route_bottom","climbing:grade:uiaa":"4","name":"Prvomájová","sport":"climbing","website":"https://www.horosvaz.cz/skaly-cesta-44398/"}},"11911907030":{"lat":48.9902729,"lon":15.9941141,"ts":"2024-05-17T08:46:13Z","tz":1,"tags":{"climbing":"route_bottom","climbing:grade:uiaa":"5+","name":"Plné gatě","sport":"climbing","website":"https://www.horosvaz.cz/skaly-cesta-44400/"}},"11911907031":{"lat":48.9902808,"lon":15.9940977,"ts":"2024-05-17T08:46:13Z","tz":1,"tags":{"climbing":"route_bottom","climbing:grade:uiaa":"7-","name":"Cesta bláznů","sport":"climbing","website":"https://www.horosvaz.cz/skaly-cesta-44393/"}},"11911907032":{"lat":48.9902887,"lon":15.9940813,"ts":"2024-05-17T08:46:13Z","tz":1,"tags":{"climbing":"route_bottom","climbing:grade:uiaa":"4+","name":"Prdelačka","sport":"climbing","website":"https://www.horosvaz.cz/skaly-cesta-44392/"}},"11911907033":{"lat":48.9902966,"lon":15.9940649,"ts":"2024-05-17T08:46:13Z","tz":1,"tags":{"climbing":"route_bottom","climbing:grade:uiaa":"7-","name":"Staříkova smrt","sport":"climbing","website":"https://www.horosvaz.cz/skaly-cesta-44369/"}},"11911907034":{"lat":48.9903045,"lon":15.9940485,"ts":"2024-05-17T08:46:13Z","tz":1,"tags":{"climbing":"route_bottom","climbing:grade:uiaa":"9+/10-","name":"Deratizace","sport":"climbing","website":"https://www.horosvaz.cz/skaly-cesta-44394/"}},"11911907035":{"lat":48.9903124,"lon":15.9940321,"ts":"2024-05-17T08:46:13Z","tz":1,"tags":{"climbing":"route_bottom","climbing:grade:uiaa":"8-","name":"Hrátky s netopýry","sport":"climbing","website":"https://www.horosvaz.cz/skaly-cesta-44373/"}},"11911907036":{"lat":48.9903203,"lon":15.9940157,"ts":"2024-05-17T08:46:13Z","tz":1,"tags":{"climbing":"route_bottom","climbing:grade:uiaa":"8-","name":"Dřevorubecká symfonie","sport":"climbing","website":"https://www.horosvaz.cz/skaly-cesta-44401/"}},"11911907037":{"lat":48.9903282,"lon":15.9939993,"ts":"2024-05-17T08:46:13Z","tz":1,"tags":{"climbing":"route_bottom","climbing:grade:uiaa":"8-","name":"Šupák z dědiny","sport":"climbing","website":"https://www.horosvaz.cz/skaly-cesta-44383/"}},"11911907038":{"lat":48.990336,"lon":15.9939829,"ts":"2024-05-17T08:46:13Z","tz":1,"tags":{"climbing":"route_bottom","climbing:grade:uiaa":"7+","name":"Michalova","sport":"climbing","website":"https://www.horosvaz.cz/skaly-cesta-44409/"}},"11911907039":{"lat":48.9903439,"lon":15.9939665,"ts":"2024-05-17T08:46:13Z","tz":1,"tags":{"climbing":"route_bottom","climbing:grade:uiaa":"7-","name":"Floutek z města","sport":"climbing","website":"https://www.horosvaz.cz/skaly-cesta-44382/"}},"11911907040":{"lat":48.9903518,"lon":15.9939501,"ts":"2024-05-17T08:46:13Z","tz":1,"tags":{"climbing":"route_bottom","climbing:grade:uiaa":"5+","name":"Dunivý kout direkt","sport":"climbing","website":"https://www.horosvaz.cz/skaly-cesta-63302/"}},"11911907041":{"lat":48.9903597,"lon":15.9939337,"ts":"2024-05-17T08:46:13Z","tz":1,"tags":{"climbing":"route_bottom","climbing:grade:uiaa":"5-","name":"Dunivý kout","sport":"climbing","website":"https://www.horosvaz.cz/skaly-cesta-44402/"}},"11911907042":{"lat":48.9903676,"lon":15.9939174,"ts":"2024-05-17T08:46:13Z","tz":1,"tags":{"climbing":"route_bottom","climbing:grade:uiaa":"5-","name":"Tatranka","sport":"climbing","website":"https://www.horosvaz.cz/skaly-cesta-44403/"}},"11911907043":{"lat":48.9903755,"lon":15.993901,"ts":"2024-05-17T08:46:13Z","tz":1,"tags":{"climbing":"route_bottom","climbing:grade:uiaa":"10-","name":"Jebem ti hrob","sport":"climbing","website":"https://www.horosvaz.cz/skaly-cesta-44372/"}},"11911907044":{"lat":48.9903834,"lon":15.9938846,"ts":"2024-05-17T08:46:13Z","tz":1,"tags":{"climbing":"route_bottom","climbing:grade:uiaa":"7","name":"Dívčí sen","sport":"climbing","website":"https://www.horosvaz.cz/skaly-cesta-44411/"}},"11911907045":{"lat":48.9903913,"lon":15.9938682,"ts":"2024-05-17T08:46:13Z","tz":1,"tags":{"climbing":"route_bottom","climbing:grade:uiaa":"7","name":"Varianta Dívčího snu","sport":"climbing","website":"https://www.horosvaz.cz/skaly-cesta-63301/"}},"11911907046":{"lat":48.9903992,"lon":15.9938518,"ts":"2024-05-17T08:46:13Z","tz":1,"tags":{"climbing":"route_bottom","climbing:grade:uiaa":"7","name":"Dívčí sen direkt","sport":"climbing","website":"https://www.horosvaz.cz/skaly-cesta-63300/"}},"11911907047":{"lat":48.9904071,"lon":15.9938354,"ts":"2024-05-17T08:46:13Z","tz":1,"tags":{"climbing":"route_bottom","climbing:grade:uiaa":"8","name":"Requiem pro ovečku","sport":"climbing","website":"https://www.horosvaz.cz/skaly-cesta-44410/"}},"11911907048":{"lat":48.990415,"lon":15.993819,"ts":"2024-05-17T08:46:13Z","tz":1,"tags":{"climbing":"route_bottom","climbing:grade:uiaa":"7","name":"Číšník","sport":"climbing","website":"https://www.horosvaz.cz/skaly-cesta-44412/"}},"11911907049":{"lat":48.9904229,"lon":15.9938026,"ts":"2024-05-17T08:46:13Z","tz":1,"tags":{"climbing":"route_bottom","climbing:grade:uiaa":"8+","name":"Šikana","sport":"climbing","website":"https://www.horosvaz.cz/skaly-cesta-44405/"}},"11911907050":{"lat":48.9904308,"lon":15.9937862,"ts":"2024-05-17T08:46:13Z","tz":1,"tags":{"climbing":"route_bottom","climbing:grade:uiaa":"5","name":"Bidýlko","sport":"climbing","website":"https://www.horosvaz.cz/skaly-cesta-63299/"}},"11911907051":{"lat":48.9904386,"lon":15.9937698,"ts":"2024-05-17T08:46:13Z","tz":1,"tags":{"climbing":"route_bottom","climbing:grade:uiaa":"5","name":"Nebezpečná úchylka","sport":"climbing","website":"https://www.horosvaz.cz/skaly-cesta-63298/"}},"11911907052":{"lat":48.9904465,"lon":15.9937534,"ts":"2024-05-17T08:46:13Z","tz":1,"tags":{"climbing":"route_bottom","climbing:grade:uiaa":"4","name":"Kosatka","sport":"climbing","website":"https://www.horosvaz.cz/skaly-cesta-63297/"}},"11911907053":{"lat":48.9904544,"lon":15.993737,"ts":"2024-05-17T08:46:13Z","tz":1,"tags":{"climbing":"route_bottom","climbing:grade:uiaa":"4","name":"Narovnání koutu","sport":"climbing","website":"https://www.horosvaz.cz/skaly-cesta-63296/"}},"11911907054":{"lat":48.9904623,"lon":15.9937206,"ts":"2024-05-17T08:46:13Z","tz":1,"tags":{"climbing":"route_bottom","climbing:grade:uiaa":"3","name":"Kout","sport":"climbing","website":"https://www.horosvaz.cz/skaly-cesta-63295/"}},"11911907055":{"lat":48.9904702,"lon":15.9937042,"ts":"2024-05-17T08:46:13Z","tz":1,"tags":{"climbing":"route_bottom","climbing:grade:uiaa":"4","name":"Stěnka","sport":"climbing","website":"https://www.horosvaz.cz/skaly-cesta-63294/"}},"11911907056":{"lat":48.9904781,"lon":15.9936878,"ts":"2024-05-17T08:46:13Z","tz":1,"tags":{"climbing":"route_bottom","climbing:grade:uiaa":"3","name":"Komín","sport":"climbing","website":"https://www.horosvaz.cz/skaly-cesta-63293/"}},"11911914970":{"lat":48.9905738,"lon":15.9933985,"ts":"2024-05-17T08:48:23Z","tz":1,"tags":{"climbing":"route_bottom","climbing:grade:uiaa":"3","name":"Plotnička","sport":"climbing","website":"https://www.horosvaz.cz/skaly-cesta-63286/"}},"11911914971":{"lat":48.9905727,"lon":15.9933773,"ts":"2024-05-17T08:48:23Z","tz":1,"tags":{"climbing":"route_bottom","climbing:grade:uiaa":"3","name":"Zářez","sport":"climbing","website":"https://www.horosvaz.cz/skaly-cesta-63285/"}},"11911914972":{"lat":48.9905717,"lon":15.9933562,"ts":"2024-05-17T08:48:23Z","tz":1,"tags":{"climbing":"route_bottom","climbing:grade:uiaa":"4","name":"Lískáček","sport":"climbing","website":"https://www.horosvaz.cz/skaly-cesta-63284/"}},"11911914973":{"lat":48.9905706,"lon":15.9933351,"ts":"2024-05-17T08:48:23Z","tz":1,"tags":{"climbing":"route_bottom","climbing:grade:uiaa":"4","name":"Oči plné špíny","sport":"climbing","website":"https://www.horosvaz.cz/skaly-cesta-63283/"}},"11911914974":{"lat":48.9905695,"lon":15.9933139,"ts":"2024-05-17T08:48:23Z","tz":1,"tags":{"climbing":"route_bottom","climbing:grade:uiaa":"4","name":"Lokrománie","sport":"climbing","website":"https://www.horosvaz.cz/skaly-cesta-63282/"}},"11911914975":{"lat":48.9905684,"lon":15.9932928,"ts":"2024-05-17T08:48:23Z","tz":1,"tags":{"climbing":"route_bottom","climbing:grade:uiaa":"3","name":"Komín","sport":"climbing","website":"https://www.horosvaz.cz/skaly-cesta-63281/"}},"11911914976":{"lat":48.9905673,"lon":15.9932716,"ts":"2024-05-17T08:48:23Z","tz":1,"tags":{"climbing":"route_bottom","climbing:grade:uiaa":"4+","name":"Bílý strom","sport":"climbing","website":"https://www.horosvaz.cz/skaly-cesta-63280/"}},"11911914977":{"lat":48.9905662,"lon":15.9932505,"ts":"2024-05-17T08:48:23Z","tz":1,"tags":{"climbing":"route_bottom","climbing:grade:uiaa":"4","name":"JZ hrana","sport":"climbing","website":"https://www.horosvaz.cz/skaly-cesta-63279/"}},"11911914978":{"lat":48.9905652,"lon":15.9932293,"ts":"2024-05-17T08:48:23Z","tz":1,"tags":{"climbing":"route_bottom","climbing:grade:uiaa":"4+","name":"Borovicový slalom","sport":"climbing","website":"https://www.horosvaz.cz/skaly-cesta-63278/"}},"11911914979":{"lat":48.9905641,"lon":15.9932082,"ts":"2024-05-17T08:48:23Z","tz":1,"tags":{"climbing":"route_bottom","climbing:grade:uiaa":"4","name":"Varianta borovicového slalomu","sport":"climbing","website":"https://www.horosvaz.cz/skaly-cesta-63277/"}},"11911914980":{"lat":48.990563,"lon":15.993187,"ts":"2024-05-17T08:48:23Z","tz":1,"tags":{"climbing":"route_bottom","climbing:grade:uiaa":"4","name":"Ztracený domov","sport":"climbing","website":"https://www.horosvaz.cz/skaly-cesta-63276/"}},"11911914981":{"lat":48.9905619,"lon":15.9931659,"ts":"2024-05-17T08:48:23Z","tz":1,"tags":{"climbing":"route_bottom","climbing:grade:uiaa":"4+","name":"Zatracený vedro","sport":"climbing","website":"https://www.horosvaz.cz/skaly-cesta-63275/"}},"11911914982":{"lat":48.9905608,"lon":15.9931447,"ts":"2024-05-17T08:48:23Z","tz":1,"tags":{"climbing":"route_bottom","climbing:grade:uiaa":"5","name":"Padací stěnka","sport":"climbing","website":"https://www.horosvaz.cz/skaly-cesta-63274/"}},"11911915098":{"lat":48.9905404,"lon":15.9936747,"ts":"2024-05-17T08:47:40Z","tz":1,"tags":{"climbing":"route_bottom","climbing:grade:uiaa":"7-","name":"El Nino","sport":"climbing","website":"https://www.horosvaz.cz/skaly-cesta-44408/"}},"11911915099":{"lat":48.9905481,"lon":15.9936959,"ts":"2024-05-17T08:47:40Z","tz":1,"tags":{"climbing":"route_bottom","climbing:grade:uiaa":"6+","name":"Stará cesta","sport":"climbing","website":"https://www.horosvaz.cz/skaly-cesta-44404/"}},"11911915100":{"lat":48.9905558,"lon":15.993717,"ts":"2024-05-17T08:47:40Z","tz":1,"tags":{"climbing":"route_bottom","climbing:grade:uiaa":"4+","name":"Varianta Pilíře","sport":"climbing","website":"https://www.horosvaz.cz/skaly-cesta-63292/"}},"11911915101":{"lat":48.9905635,"lon":15.9937381,"ts":"2024-05-17T08:47:40Z","tz":1,"tags":{"climbing":"route_bottom","climbing:grade:uiaa":"4+","name":"Pilíř","sport":"climbing","website":"https://www.horosvaz.cz/skaly-cesta-63291/"}},"11911915102":{"lat":48.9905712,"lon":15.9937592,"ts":"2024-05-17T08:47:40Z","tz":1,"tags":{"climbing":"route_bottom","climbing:grade:uiaa":"3","name":"Pravá spára","sport":"climbing","website":"https://www.horosvaz.cz/skaly-cesta-63290/"}},"11911915103":{"lat":48.9905789,"lon":15.9937803,"ts":"2024-05-17T08:47:40Z","tz":1,"tags":{"climbing":"route_bottom","climbing:grade:uiaa":"4","name":"Aprílový žertík","sport":"climbing","website":"https://www.horosvaz.cz/skaly-cesta-63289/"}},"11911915104":{"lat":48.9905866,"lon":15.9938015,"ts":"2024-05-17T08:47:40Z","tz":1,"tags":{"climbing":"route_bottom","climbing:grade:uiaa":"3","name":"Levá spára","sport":"climbing","website":"https://www.horosvaz.cz/skaly-cesta-63288/"}},"11911915105":{"lat":48.9905943,"lon":15.9938226,"ts":"2024-05-17T08:47:40Z","tz":1,"tags":{"climbing":"route_bottom","climbing:grade:uiaa":"4","name":"Spálený ocas","sport":"climbing","website":"https://www.horosvaz.cz/skaly-cesta-63287/"}},"11911924173":{"lat":48.9889167,"lon":15.9911514,"ts":"2024-05-17T08:54:22Z","tz":1,"tags":{"climbing":"route_bottom","climbing:grade:uiaa":"2","name":"Přepadová","sport":"climbing","website":"https://www.horosvaz.cz/skaly-cesta-52540/"}},"11911924174":{"lat":48.9889289,"lon":15.9911685,"ts":"2024-05-17T08:54:22Z","tz":1,"tags":{"climbing":"route_bottom","climbing:grade:uiaa":"2","name":"Premiant","sport":"climbing","website":"https://www.horosvaz.cz/skaly-cesta-52537/"}},"11911924175":{"lat":48.9889384,"lon":15.9911918,"ts":"2024-05-17T08:54:22Z","tz":1,"tags":{"climbing":"route_bottom","climbing:grade:uiaa":"3","name":"Povinná docházka","sport":"climbing","website":"https://www.horosvaz.cz/skaly-cesta-52535/"}},"11911924176":{"lat":48.9889404,"lon":15.991221,"ts":"2024-05-17T08:54:22Z","tz":1,"tags":{"climbing":"route_bottom","climbing:grade:uiaa":"2","name":"Za školou","sport":"climbing","website":"https://www.horosvaz.cz/skaly-cesta-52538/"}},"11911924177":{"lat":48.9889403,"lon":15.9912464,"ts":"2024-05-17T08:54:22Z","tz":1,"tags":{"climbing":"route_bottom","climbing:grade:uiaa":"3","name":"Skákací den","sport":"climbing","website":"https://www.horosvaz.cz/skaly-cesta-52536/"}},"11911924178":{"lat":48.9889391,"lon":15.9912739,"ts":"2024-05-17T08:54:22Z","tz":1,"tags":{"climbing":"route_bottom","climbing:grade:uiaa":"4","name":"Přejezdy pro hvězdy","sport":"climbing","website":"https://www.horosvaz.cz/skaly-cesta-52539/"}},"11911924179":{"lat":48.9889434,"lon":15.9912919,"ts":"2024-05-17T08:54:22Z","tz":1,"tags":{"climbing":"route_bottom","climbing:grade:uiaa":"4+","name":"Přátelé","sport":"climbing","website":"https://www.horosvaz.cz/skaly-cesta-52541/"}},"11913104530":{"lat":48.9912877,"lon":15.991106,"ts":"2024-05-17T11:54:28Z","tz":1,"tags":{"climbing":"route_bottom","climbing:grade:uiaa":"5-","name":"Stará cesta","sport":"climbing","website":"https://www.horosvaz.cz/skaly-cesta-52371/"}},"11913104531":{"lat":48.9913031,"lon":15.9911112,"ts":"2024-05-17T11:54:28Z","tz":1,"tags":{"climbing":"route_bottom","climbing:grade:uiaa":"5","name":"Zelený sliz","sport":"climbing","website":"https://www.horosvaz.cz/skaly-cesta-52369/"}},"11913104532":{"lat":48.9913185,"lon":15.9911164,"ts":"2024-05-17T11:54:28Z","tz":1,"tags":{"climbing":"route_bottom","climbing:grade:uiaa":"5-","name":"Koroze","sport":"climbing","website":"https://www.horosvaz.cz/skaly-cesta-52370/"}},"11913104533":{"lat":48.9913339,"lon":15.9911216,"ts":"2024-05-17T11:54:28Z","tz":1,"tags":{"climbing":"route_bottom","climbing:grade:uiaa":"3","name":"Nebezpečná procházka","sport":"climbing","website":"https://www.horosvaz.cz/skaly-cesta-52372/"}},"11913453650":{"lat":48.9910677,"lon":15.9910219,"ts":"2024-05-17T14:27:48Z","tz":1,"tags":{"climbing":"route_bottom","climbing:grade:uiaa":"4","name":"Jubilejní","sport":"climbing","website":"https://www.horosvaz.cz/skaly-cesta-52375/"}},"11913453651":{"lat":48.99108,"lon":15.9910328,"ts":"2024-05-17T14:27:48Z","tz":1,"tags":{"climbing":"route_bottom","climbing:grade:uiaa":"6-","name":"Kotva","sport":"climbing","website":"https://www.horosvaz.cz/skaly-cesta-52374/"}},"11913453652":{"lat":48.9910923,"lon":15.9910437,"ts":"2024-05-17T14:27:48Z","tz":1,"tags":{"climbing":"route_bottom","climbing:grade:uiaa":"6-","name":"Kormidlo","sport":"climbing","website":"https://www.horosvaz.cz/skaly-cesta-52376/"}},"11913453653":{"lat":48.9911047,"lon":15.9910545,"ts":"2024-05-17T14:27:48Z","tz":1,"tags":{"climbing":"route_bottom","climbing:grade:uiaa":"5","name":"Varianta záchranného kruhu","sport":"climbing","website":"https://www.horosvaz.cz/skaly-cesta-52377/"}},"11913453654":{"lat":48.991117,"lon":15.9910654,"ts":"2024-05-17T14:27:48Z","tz":1,"tags":{"climbing":"route_bottom","climbing:grade:uiaa":"5+","name":"Záchranný kruh","sport":"climbing","website":"https://www.horosvaz.cz/skaly-cesta-52378/"}},"11913453655":{"lat":48.9911293,"lon":15.9910763,"ts":"2024-05-17T14:27:48Z","tz":1,"tags":{"climbing":"route_bottom","climbing:grade:uiaa":"5","name":"Plnou parou vzad","sport":"climbing","website":"https://www.horosvaz.cz/skaly-cesta-52379/"}},"11913453656":{"lat":48.9911416,"lon":15.9910872,"ts":"2024-05-17T14:27:48Z","tz":1,"tags":{"climbing":"route_bottom","climbing:grade:uiaa":"4","name":"Mořská nemoc","sport":"climbing","website":"https://www.horosvaz.cz/skaly-cesta-52380/"}},"11913453657":{"lat":48.9911539,"lon":15.9910981,"ts":"2024-05-17T14:27:48Z","tz":1,"tags":{"climbing":"route_bottom","climbing:grade:uiaa":"4","name":"Lodní šroub","sport":"climbing","website":"https://www.horosvaz.cz/skaly-cesta-52381/"}},"11913471531":{"lat":48.9909218,"lon":15.9911141,"ts":"2024-05-17T14:28:09Z","tz":1,"tags":{"climbing":"route_bottom","climbing:grade:uiaa":"3","name":"Mařenka","sport":"climbing","website":"https://www.horosvaz.cz/skaly-cesta-52362/"}},"11913471532":{"lat":48.9909333,"lon":15.9911273,"ts":"2024-05-17T14:28:09Z","tz":1,"tags":{"climbing":"route_bottom","climbing:grade:uiaa":"4-","name":"Jeníček","sport":"climbing","website":"https://www.horosvaz.cz/skaly-cesta-52363/"}},"11913471533":{"lat":48.9909449,"lon":15.9911405,"ts":"2024-05-17T14:28:09Z","tz":1,"tags":{"climbing":"route_bottom","climbing:grade:uiaa":"2","name":"Stará cesta","sport":"climbing","website":"https://www.horosvaz.cz/skaly-cesta-52364/"}},"11913471534":{"lat":48.9909564,"lon":15.9911537,"ts":"2024-05-17T14:28:09Z","tz":1,"tags":{"climbing":"route_bottom","climbing:grade:uiaa":"4","name":"Jahůdková","sport":"climbing","website":"https://www.horosvaz.cz/skaly-cesta-52365/"}},"11913471535":{"lat":48.990968,"lon":15.9911669,"ts":"2024-05-17T14:28:09Z","tz":1,"tags":{"climbing":"route_bottom","climbing:grade:uiaa":"5","name":"Poslední zvonění","sport":"climbing","website":"https://www.horosvaz.cz/skaly-cesta-52366/"}},"11913471536":{"lat":48.9909796,"lon":15.9911801,"ts":"2024-05-17T14:28:09Z","tz":1,"tags":{"climbing":"route_bottom","climbing:grade:uiaa":"4","name":"Drolivka","sport":"climbing","website":"https://www.horosvaz.cz/skaly-cesta-52367/"}},"11913471537":{"lat":48.9909911,"lon":15.9911934,"ts":"2024-05-17T14:28:09Z","tz":1,"tags":{"climbing":"route_bottom","climbing:grade:uiaa":"4+","name":"Modřínková","sport":"climbing","website":"https://www.horosvaz.cz/skaly-cesta-52368/"}},"11913483950":{"lat":48.9906355,"lon":15.9905797,"ts":"2024-05-17T14:28:42Z","tz":1,"tags":{"climbing":"route_bottom","climbing:grade:uiaa":"3","name":"Přeskok","sport":"climbing","website":"https://www.horosvaz.cz/skaly-cesta-23862/"}},"11913483951":{"lat":48.9906495,"lon":15.9905856,"ts":"2024-05-17T14:28:42Z","tz":1,"tags":{"climbing":"route_bottom","climbing:grade:uiaa":"7-","name":"Danova","sport":"climbing","website":"https://www.horosvaz.cz/skaly-cesta-23863/"}},"11913483952":{"lat":48.9906635,"lon":15.9905915,"ts":"2024-05-17T14:28:42Z","tz":1,"tags":{"climbing":"route_bottom","climbing:grade:uiaa":"6+","name":"Bike","sport":"climbing","website":"https://www.horosvaz.cz/skaly-cesta-23864/"}},"11913483953":{"lat":48.9906775,"lon":15.9905974,"ts":"2024-05-17T14:28:42Z","tz":1,"tags":{"climbing":"route_bottom","climbing:grade:uiaa":"5","name":"Paragánská padina","sport":"climbing","website":"https://www.horosvaz.cz/skaly-cesta-23860/"}},"11913483954":{"lat":48.9906915,"lon":15.9906033,"ts":"2024-05-17T14:28:42Z","tz":1,"tags":{"climbing":"route_bottom","climbing:grade:uiaa":"4","name":"Krakenovy ostny","sport":"climbing","website":"https://www.horosvaz.cz/skaly-cesta-23859/"}},"11913483955":{"lat":48.9907055,"lon":15.9906092,"ts":"2024-05-17T14:28:42Z","tz":1,"tags":{"climbing":"route_bottom","climbing:grade:uiaa":"4","name":"Nox","sport":"climbing","website":"https://www.horosvaz.cz/skaly-cesta-23865/"}},"11913483956":{"lat":48.9907195,"lon":15.9906151,"ts":"2024-05-17T14:28:42Z","tz":1,"tags":{"climbing":"route_bottom","climbing:grade:uiaa":"7","name":"Krváček","sport":"climbing","website":"https://www.horosvaz.cz/skaly-cesta-23866/"}},"11913483957":{"lat":48.9907335,"lon":15.990621,"ts":"2024-05-17T14:28:42Z","tz":1,"tags":{"climbing":"route_bottom","climbing:grade:uiaa":"7-","name":"Břicho","sport":"climbing","website":"https://www.horosvaz.cz/skaly-cesta-23867/"}},"11913483958":{"lat":48.9907475,"lon":15.9906269,"ts":"2024-05-17T14:28:42Z","tz":1,"tags":{"climbing":"route_bottom","climbing:grade:uiaa":"4+","name":"Stará","sport":"climbing","website":"https://www.horosvaz.cz/skaly-cesta-23868/"}},"11913483959":{"lat":48.9907615,"lon":15.9906328,"ts":"2024-05-17T14:28:42Z","tz":1,"tags":{"climbing":"route_bottom","climbing:grade:uiaa":"4","name":"Malina","sport":"climbing","website":"https://www.horosvaz.cz/skaly-cesta-23861/"}},"11913494981":{"lat":48.990048,"lon":15.9944882,"ts":"2024-05-17T14:29:49Z","tz":1,"tags":{"climbing":"route_bottom","climbing:grade:uiaa":"1","name":"Jednička","sport":"climbing","website":"https://www.horosvaz.cz/skaly-cesta-52256/"}},"11913494982":{"lat":48.9900488,"lon":15.9944745,"ts":"2024-05-17T14:29:49Z","tz":1,"tags":{"climbing":"route_bottom","climbing:grade:uiaa":"3","name":"Mechová","sport":"climbing","website":"https://www.horosvaz.cz/skaly-cesta-52262/"}},"11913494983":{"lat":48.9900495,"lon":15.9944609,"ts":"2024-05-17T14:29:49Z","tz":1,"tags":{"climbing":"route_bottom","climbing:grade:uiaa":"4","name":"Kapradí","sport":"climbing","website":"https://www.horosvaz.cz/skaly-cesta-52261/"}},"11913494984":{"lat":48.9900502,"lon":15.9944472,"ts":"2024-05-17T14:29:49Z","tz":1,"tags":{"climbing":"route_bottom","climbing:grade:uiaa":"5+","name":"Lůno Venušino","sport":"climbing","website":"https://www.horosvaz.cz/skaly-cesta-52260/"}},"11913494985":{"lat":48.9900509,"lon":15.9944335,"ts":"2024-05-17T14:29:49Z","tz":1,"tags":{"climbing":"route_bottom","climbing:grade:uiaa":"7","name":"Patička","sport":"climbing","website":"https://www.horosvaz.cz/skaly-cesta-52255/"}},"11913494986":{"lat":48.9900516,"lon":15.9944199,"ts":"2024-05-17T14:29:49Z","tz":1,"tags":{"climbing":"route_bottom","climbing:grade:uiaa":"7","name":"Žába","sport":"climbing","website":"https://www.horosvaz.cz/skaly-cesta-52259/"}},"11913494987":{"lat":48.9900523,"lon":15.9944062,"ts":"2024-05-17T14:29:49Z","tz":1,"tags":{"climbing":"route_bottom","climbing:grade:uiaa":"3","name":"Magická přitažlivost V","sport":"climbing","website":"https://www.horosvaz.cz/skaly-cesta-52258/"}},"11913494988":{"lat":48.9900531,"lon":15.9943926,"ts":"2024-05-17T14:29:49Z","tz":1,"tags":{"climbing":"route_bottom","climbing:grade:uiaa":"3","name":"Pískařova etika","sport":"climbing","website":"https://www.horosvaz.cz/skaly-cesta-52257/"}},"11914211008":{"lat":48.9906733,"lon":15.9907108,"ts":"2024-05-17T20:50:41Z","tz":1,"tags":{"climbing":"route_bottom","climbing:grade:uiaa":"5","name":"Taneční mistr","sport":"climbing","website":"https://www.horosvaz.cz/skaly-cesta-63272/"}},"11914211009":{"lat":48.9906836,"lon":15.9907244,"ts":"2024-05-17T20:50:41Z","tz":1,"tags":{"climbing":"route_bottom","climbing:grade:uiaa":"6","name":"Znojemský lapiduch","sport":"climbing","website":"https://www.horosvaz.cz/skaly-cesta-23884/"}},"11914211010":{"lat":48.990694,"lon":15.9907381,"ts":"2024-05-17T20:50:41Z","tz":1,"tags":{"climbing":"route_bottom","climbing:grade:uiaa":"7-","name":"Zrcadlo","sport":"climbing","website":"https://www.horosvaz.cz/skaly-cesta-23877/"}},"11914211011":{"lat":48.9907044,"lon":15.9907517,"ts":"2024-05-17T20:50:41Z","tz":1,"tags":{"climbing":"route_bottom","climbing:grade:uiaa":"7-","name":"Půlměsíční","sport":"climbing","website":"https://www.horosvaz.cz/skaly-cesta-23883/"}},"11914211012":{"lat":48.9907147,"lon":15.9907653,"ts":"2024-05-17T20:50:41Z","tz":1,"tags":{"climbing":"route_bottom","climbing:grade:uiaa":"8","name":"Shell V- power","sport":"climbing","website":"https://www.horosvaz.cz/skaly-cesta-23882/"}},"11914211013":{"lat":48.9907251,"lon":15.990779,"ts":"2024-05-17T20:50:41Z","tz":1,"tags":{"climbing":"route_bottom","climbing:grade:uiaa":"7","name":"Vítr z h.d","sport":"climbing","website":"https://www.horosvaz.cz/skaly-cesta-23881/"}},"11914211014":{"lat":48.9907355,"lon":15.9907926,"ts":"2024-05-17T20:50:41Z","tz":1,"tags":{"climbing":"route_bottom","climbing:grade:uiaa":"7","name":"Lékařské tajemství","sport":"climbing","website":"https://www.horosvaz.cz/skaly-cesta-85365/"}},"11914211015":{"lat":48.9907458,"lon":15.9908062,"ts":"2024-05-17T20:50:41Z","tz":1,"tags":{"climbing":"route_bottom","climbing:grade:uiaa":"7-","name":"Kozí noha","sport":"climbing","website":"https://www.horosvaz.cz/skaly-cesta-23880/"}},"11914211016":{"lat":48.9907562,"lon":15.9908199,"ts":"2024-05-17T20:50:41Z","tz":1,"tags":{"climbing":"route_bottom","climbing:grade:uiaa":"7-","name":"Varianta Kozí nohy","sport":"climbing","website":"https://www.horosvaz.cz/skaly-cesta-63269/"}},"11914211017":{"lat":48.9907665,"lon":15.9908335,"ts":"2024-05-17T20:50:41Z","tz":1,"tags":{"climbing":"route_bottom","climbing:grade:uiaa":"7-","name":"Virus","sport":"climbing","website":"https://www.horosvaz.cz/skaly-cesta-23879/"}},"11914211018":{"lat":48.9907769,"lon":15.9908471,"ts":"2024-05-17T20:50:41Z","tz":1,"tags":{"climbing":"route_bottom","climbing:grade:uiaa":"6-","name":"Šuplík direkt","sport":"climbing","website":"https://www.horosvaz.cz/skaly-cesta-23878/"}},"11914211019":{"lat":48.9907873,"lon":15.9908608,"ts":"2024-05-17T20:50:41Z","tz":1,"tags":{"climbing":"route_bottom","climbing:grade:uiaa":"6-","name":"Levá varianta Šuplíku","sport":"climbing","website":"https://www.horosvaz.cz/skaly-cesta-23876/"}},"11914211020":{"lat":48.9907976,"lon":15.9908744,"ts":"2024-05-17T20:50:41Z","tz":1,"tags":{"climbing":"route_bottom","climbing:grade:uiaa":"6-","name":"Igelit","sport":"climbing","website":"https://www.horosvaz.cz/skaly-cesta-23875/"}},"11914211021":{"lat":48.990808,"lon":15.990888,"ts":"2024-05-17T20:50:41Z","tz":1,"tags":{"climbing":"route_bottom","climbing:grade:uiaa":"4","name":"Zapomenutý název","sport":"climbing","website":"https://www.horosvaz.cz/skaly-cesta-23869/"}},"11914211022":{"lat":48.9908184,"lon":15.9909017,"ts":"2024-05-17T20:50:41Z","tz":1,"tags":{"climbing":"route_bottom","climbing:grade:uiaa":"4","name":"Hec","sport":"climbing","website":"https://www.horosvaz.cz/skaly-cesta-23871/"}},"11914211023":{"lat":48.9908287,"lon":15.9909153,"ts":"2024-05-17T20:50:41Z","tz":1,"tags":{"climbing":"route_bottom","climbing:grade:uiaa":"5","name":"Lego","sport":"climbing","website":"https://www.horosvaz.cz/skaly-cesta-23873/"}},"11914211024":{"lat":48.9908391,"lon":15.9909289,"ts":"2024-05-17T20:50:41Z","tz":1,"tags":{"climbing":"route_bottom","climbing:grade:uiaa":"4","name":"Psí oči","sport":"climbing","website":"https://www.horosvaz.cz/skaly-cesta-23870/"}},"11914211025":{"lat":48.9908495,"lon":15.9909426,"ts":"2024-05-17T20:50:41Z","tz":1,"tags":{"climbing":"route_bottom","climbing:grade:uiaa":"2","name":"Schody","sport":"climbing","website":"https://www.horosvaz.cz/skaly-cesta-23872/"}},"11914216511":{"lat":48.9900345,"lon":15.9943122,"ts":"2024-05-17T20:51:16Z","tz":1,"tags":{"climbing":"route_bottom","climbing:grade:uiaa":"5","name":"První koupání","sport":"climbing","website":"https://www.horosvaz.cz/skaly-cesta-44399/"}},"11914216512":{"lat":48.9900433,"lon":15.9943036,"ts":"2024-05-17T20:51:16Z","tz":1,"tags":{"climbing":"route_bottom","climbing:grade:uiaa":"8-","name":"Vodní svět","sport":"climbing","website":"https://www.horosvaz.cz/skaly-cesta-44377/"}},"11914216513":{"lat":48.990052,"lon":15.9942949,"ts":"2024-05-17T20:51:16Z","tz":1,"tags":{"climbing":"route_bottom","climbing:grade:uiaa":"7","name":"Zábavný koutek","sport":"climbing","website":"https://www.horosvaz.cz/skaly-cesta-44381/"}},"11914216514":{"lat":48.9900608,"lon":15.9942863,"ts":"2024-05-17T20:51:16Z","tz":1,"tags":{"climbing":"route_bottom","climbing:grade:uiaa":"6","name":"UFO","sport":"climbing","website":"https://www.horosvaz.cz/skaly-cesta-44380/"}},"11914216515":{"lat":48.9900696,"lon":15.9942777,"ts":"2024-05-17T20:51:16Z","tz":1,"tags":{"climbing":"route_bottom","climbing:grade:uiaa":"8","name":"Očista","sport":"climbing","website":"https://www.horosvaz.cz/skaly-cesta-44371/"}},"11914216516":{"lat":48.9900783,"lon":15.9942691,"ts":"2024-05-17T20:51:16Z","tz":1,"tags":{"climbing":"route_bottom","climbing:grade:uiaa":"8-","name":"Amazonie","sport":"climbing","website":"https://www.horosvaz.cz/skaly-cesta-44385/"}},"11914216517":{"lat":48.9900871,"lon":15.9942605,"ts":"2024-05-17T20:51:16Z","tz":1,"tags":{"climbing":"route_bottom","climbing:grade:uiaa":"6-","name":"Napříč stěnou","sport":"climbing","website":"https://www.horosvaz.cz/skaly-cesta-44379/"}},"11914216518":{"lat":48.9900958,"lon":15.9942518,"ts":"2024-05-17T20:51:16Z","tz":1,"tags":{"climbing":"route_bottom","climbing:grade:uiaa":"7","name":"Gynekolog","sport":"climbing","website":"https://www.horosvaz.cz/skaly-cesta-44374/"}},"11914216519":{"lat":48.9901046,"lon":15.9942432,"ts":"2024-05-17T20:51:16Z","tz":1,"tags":{"climbing":"route_bottom","climbing:grade:uiaa":"6","name":"Opičí muž","sport":"climbing","website":"https://www.horosvaz.cz/skaly-cesta-44370/"}},"11914216520":{"lat":48.9901134,"lon":15.9942346,"ts":"2024-05-17T20:51:16Z","tz":1,"tags":{"climbing":"route_bottom","climbing:grade:uiaa":"7+","name":"Tarzan","sport":"climbing","website":"https://www.horosvaz.cz/skaly-cesta-44384/"}},"11914216521":{"lat":48.9901221,"lon":15.994226,"ts":"2024-05-17T20:51:16Z","tz":1,"tags":{"climbing":"route_bottom","climbing:grade:uiaa":"6-","name":"Malá pomsta","sport":"climbing","website":"https://www.horosvaz.cz/skaly-cesta-44375/"}},"11914216522":{"lat":48.9901309,"lon":15.9942174,"ts":"2024-05-17T20:51:16Z","tz":1,"tags":{"climbing":"route_bottom","climbing:grade:uiaa":"7-","name":"Pomsta kamarádům","sport":"climbing","website":"https://www.horosvaz.cz/skaly-cesta-44406/"}},"11914216523":{"lat":48.9901396,"lon":15.9942087,"ts":"2024-05-17T20:51:16Z","tz":1,"tags":{"climbing":"route_bottom","climbing:grade:uiaa":"6","name":"Titanic","sport":"climbing","website":"https://www.horosvaz.cz/skaly-cesta-44407/"}},"11914216524":{"lat":48.9901484,"lon":15.9942001,"ts":"2024-05-17T20:51:16Z","tz":1,"tags":{"climbing":"route_bottom","climbing:grade:uiaa":"5+","name":"Gordický uzel","sport":"climbing","website":"https://www.horosvaz.cz/skaly-cesta-44376/"}},"11914216525":{"lat":48.9901571,"lon":15.9941915,"ts":"2024-05-17T20:51:16Z","tz":1,"tags":{"climbing":"route_bottom","climbing:grade:uiaa":"6+","name":"Vyvalené oči","sport":"climbing","website":"https://www.horosvaz.cz/skaly-cesta-44386/"}},"11914216526":{"lat":48.9901659,"lon":15.9941829,"ts":"2024-05-17T20:51:16Z","tz":1,"tags":{"climbing":"route_bottom","climbing:grade:uiaa":"6+","name":"Kotrmelec","sport":"climbing","website":"https://www.horosvaz.cz/skaly-cesta-44387/"}},"11914216527":{"lat":48.9901747,"lon":15.9941742,"ts":"2024-05-17T20:51:16Z","tz":1,"tags":{"climbing":"route_bottom","climbing:grade:uiaa":"4","name":"Motyka","sport":"climbing","website":"https://www.horosvaz.cz/skaly-cesta-44388/"}},"11914216528":{"lat":48.9901834,"lon":15.9941656,"ts":"2024-05-17T20:51:16Z","tz":1,"tags":{"climbing":"route_bottom","climbing:grade:uiaa":"2","name":"Luk","sport":"climbing","website":"https://www.horosvaz.cz/skaly-cesta-44389/"}},"11914216529":{"lat":48.9901922,"lon":15.994157,"ts":"2024-05-17T20:51:16Z","tz":1,"tags":{"climbing":"route_bottom","climbing:grade:uiaa":"8","name":"Za co, soudruzi, za co?","sport":"climbing","website":"https://www.horosvaz.cz/skaly-cesta-44378/"}},"11914216530":{"lat":48.9902009,"lon":15.9941484,"ts":"2024-05-17T20:51:16Z","tz":1,"tags":{"climbing":"route_bottom","climbing:grade:uiaa":"6-","name":"Křeč","sport":"climbing","website":"https://www.horosvaz.cz/skaly-cesta-44390/"}},"11914216531":{"lat":48.9902097,"lon":15.9941398,"ts":"2024-05-17T20:51:16Z","tz":1,"tags":{"climbing":"route_bottom","climbing:grade:uiaa":"4","name":"Tětiva","sport":"climbing","website":"https://www.horosvaz.cz/skaly-cesta-44391/"}},"12040012521":{"lat":49.041614,"lon":16.0425111,"ts":"2024-07-07T14:46:33Z","tz":1,"tags":{"author":"I. Harašta, 2022","climbing":"route_bottom","climbing:grade:uiaa":"6+","name":"Slunci do očí","sport":"climbing","website":"https://www.horosvaz.cz/skaly-cesta-118098/"}},"12040012522":{"lat":49.0416052,"lon":16.0424973,"ts":"2024-07-07T14:46:33Z","tz":1,"tags":{"author":"I. Harašta, 2022","climbing":"route_bottom","climbing:grade:uiaa":"4","name":"S bouřkou v zádech","sport":"climbing","website":"https://www.horosvaz.cz/skaly-cesta-118097/"}},"12040012523":{"lat":49.0415964,"lon":16.0424834,"ts":"2024-07-07T14:46:33Z","tz":1,"tags":{"author":"I. Harašta, 2022","climbing":"route_bottom","climbing:grade:uiaa":"6","name":"Život je pestrý","sport":"climbing","website":"https://www.horosvaz.cz/skaly-cesta-118096/"}},"12040012524":{"lat":49.0415877,"lon":16.0424696,"ts":"2024-07-07T14:46:33Z","tz":1,"tags":{"author":"I. Harašta, 2022","climbing":"route_bottom","climbing:grade:uiaa":"6-","name":"Proražená vana","sport":"climbing","website":"https://www.horosvaz.cz/skaly-cesta-118095/"}},"12040012525":{"lat":49.0415789,"lon":16.0424557,"ts":"2024-07-07T14:46:33Z","tz":1,"tags":{"author":"I. Harašta, 2022","climbing":"route_bottom","climbing:grade:uiaa":"7","name":"Šampionát v kácení","sport":"climbing","website":"https://www.horosvaz.cz/skaly-cesta-118094/"}},"12040012526":{"lat":49.0415701,"lon":16.0424418,"ts":"2024-07-07T14:46:33Z","tz":1,"tags":{"author":"I. Harašta, 2022","climbing":"route_bottom","climbing:grade:uiaa":"5-","name":"Malý pitaval","sport":"climbing","website":"https://www.horosvaz.cz/skaly-cesta-118093/"}},"12040012527":{"lat":49.0415614,"lon":16.042428,"ts":"2024-07-07T14:46:33Z","tz":1,"tags":{"author":"I. Harašta, 2022","climbing":"route_bottom","climbing:grade:uiaa":"5+/6-","name":"Chajda u skal","sport":"climbing","website":"https://www.horosvaz.cz/skaly-cesta-118092/"}},"12040012528":{"lat":49.0415526,"lon":16.0424141,"ts":"2024-07-07T14:46:33Z","tz":1,"tags":{"author":"I. Harašta, 2022","climbing":"route_bottom","climbing:grade:uiaa":"4-","name":"Znojemské vlakové nádraží","sport":"climbing","website":"https://www.horosvaz.cz/skaly-cesta-118091/"}},"12040012529":{"lat":49.0415438,"lon":16.0424003,"ts":"2024-07-07T14:46:33Z","tz":1,"tags":{"author":"I. Harašta, 2022","climbing":"route_bottom","climbing:grade:uiaa":"6-/6","name":"Neopatrný zajíc","sport":"climbing","website":"https://www.horosvaz.cz/skaly-cesta-118090/"}},"12040012530":{"lat":49.0415351,"lon":16.0423864,"ts":"2024-07-07T14:46:33Z","tz":1,"tags":{"author":"I. Harašta, 2022","climbing":"route_bottom","climbing:grade:uiaa":"8+","name":"Diagnóza: Kašparák","sport":"climbing","website":"https://www.horosvaz.cz/skaly-cesta-118089/"}},"12040012531":{"lat":49.0415263,"lon":16.0423725,"ts":"2024-07-07T14:46:33Z","tz":1,"tags":{"author":"I. Harašta, 2022","climbing":"route_bottom","climbing:grade:uiaa":"6+","name":"Dělník skal","sport":"climbing","website":"https://www.horosvaz.cz/skaly-cesta-118088/"}},"12040012532":{"lat":49.0415175,"lon":16.0423587,"ts":"2024-07-07T14:46:33Z","tz":1,"tags":{"author":"I. Harašta, 2022","climbing":"route_bottom","climbing:grade:uiaa":"6+","name":"Setkání s čarodějnicí","sport":"climbing","website":"https://www.horosvaz.cz/skaly-cesta-118087/"}},"12040012533":{"lat":49.0415087,"lon":16.0423448,"ts":"2024-07-07T14:46:33Z","tz":1,"tags":{"author":"I. Harašta, 2022","climbing":"route_bottom","climbing:grade:uiaa":"6-","name":"Mačkáš mi hada","sport":"climbing","website":"https://www.horosvaz.cz/skaly-cesta-118086/"}},"12040012534":{"lat":49.0415,"lon":16.042331,"ts":"2024-07-07T14:46:33Z","tz":1,"tags":{"author":"I. Harašta, 2022","climbing":"route_bottom","climbing:grade:uiaa":"6-","name":"Anglická slanina","sport":"climbing","website":"https://www.horosvaz.cz/skaly-cesta-118084/"}},"12040012535":{"lat":49.0414912,"lon":16.0423171,"ts":"2024-07-07T14:46:33Z","tz":1,"tags":{"author":"I. Harašta, 2022","climbing":"route_bottom","climbing:grade:uiaa":"6","name":"Lezec umělcem","sport":"climbing","website":"https://www.horosvaz.cz/skaly-cesta-118083/"}},"12040012536":{"lat":49.0414824,"lon":16.0423032,"ts":"2024-07-07T14:46:33Z","tz":1,"tags":{"author":"I. Harašta, 2022","climbing":"route_bottom","climbing:grade:uiaa":"5-","name":"Myš, zahnaná do kouta, nebojuje","sport":"climbing","website":"https://www.horosvaz.cz/skaly-cesta-118082/"}},"12040012537":{"lat":49.0414737,"lon":16.0422894,"ts":"2024-07-07T14:46:33Z","tz":1,"tags":{"author":"I. Harašta, 2022","climbing":"route_bottom","climbing:grade:uiaa":"6+/7-","name":"Arcimordýř Sarka Farka","sport":"climbing","website":"https://www.horosvaz.cz/skaly-cesta-118081/"}},"12040012538":{"lat":49.0414649,"lon":16.0422755,"ts":"2024-07-07T14:46:33Z","tz":1,"tags":{"author":"I. Harašta, 2022","climbing":"route_bottom","climbing:grade:uiaa":"7/7+","name":"Otec Školastyk","sport":"climbing","website":"https://www.horosvaz.cz/skaly-cesta-118080/"}},"12040012539":{"lat":49.0414549,"lon":16.0422626,"ts":"2024-07-07T14:46:33Z","tz":1,"tags":{"author":"I. Harašta, 2022","climbing":"route_bottom","climbing:grade:uiaa":"6+/7-","name":"Myš na hraně","sport":"climbing","website":"https://www.horosvaz.cz/skaly-cesta-118079/"}},"12040012540":{"lat":49.0414435,"lon":16.0422509,"ts":"2024-07-07T14:46:33Z","tz":1,"tags":{"author":"I. Harašta, 2022","climbing":"route_bottom","climbing:grade:uiaa":"6-","name":"Myš na ruce","sport":"climbing","website":"https://www.horosvaz.cz/skaly-cesta-118078/"}},"12040012541":{"lat":49.0414321,"lon":16.0422391,"ts":"2024-07-07T14:46:33Z","tz":1,"tags":{"author":"I. Harašta, M. Pazdera, 2021","climbing":"route_bottom","climbing:grade:uiaa":"6-","name":"Krvelačné bestie","sport":"climbing","website":"https://www.horosvaz.cz/skaly-cesta-118077/"}},"12040012542":{"lat":49.0414206,"lon":16.0422273,"ts":"2024-07-07T14:46:33Z","tz":1,"tags":{"author":"I. Harašta, M. Pazdera, 2021","climbing":"route_bottom","climbing:grade:uiaa":"6","name":"Ze života mechu","sport":"climbing","website":"https://www.horosvaz.cz/skaly-cesta-118076/"}},"12040012543":{"lat":49.0414092,"lon":16.0422156,"ts":"2024-07-07T14:46:33Z","tz":1,"tags":{"author":"I. Harašta, M. Pazdera, 2021","climbing":"route_bottom","climbing:grade:uiaa":"5+","name":"Asanace","sport":"climbing","website":"https://www.horosvaz.cz/skaly-cesta-118075/"}},"12040012544":{"lat":49.0413978,"lon":16.0422038,"ts":"2024-07-07T14:46:33Z","tz":1,"tags":{"author":"I. Harašta, M. Pazdera, 2021","climbing":"route_bottom","climbing:grade:uiaa":"5-","name":"Kašparomlýnský expres","sport":"climbing","website":"https://www.horosvaz.cz/skaly-cesta-118074/"}},"12040012545":{"lat":49.0413863,"lon":16.0421921,"ts":"2024-07-07T14:46:33Z","tz":1,"tags":{"author":"I. Harašta, M. Pazdera, 2021","climbing":"route_bottom","climbing:grade:uiaa":"6-","name":"Hrom do palice","sport":"climbing","website":"https://www.horosvaz.cz/skaly-cesta-118073/"}},"12040012546":{"lat":49.0413749,"lon":16.0421803,"ts":"2024-07-07T14:46:33Z","tz":1,"tags":{"author":"M. Pazdera, I. Harašta, 2021","climbing":"route_bottom","climbing:grade:uiaa":"6","name":"Rovnou za sluncem","sport":"climbing","website":"https://www.horosvaz.cz/skaly-cesta-118072/"}},"12040012547":{"lat":49.0413635,"lon":16.0421685,"ts":"2024-07-07T14:46:33Z","tz":1,"tags":{"author":"I. Harašta, M. Pazdera, 2021","climbing":"route_bottom","climbing:grade:uiaa":"6+","name":"Okno do duše","sport":"climbing","website":"https://www.horosvaz.cz/skaly-cesta-118071/"}},"12040012548":{"lat":49.041352,"lon":16.0421568,"ts":"2024-07-07T14:46:33Z","tz":1,"tags":{"author":"M. Pazdera, I. Harašta, 2021","climbing":"route_bottom","climbing:grade:uiaa":"6+","name":"Nouzový stav","sport":"climbing","website":"https://www.horosvaz.cz/skaly-cesta-118070/"}},"12040012549":{"lat":49.0413406,"lon":16.042145,"ts":"2024-07-07T14:46:33Z","tz":1,"tags":{"author":"I. Harašta, L. Ferková, 2021","climbing":"route_bottom","climbing:grade:uiaa":"5+","name":"Promiňte, mravenečci","sport":"climbing","website":"https://www.horosvaz.cz/skaly-cesta-118069/"}},"12040012550":{"lat":49.0413292,"lon":16.0421333,"ts":"2024-07-07T14:46:33Z","tz":1,"tags":{"author":"I. Harašta, L. Ferková, 2021","climbing":"route_bottom","climbing:grade:uiaa":"5","name":"Liborova","sport":"climbing","website":"https://www.horosvaz.cz/skaly-cesta-118068/"}},"12040012551":{"lat":49.0413177,"lon":16.0421215,"ts":"2024-07-07T14:46:33Z","tz":1,"tags":{"author":"I. Harašta, L. Ferková, 2021","climbing":"route_bottom","climbing:grade:uiaa":"5-","name":"Veverka Ferka","sport":"climbing","website":"https://www.horosvaz.cz/skaly-cesta-118067/"}},"12040012552":{"lat":49.0413063,"lon":16.0421097,"ts":"2024-07-07T14:46:33Z","tz":1,"tags":{"author":"I. Harašta, 2022","climbing":"route_bottom","climbing:grade:uiaa":"6-","name":"Chameleona v koutě nehledej","sport":"climbing","website":"https://www.horosvaz.cz/skaly-cesta-118066/"}},"12040012553":{"lat":49.0412949,"lon":16.042098,"ts":"2024-07-07T14:46:33Z","tz":1,"tags":{"author":"Autoři neznámí","climbing":"route_bottom","climbing:grade:uiaa":"9+","name":"Útěk z reality","sport":"climbing","website":"https://www.horosvaz.cz/skaly-cesta-118065/"}},"12040012554":{"lat":49.0412834,"lon":16.0420862,"ts":"2024-07-07T14:46:33Z","tz":1,"tags":{"author":"Autoři neznámí","climbing":"route_bottom","climbing:grade:uiaa":"8-/8","name":"Na hraně zákona","sport":"climbing","website":"https://www.horosvaz.cz/skaly-cesta-118064/"}},"12040012555":{"lat":49.041272,"lon":16.0420744,"ts":"2024-07-07T14:46:33Z","tz":1,"tags":{"author":"I. Harašta, 2021","climbing":"route_bottom","climbing:grade:uiaa":"8","name":"Siloš Dusisma","sport":"climbing","website":"https://www.horosvaz.cz/skaly-cesta-118063/"}},"12040012556":{"lat":49.0412606,"lon":16.0420627,"ts":"2024-07-07T14:46:33Z","tz":1,"tags":{"author":"V. Wolf, 2015","climbing":"route_bottom","climbing:grade:uiaa":"8-","name":"Průlet zakázán","sport":"climbing","website":"https://www.horosvaz.cz/skaly-cesta-70628/"}},"12040012557":{"lat":49.0412492,"lon":16.0420509,"ts":"2024-07-07T14:46:33Z","tz":1,"tags":{"author":"V. Wolf, 2015","climbing":"route_bottom","climbing:grade:uiaa":"6+","name":"Žlutý mor","sport":"climbing","website":"https://www.horosvaz.cz/skaly-cesta-70627/"}},"12040012558":{"lat":49.0412377,"lon":16.0420392,"ts":"2024-07-07T14:46:33Z","tz":1,"tags":{"author":"Ilja Březina, V. Wolf, 2015","climbing":"route_bottom","climbing:grade:uiaa":"5+","name":"Vstávat a fandit","sport":"climbing","website":"https://www.horosvaz.cz/skaly-cesta-70626/"}},"12040012559":{"lat":49.0412274,"lon":16.0420265,"ts":"2024-07-07T14:46:33Z","tz":1,"tags":{"author":"I. Harašta, M. Pazdera, 2020","climbing":"route_bottom","climbing:grade:uiaa":"6","name":"Žraloci na souši","sport":"climbing","website":"https://www.horosvaz.cz/skaly-cesta-118062/"}},"12040012560":{"lat":49.0412177,"lon":16.0420133,"ts":"2024-07-07T14:46:33Z","tz":1,"tags":{"author":"Autoři neznámí, 2002","climbing":"route_bottom","climbing:grade:uiaa":"6-","name":"Žraloci","sport":"climbing","website":"https://www.horosvaz.cz/skaly-cesta-70625/"}},"12040012561":{"lat":49.041208,"lon":16.042,"ts":"2024-07-07T14:46:33Z","tz":1,"tags":{"author":"V. Wolf, I. Březina, 2015","climbing":"route_bottom","climbing:grade:uiaa":"7-","name":"Vítr v bedně","sport":"climbing","website":"https://www.horosvaz.cz/skaly-cesta-70624/"}},"12040012562":{"lat":49.0411983,"lon":16.0419868,"ts":"2024-07-07T14:46:33Z","tz":1,"tags":{"author":"V. Wolf, I. Březina, 2015","climbing":"route_bottom","climbing:grade:uiaa":"6+","name":"S liškou v zádech","sport":"climbing","website":"https://www.horosvaz.cz/skaly-cesta-70623/"}},"12040012563":{"lat":49.0411886,"lon":16.0419735,"ts":"2024-07-07T14:46:33Z","tz":1,"tags":{"author":"Autoři neznámí","climbing":"route_bottom","climbing:grade:uiaa":"4","name":"Komín","sport":"climbing","website":"https://www.horosvaz.cz/skaly-cesta-70622/"}},"12040012564":{"lat":49.0411789,"lon":16.0419603,"ts":"2024-07-07T14:46:33Z","tz":1,"tags":{"author":"Autoři neznámí, 2002","climbing":"route_bottom","climbing:grade:uiaa":"6","name":"Kout","sport":"climbing","website":"https://www.horosvaz.cz/skaly-cesta-70621/"}},"12040012565":{"lat":49.0411693,"lon":16.0419471,"ts":"2024-07-07T14:46:33Z","tz":1,"tags":{"author":"M. Pazdera, I. Harašta, 2020","climbing":"route_bottom","climbing:grade:uiaa":"7","name":"Přátelství","sport":"climbing","website":"https://www.horosvaz.cz/skaly-cesta-118061/"}},"12040012566":{"lat":49.0411596,"lon":16.0419338,"ts":"2024-07-07T14:46:33Z","tz":1,"tags":{"author":"Autoři neznámí","climbing":"route_bottom","climbing:grade:uiaa":"?","name":"Horizont událostí","sport":"climbing","website":"https://www.horosvaz.cz/skaly-cesta-118060/"}},"12040012567":{"lat":49.0411499,"lon":16.0419206,"ts":"2024-07-07T14:46:33Z","tz":1,"tags":{"author":"Autoři neznámí, 2002","climbing":"route_bottom","climbing:grade:uiaa":"6-","name":"Varianta stěny","sport":"climbing","website":"https://www.horosvaz.cz/skaly-cesta-70620/"}},"12040012568":{"lat":49.0411402,"lon":16.0419074,"ts":"2024-07-07T14:46:33Z","tz":1,"tags":{"author":"Autoři neznámí, 2002","climbing":"route_bottom","climbing:grade:uiaa":"6-","name":"Stěna","sport":"climbing","website":"https://www.horosvaz.cz/skaly-cesta-70619/"}},"12040022441":{"lat":49.0387524,"lon":16.0571208,"ts":"2024-07-07T14:44:17Z","tz":1,"tags":{"author":"Ilja Březina, V. Wolf, 2008","climbing":"route_bottom","climbing:grade:uiaa":"4","name":"Vystrčená kačena","sport":"climbing","website":"https://www.horosvaz.cz/skaly-cesta-52617/"}},"12040022442":{"lat":49.0387577,"lon":16.0570995,"ts":"2024-07-07T14:44:17Z","tz":1,"tags":{"author":"Ilja Březina, V. Wolf, 2008","climbing":"route_bottom","climbing:grade:uiaa":"5+","name":"Kursk","sport":"climbing","website":"https://www.horosvaz.cz/skaly-cesta-52616/"}},"12040022443":{"lat":49.0387631,"lon":16.0570781,"ts":"2024-07-07T14:44:17Z","tz":1,"tags":{"author":"Vladimír Wolf, I. Březina, 2008","climbing":"route_bottom","climbing:grade:uiaa":"6","name":"Ciaf","sport":"climbing","website":"https://www.horosvaz.cz/skaly-cesta-52615/"}},"12040022444":{"lat":49.0387684,"lon":16.0570568,"ts":"2024-07-07T14:44:17Z","tz":1,"tags":{"author":"Vladimír Wolf, I. Březina, 2008","climbing":"route_bottom","climbing:grade:uiaa":"7","name":"Zpátky na stromy","sport":"climbing","website":"https://www.horosvaz.cz/skaly-cesta-52624/"}},"12040022445":{"lat":49.0387737,"lon":16.0570354,"ts":"2024-07-07T14:44:17Z","tz":1,"tags":{"author":"Autoři neznámí","climbing":"route_bottom","climbing:grade:uiaa":"5","name":"Šedý vlk","sport":"climbing","website":"https://www.horosvaz.cz/skaly-cesta-52610/"}},"12040022446":{"lat":49.038779,"lon":16.0570141,"ts":"2024-07-07T14:44:17Z","tz":1,"tags":{"author":"Autoři neznámí","climbing":"route_bottom","climbing:grade:uiaa":"6","name":"Variant Šedého vlka","sport":"climbing","website":"https://www.horosvaz.cz/skaly-cesta-52609/"}},"12040022447":{"lat":49.0387805,"lon":16.0569923,"ts":"2024-07-07T14:44:17Z","tz":1,"tags":{"author":"Vladimír Wolf, I. Březina, 2008","climbing":"route_bottom","climbing:grade:uiaa":"7+","name":"Sandokan","sport":"climbing","website":"https://www.horosvaz.cz/skaly-cesta-52618/"}},"12040022448":{"lat":49.0387805,"lon":16.0569703,"ts":"2024-07-07T14:44:17Z","tz":1,"tags":{"author":"Vladimír Wolf, I. Březina, 2008","climbing":"route_bottom","climbing:grade:uiaa":"7+","name":"Ptačí hnízdo","sport":"climbing","website":"https://www.horosvaz.cz/skaly-cesta-52621/"}},"12040022449":{"lat":49.0387805,"lon":16.0569483,"ts":"2024-07-07T14:44:17Z","tz":1,"tags":{"author":"Ilja Březina, V. Wolf, 2009","climbing":"route_bottom","climbing:grade:uiaa":"8","name":"Insomnie","sport":"climbing","website":"https://www.horosvaz.cz/skaly-cesta-52607/"}},"12040022450":{"lat":49.0387805,"lon":16.0569263,"ts":"2024-07-07T14:44:17Z","tz":1,"tags":{"author":"osadil M. Mezník, RP I. Březina, V. Wolf","climbing":"route_bottom","climbing:grade:uiaa":"8","name":"Michalova středem","sport":"climbing","website":"https://www.horosvaz.cz/skaly-cesta-52613/"}},"12040022451":{"lat":49.0387805,"lon":16.0569043,"ts":"2024-07-07T14:44:17Z","tz":1,"tags":{"author":"Autoři neznámí","climbing":"route_bottom","climbing:grade:uiaa":"5+","name":"Kout","sport":"climbing","website":"https://www.horosvaz.cz/skaly-cesta-52608/"}},"12040022452":{"lat":49.0387805,"lon":16.0568823,"ts":"2024-07-07T14:44:17Z","tz":1,"tags":{"author":"Vladimír Wolf, I. Březina, 2008","climbing":"route_bottom","climbing:grade:uiaa":"7-","name":"Dárek k narozeninám","sport":"climbing","website":"https://www.horosvaz.cz/skaly-cesta-52622/"}},"12040022453":{"lat":49.0387747,"lon":16.0568612,"ts":"2024-07-07T14:44:17Z","tz":1,"tags":{"author":"Autoři neznámí","climbing":"route_bottom","climbing:grade:uiaa":"5","name":"Spárou","sport":"climbing","website":"https://www.horosvaz.cz/skaly-cesta-52612/"}},"12040022454":{"lat":49.0387681,"lon":16.0568403,"ts":"2024-07-07T14:44:17Z","tz":1,"tags":{"author":"Ilja Březina, V. Wolf, 2008","climbing":"route_bottom","climbing:grade:uiaa":"7","name":"Prométheus","sport":"climbing","website":"https://www.horosvaz.cz/skaly-cesta-52623/"}},"12040022455":{"lat":49.0387614,"lon":16.0568193,"ts":"2024-07-07T14:44:17Z","tz":1,"tags":{"author":"Vladimír Wolf, I. Březina, 2008","climbing":"route_bottom","climbing:grade:uiaa":"6-","name":"Vometák","sport":"climbing","website":"https://www.horosvaz.cz/skaly-cesta-52619/"}},"12040022456":{"lat":49.0387547,"lon":16.0567983,"ts":"2024-07-07T14:44:17Z","tz":1,"tags":{"author":"M. Mezník","climbing":"route_bottom","climbing:grade:uiaa":"5+","name":"Levá stěna","sport":"climbing","website":"https://www.horosvaz.cz/skaly-cesta-63304/"}},"12040022457":{"lat":49.038748,"lon":16.0567774,"ts":"2024-07-07T14:44:17Z","tz":1,"tags":{"author":"Autoři neznámí","climbing":"route_bottom","climbing:grade:uiaa":"5","name":"Stará cesta","sport":"climbing","website":"https://www.horosvaz.cz/skaly-cesta-52614/"}},"12040041762":{"lat":49.0388258,"lon":16.0574438,"ts":"2024-07-07T14:43:03Z","tz":1,"tags":{"author":"Vladimír Wolf, I. Březina, 2009","climbing":"route_bottom","climbing:grade:uiaa":"4-","name":"Alergie","sport":"climbing","website":"https://www.horosvaz.cz/skaly-cesta-52627/"}},"12040041763":{"lat":49.0388236,"lon":16.0574651,"ts":"2024-07-07T14:43:03Z","tz":1,"tags":{"author":"Vladimír Wolf, I. Březina, 2009","climbing":"route_bottom","climbing:grade:uiaa":"4","name":"Sečteno a podtrženo","sport":"climbing","website":"https://www.horosvaz.cz/skaly-cesta-52628/"}},"12040041764":{"lat":49.0388215,"lon":16.0574864,"ts":"2024-07-07T14:43:03Z","tz":1,"tags":{"author":"Vladimír Wolf, I. Březina, 2009","climbing":"route_bottom","climbing:grade:uiaa":"5+","name":"Skippy","sport":"climbing","website":"https://www.horosvaz.cz/skaly-cesta-52629/"}},"12040041765":{"lat":49.0388193,"lon":16.0575077,"ts":"2024-07-07T14:43:03Z","tz":1,"tags":{"author":"Vladimír Wolf, I. Březina, 2009","climbing":"route_bottom","climbing:grade:uiaa":"6-","name":"Malý kamínek","sport":"climbing","website":"https://www.horosvaz.cz/skaly-cesta-52630/"}},"12040041766":{"lat":49.0388171,"lon":16.0575291,"ts":"2024-07-07T14:43:03Z","tz":1,"tags":{"author":"Vladimír Wolf, I. Březina, 2009","climbing":"route_bottom","climbing:grade:uiaa":"5+","name":"Zaplať krví!!!","sport":"climbing","website":"https://www.horosvaz.cz/skaly-cesta-52631/"}},"12040041767":{"lat":49.038815,"lon":16.0575504,"ts":"2024-07-07T14:43:03Z","tz":1,"tags":{"author":"Vladimír Wolf, I. Březina, 2010","climbing":"route_bottom","climbing:grade:uiaa":"7","name":"Sirotek","sport":"climbing","website":"https://www.horosvaz.cz/skaly-cesta-52632/"}},"12040041768":{"lat":49.0388128,"lon":16.0575717,"ts":"2024-07-07T14:43:03Z","tz":1,"tags":{"author":"Vladimír Wolf, I. Březina, 2009","climbing":"route_bottom","climbing:grade:uiaa":"6-","name":"Klofan","sport":"climbing","website":"https://www.horosvaz.cz/skaly-cesta-52633/"}},"12040046330":{"lat":48.949607,"lon":16.0505878,"ts":"2024-07-07T14:49:29Z","tz":1,"tags":{"author":"Vladimír Wolf, I. Březina, 2009","climbing":"route_bottom","climbing:grade:uiaa":"2","name":"Mechové schody","sport":"climbing","website":"https://www.horosvaz.cz/skaly-cesta-55509/"}},"12040046331":{"lat":48.9495914,"lon":16.0506116,"ts":"2024-07-07T14:49:29Z","tz":1,"tags":{"author":"Vladimír Wolf, I. Březina, 2009","climbing":"route_bottom","climbing:grade:uiaa":"3","name":"Skleróza","sport":"climbing","website":"https://www.horosvaz.cz/skaly-cesta-55508/"}},"12040046332":{"lat":48.9495758,"lon":16.0506353,"ts":"2024-07-07T14:49:29Z","tz":1,"tags":{"author":"Vladimír Wolf, I. Březina, 2009","climbing":"route_bottom","climbing:grade:uiaa":"3","name":"Očista","sport":"climbing","website":"https://www.horosvaz.cz/skaly-cesta-55507/"}},"12040046333":{"lat":48.9495602,"lon":16.0506591,"ts":"2024-07-07T14:49:29Z","tz":1,"tags":{"author":"Vladimír Wolf, I. Březina, 2009","climbing":"route_bottom","climbing:grade:uiaa":"4","name":"Nástřel","sport":"climbing","website":"https://www.horosvaz.cz/skaly-cesta-55506/"}},"12040046334":{"lat":48.9495446,"lon":16.0506828,"ts":"2024-07-07T14:49:29Z","tz":1,"tags":{"author":"Vladimír Wolf, I. Březina, 2009","climbing":"route_bottom","climbing:grade:uiaa":"3","name":"Výběrčí","sport":"climbing","website":"https://www.horosvaz.cz/skaly-cesta-55505/"}},"12040046335":{"lat":48.949529,"lon":16.0507066,"ts":"2024-07-07T14:49:29Z","tz":1,"tags":{"author":"Vladimír Wolf, I. Březina, 2009","climbing":"route_bottom","climbing:grade:uiaa":"2","name":"Šikmá","sport":"climbing","website":"https://www.horosvaz.cz/skaly-cesta-55504/"}},"12040046336":{"lat":48.9495134,"lon":16.0507304,"ts":"2024-07-07T14:49:29Z","tz":1,"tags":{"author":"Ilja Březina, V. Wolf, 2009","climbing":"route_bottom","climbing:grade:uiaa":"4+","name":"Kyselo","sport":"climbing","website":"https://www.horosvaz.cz/skaly-cesta-55503/"}},"12040046337":{"lat":48.9494978,"lon":16.0507541,"ts":"2024-07-07T14:49:29Z","tz":1,"tags":{"author":"Vladimír Wolf, I. Březina, 2009","climbing":"route_bottom","climbing:grade:uiaa":"5","name":"Silné kyselo","sport":"climbing","website":"https://www.horosvaz.cz/skaly-cesta-55502/"}},"12040046338":{"lat":48.9494822,"lon":16.0507779,"ts":"2024-07-07T14:49:29Z","tz":1,"tags":{"author":"Ilja Březina, V. Wolf, 2009","climbing":"route_bottom","climbing:grade:uiaa":"4-","name":"Kanystr","sport":"climbing","website":"https://www.horosvaz.cz/skaly-cesta-55501/"}},"12040046339":{"lat":48.9494599,"lon":16.0507946,"ts":"2024-07-07T14:49:29Z","tz":1,"tags":{"author":"Ilja Březina, V. Wolf, 2009","climbing":"route_bottom","climbing:grade:uiaa":"5-","name":"Půjčka na oplátku","sport":"climbing","website":"https://www.horosvaz.cz/skaly-cesta-55500/"}},"12040046340":{"lat":48.9494354,"lon":16.0508088,"ts":"2024-07-07T14:49:29Z","tz":1,"tags":{"author":"Ilja Březina, V. Wolf, 2009","climbing":"route_bottom","climbing:grade:uiaa":"4","name":"Hlínomil","sport":"climbing","website":"https://www.horosvaz.cz/skaly-cesta-55499/"}},"12040046341":{"lat":48.9494108,"lon":16.0508231,"ts":"2024-07-07T14:49:29Z","tz":1,"tags":{"author":"Ilja Březina, V. Wolf, 2009","climbing":"route_bottom","climbing:grade:uiaa":"4+","name":"Rudlické propadání","sport":"climbing","website":"https://www.horosvaz.cz/skaly-cesta-55498/"}},"12040046342":{"lat":48.9493862,"lon":16.0508373,"ts":"2024-07-07T14:49:29Z","tz":1,"tags":{"author":"Ilja Březina, V. Wolf, 2009","climbing":"route_bottom","climbing:grade:uiaa":"4+","name":"Křupka","sport":"climbing","website":"https://www.horosvaz.cz/skaly-cesta-55497/"}},"12040046343":{"lat":48.9493616,"lon":16.0508515,"ts":"2024-07-07T14:49:29Z","tz":1,"tags":{"author":"Vladimír Wolf, I. Březina, 2009","climbing":"route_bottom","climbing:grade:uiaa":"5-","name":"Křupka direkt","sport":"climbing","website":"https://www.horosvaz.cz/skaly-cesta-55496/"}},"12040046344":{"lat":48.9493433,"lon":16.0508723,"ts":"2024-07-07T14:49:29Z","tz":1,"tags":{"author":"Vladimír Wolf, I. Březina, 2009","climbing":"route_bottom","climbing:grade:uiaa":"5+","name":"Vyklepaný cholerik","sport":"climbing","website":"https://www.horosvaz.cz/skaly-cesta-55495/"}},"12040046345":{"lat":48.9493284,"lon":16.0508965,"ts":"2024-07-07T14:49:29Z","tz":1,"tags":{"author":"Vladimír Wolf, I. Březina, 2009","climbing":"route_bottom","climbing:grade:uiaa":"6-","name":"Přímý zásah","sport":"climbing","website":"https://www.horosvaz.cz/skaly-cesta-55494/"}},"12040046346":{"lat":48.9493134,"lon":16.0509207,"ts":"2024-07-07T14:49:29Z","tz":1,"tags":{"author":"Vladimír Wolf, I. Březina, 2009","climbing":"route_bottom","climbing:grade:uiaa":"5+","name":"Odpolední smršť","sport":"climbing","website":"https://www.horosvaz.cz/skaly-cesta-55493/"}},"12040046347":{"lat":48.9492985,"lon":16.0509448,"ts":"2024-07-07T14:49:29Z","tz":1,"tags":{"author":"Vladimír Wolf, I. Březina, 2009","climbing":"route_bottom","climbing:grade:uiaa":"3","name":"Sázka na jistotu","sport":"climbing","website":"https://www.horosvaz.cz/skaly-cesta-55492/"}},"12040046348":{"lat":48.9492835,"lon":16.050969,"ts":"2024-07-07T14:49:29Z","tz":1,"tags":{"author":"Vladimír Wolf, I. Březina, 2009","climbing":"route_bottom","climbing:grade:uiaa":"5-","name":"Potrefenec","sport":"climbing","website":"https://www.horosvaz.cz/skaly-cesta-55491/"}},"12040046349":{"lat":48.9492686,"lon":16.0509932,"ts":"2024-07-07T14:49:29Z","tz":1,"tags":{"author":"Vladimír Wolf, I. Březina, 2009","climbing":"route_bottom","climbing:grade:uiaa":"4+","name":"Poslední hrana","sport":"climbing","website":"https://www.horosvaz.cz/skaly-cesta-55490/"}},"12040053001":{"lat":49.0416425,"lon":16.0426616,"ts":"2024-07-07T14:47:25Z","tz":1,"tags":{"author":"Ilja Březina, V. Wolf, 2011","climbing":"route_bottom","climbing:grade:uiaa":"6-","name":"Hrob neznámého vojína","sport":"climbing","website":"https://www.horosvaz.cz/skaly-cesta-70612/"}},"12040053769":{"lat":49.0388106,"lon":16.057593,"ts":"2024-07-07T14:43:03Z","tz":1,"tags":{"author":"Ilja Březina, V. Wolf, 2009","climbing":"route_bottom","climbing:grade:uiaa":"4-","name":"Potemník","sport":"climbing","website":"https://www.horosvaz.cz/skaly-cesta-52634/"}},"12040053770":{"lat":49.038806,"lon":16.0576138,"ts":"2024-07-07T14:43:03Z","tz":1,"tags":{"author":"Vladimír Wolf, I. Březina, 2009","climbing":"route_bottom","climbing:grade:uiaa":"2","name":"Sběrač","sport":"climbing","website":"https://www.horosvaz.cz/skaly-cesta-52635/"}},"12040053771":{"lat":49.0387991,"lon":16.0576341,"ts":"2024-07-07T14:43:03Z","tz":1,"tags":{"author":"Vladimír Wolf, I. Březina, 2009","climbing":"route_bottom","climbing:grade:uiaa":"4-","name":"Žluté nebezpečí","sport":"climbing","website":"https://www.horosvaz.cz/skaly-cesta-52626/"}},"12040053772":{"lat":49.0387922,"lon":16.0576544,"ts":"2024-07-07T14:43:03Z","tz":1,"tags":{"author":"Vladimír Wolf, I. Březina, 2009","climbing":"route_bottom","climbing:grade:uiaa":"6","name":"Rána pěstí","sport":"climbing","website":"https://www.horosvaz.cz/skaly-cesta-52636/"}},"12040053773":{"lat":49.0387853,"lon":16.0576747,"ts":"2024-07-07T14:43:03Z","tz":1,"tags":{"author":"Ilja Březina, V. Wolf, 2009","climbing":"route_bottom","climbing:grade:uiaa":"4+","name":"Bzum-bzum","sport":"climbing","website":"https://www.horosvaz.cz/skaly-cesta-52625/"}},"12040053774":{"lat":49.0387784,"lon":16.0576949,"ts":"2024-07-07T14:43:03Z","tz":1,"tags":{"author":"Vladimír Wolf, I. Březina, 2009","climbing":"route_bottom","climbing:grade:uiaa":"5-","name":"Sluneční hodiny","sport":"climbing","website":"https://www.horosvaz.cz/skaly-cesta-52637/"}},"12040053775":{"lat":49.0387715,"lon":16.0577152,"ts":"2024-07-07T14:43:03Z","tz":1,"tags":{"author":"Ilja Březina, V. Wolf, 2009","climbing":"route_bottom","climbing:grade:uiaa":"5","name":"Nátlak","sport":"climbing","website":"https://www.horosvaz.cz/skaly-cesta-52638/"}},"12040053776":{"lat":49.0387645,"lon":16.0577355,"ts":"2024-07-07T14:43:03Z","tz":1,"tags":{"author":"Vladimír Wolf, I. Březina, 2009","climbing":"route_bottom","climbing:grade:uiaa":"5","name":"Invaze","sport":"climbing","website":"https://www.horosvaz.cz/skaly-cesta-52639/"}},"12040053777":{"lat":49.0387543,"lon":16.0577543,"ts":"2024-07-07T14:43:03Z","tz":1,"tags":{"author":"Ilja Březina, V. Wolf, 2008","climbing":"route_bottom","climbing:grade:uiaa":"5+","name":"Časová tíseň","sport":"climbing","website":"https://www.horosvaz.cz/skaly-cesta-52640/"}},"12040053778":{"lat":49.0387437,"lon":16.0577729,"ts":"2024-07-07T14:43:03Z","tz":1,"tags":{"author":"Vladimír Wolf, I. Březina, 2008","climbing":"route_bottom","climbing:grade:uiaa":"5","name":"Pionýři východu","sport":"climbing","website":"https://www.horosvaz.cz/skaly-cesta-52641/"}},"12040053779":{"lat":49.0387331,"lon":16.0577916,"ts":"2024-07-07T14:43:03Z","tz":1,"tags":{"author":"Ilja Březina, V. Wolf, 2008","climbing":"route_bottom","climbing:grade:uiaa":"4","name":"Zelené údolí","sport":"climbing","website":"https://www.horosvaz.cz/skaly-cesta-52642/"}},"12040053780":{"lat":49.0387225,"lon":16.0578102,"ts":"2024-07-07T14:43:03Z","tz":1,"tags":{"author":"Vladimír Wolf, I. Březina, 2008","climbing":"route_bottom","climbing:grade:uiaa":"3","name":"Vždy připraven","sport":"climbing","website":"https://www.horosvaz.cz/skaly-cesta-52643/"}},"12040053781":{"lat":49.0387119,"lon":16.0578288,"ts":"2024-07-07T14:43:03Z","tz":1,"tags":{"author":"Ilja Březina, V. Wolf, 2008","climbing":"route_bottom","climbing:grade:uiaa":"2","name":"Šmucik rys","sport":"climbing","website":"https://www.horosvaz.cz/skaly-cesta-52644/"}},"12040058969":{"lat":49.0411305,"lon":16.0418941,"ts":"2024-07-07T14:46:33Z","tz":1,"tags":{"author":"V. Wolf, I. Březina, 2011","climbing":"route_bottom","climbing:grade:uiaa":"7-","name":"Kyklopovo oko","sport":"climbing","website":"https://www.horosvaz.cz/skaly-cesta-70618/"}},"12040058970":{"lat":49.0411208,"lon":16.0418809,"ts":"2024-07-07T14:46:33Z","tz":1,"tags":{"author":"Ilja Březina, V. Wolf, 2011","climbing":"route_bottom","climbing:grade:uiaa":"6+","name":"Mys Dobré naděje","sport":"climbing","website":"https://www.horosvaz.cz/skaly-cesta-70617/"}},"12040058971":{"lat":49.0411112,"lon":16.0418676,"ts":"2024-07-07T14:46:33Z","tz":1,"tags":{"author":"V. Wolf, I. Březina, 2015","climbing":"route_bottom","climbing:grade:uiaa":"6+","name":"Pozor plyn","sport":"climbing","website":"https://www.horosvaz.cz/skaly-cesta-70616/"}},"12040058972":{"lat":49.0411015,"lon":16.0418544,"ts":"2024-07-07T14:46:33Z","tz":1,"tags":{"author":"V. Wolf, I. Březina, 2015","climbing":"route_bottom","climbing:grade:uiaa":"6+","name":"Nad liščí stezkou","sport":"climbing","website":"https://www.horosvaz.cz/skaly-cesta-70615/"}},"12040058973":{"lat":49.0410918,"lon":16.0418412,"ts":"2024-07-07T14:46:33Z","tz":1,"tags":{"author":"V. Wolf, I. Březina, 2015","climbing":"route_bottom","climbing:grade:uiaa":"6","name":"Divnohrana","sport":"climbing","website":"https://www.horosvaz.cz/skaly-cesta-70614/"}},"12040058974":{"lat":49.0410821,"lon":16.0418279,"ts":"2024-07-07T14:46:33Z","tz":1,"tags":{"author":"V. Wolf, I. Březina, 2011","climbing":"route_bottom","climbing:grade:uiaa":"6-","name":"Zbabělé stáří","sport":"climbing","website":"https://www.horosvaz.cz/skaly-cesta-70613/"}},"12040058975":{"lat":49.0410724,"lon":16.0418147,"ts":"2024-07-07T14:46:33Z","tz":1,"tags":{"author":"I. Harašta, 2022","climbing":"route_bottom","climbing:grade:uiaa":"6","name":"Lovec sběračem","sport":"climbing","website":"https://www.horosvaz.cz/skaly-cesta-118085/"}}}