{"1267837113":{"lat":43.1307822,"lon":-79.0564576,"ts":"2024-03-31T04:11:30Z","tz":-5,"tags":{"area":"yes","climbing":"crag","layer":"-1","name":"Central","sport":"climbing"}},"1267837114":{"lat":43.1302244,"lon":-79.0554349,"ts":"2024-03-31T04:11:30Z","tz":-5,"tags":{"area":"yes","climbing":"crag","name":"Wonderland","sport":"climbing"}},"1267837115":{"lat":43.1320066,"lon":-79.0560626,"ts":"2024-03-31T04:11:30Z","tz":-5,"tags":{"area":"yes","climbing":"crag","layer":"-1","name":"Bizzaro World","sport":"climbing"}},"1267837116":{"lat":43.1299921,"lon":-79.0569415,"ts":"2024-03-31T04:11:30Z","tz":-5,"tags":{"area":"yes","climbing":"crag","layer":"-1","name":"The Neighbourhood","sport":"climbing"}},"1267837117":{"lat":43.1295736,"lon":-79.0564461,"ts":"2024-03-31T04:11:30Z","tz":-5,"tags":{"area":"yes","climbing":"crag","layer":"-1","name":"Old Country","sport":"climbing"}},"1267837119":{"lat":43.1286745,"lon":-79.0580384,"ts":"2024-03-31T04:11:30Z","tz":-5,"tags":{"area":"yes","climbing":"crag","name":"Upper Romper Room","sport":"climbing"}},"1267837120":{"lat":43.1283066,"lon":-79.0595306,"ts":"2024-03-31T04:11:30Z","tz":-5,"tags":{"area":"yes","climbing":"crag","name":"Waterworld","sport":"climbing"}},"11774826100":{"lat":43.1294181,"lon":-79.0568427,"ts":"2024-03-31T04:11:30Z","tz":-5,"tags":{"climbing":"boulder","name":"X Boulder","natural":"stone","sport":"climbing"}},"11774826101":{"lat":43.1291217,"lon":-79.0583599,"ts":"2024-03-31T04:11:30Z","tz":-5,"tags":{"climbing":"boulder","name":"Beware and Run Boulders","natural":"stone","sport":"climbing"}}}