{"798882822":{"lat":59.8079837,"lon":10.41808,"ts":"2010-07-03T12:17:51Z","tz":1,"tags":{"source":"knowledge","sport":"climbing"}},"2320934637":{"lat":59.7442769,"lon":10.3029227,"ts":"2022-06-23T10:18:20Z","tz":1,"tags":{"climbing:sport":"yes","leisure":"pitch","name":"Gullaug Climbing Field","sport":"climbing"}},"2320943191":{"lat":59.7150355,"lon":10.3368508,"ts":"2015-05-16T14:16:41Z","tz":1,"tags":{"climbing:sport":"yes","leisure":"pitch","name":"Kinnartangrenna Climbing Field","sport":"climbing"}},"3518949566":{"lat":59.7254403,"lon":10.3678267,"ts":"2015-05-17T22:37:39Z","tz":1,"tags":{"climbing:sport":"yes","leisure":"pitch","name":"Hyggen Climbing Field","sport":"climbing"}},"3518949574":{"lat":59.7272099,"lon":10.3592744,"ts":"2015-05-17T22:37:40Z","tz":1,"tags":{"climbing:sport":"yes","leisure":"pitch","name":"Hyggen Vest Climbing Field","sport":"climbing"}},"3521893986":{"lat":59.7171606,"lon":10.3170403,"ts":"2015-05-17T22:37:40Z","tz":1,"tags":{"climbing:sport":"yes","leisure":"pitch","name":"Ytre Lahell Climbing Field","sport":"climbing"}},"3521923283":{"lat":59.7231798,"lon":10.3576147,"ts":"2015-05-17T22:37:40Z","tz":1,"tags":{"climbing:sport":"yes","leisure":"pitch","name":"Mellomveggen Climbing Field","sport":"climbing"}},"6341354188":{"lat":59.7306049,"lon":10.2234672,"ts":"2021-10-09T13:26:48Z","tz":1,"tags":{"entrance":"yes","leisure":"sports_centre","name":"Klatreverket Drammen","opening_hours":"Mo-Th 10:00-22:15; Fr,Su 10:00-20:00; Sa 10:00-18:00","sport":"climbing","website":"https://klatreverket.no/drammen/"}},"9176286175":{"lat":59.8539169,"lon":10.4878602,"ts":"2021-10-16T12:01:48Z","tz":1,"tags":{"name":"Holmen klatresenter","sport":"climbing"}},"9922997517":{"lat":59.8169054,"lon":10.2884029,"ts":"2022-07-31T18:51:09Z","tz":1,"tags":{"sport":"climbing"}}}