{"18547088":{"lat":51.8761157,"lon":10.4771817,"ts":"2025-01-13T17:07:41Z","tz":1,"tags":{"climbing":"area","name":"Okertal","sport":"climbing","type":"site"}},"130896792":{"lat":52.0018947,"lon":10.2115664,"ts":"2021-11-02T07:46:53Z","tz":1,"tags":{"name":"Osterklippe","natural":"cliff","ref":"36","sport":"climbing"}},"166052477":{"lat":51.8712045,"lon":10.4724965,"ts":"2020-09-11T22:41:11Z","tz":1,"tags":{"climbing":"crag","climbing:grade:uiaa:max":"7","climbing:grade:uiaa:min":"5","climbing:length":"10m","climbing:orientation":"S","climbing:quality":"solid","climbing:rock":"granite","climbing:sport":"yes","name":"Forellenkanzel","natural":"cliff"}},"166052485":{"lat":51.8712815,"lon":10.4736864,"ts":"2020-09-11T22:41:11Z","tz":1,"tags":{"climbing":"crag","climbing:grade:uiaa:max":"7","climbing:grade:uiaa:min":"3","climbing:length":"40m","climbing:orientation":"S","climbing:quality":"solid","climbing:rock":"granite","climbing:sport":"yes","name":"Marienwand","natural":"cliff","sport":"climbing"}},"166052486":{"lat":51.8712111,"lon":10.4738891,"ts":"2021-05-11T06:03:30Z","tz":1,"tags":{"climbing":"crag","climbing:grade:uiaa:max":"7","climbing:grade:uiaa:min":"5","climbing:length":"10m","climbing:orientation":"S","climbing:quality":"solid","climbing:rock":"granite","climbing:sport":"yes","name":"Marienwand Vorturm","natural":"cliff"}},"166052488":{"lat":51.8754997,"lon":10.4743494,"ts":"2020-09-11T22:41:11Z","tz":1,"tags":{"climbing":"crag","climbing:grade:uiaa:max":"7","climbing:grade:uiaa:min":"5","climbing:length":"30m","climbing:orientation":"O","climbing:quality":"solid","climbing:rock":"granite","climbing:sport":"yes","name":"Vorfels","natural":"cliff","ref":"OT 144","sport":"climbing","url":"http://felsinfo.alpenverein.de/kletterfelsen/harz_harzvorland/okertal/schlafender_loewe__vorfels.html"}},"166052494":{"lat":51.8712737,"lon":10.474416,"ts":"2020-09-11T22:41:11Z","tz":1,"tags":{"climbing":"crag","climbing:grade:uiaa:max":"7","climbing:grade:uiaa:min":"5","climbing:length":"10m","climbing:orientation":"SO","climbing:quality":"solid","climbing:rock":"granite","climbing:sport":"yes","name":"Teufelskanzel","natural":"cliff"}},"166052498":{"lat":51.875592,"lon":10.4744018,"ts":"2014-08-03T07:10:21Z","tz":1,"tags":{"climbing":"crag","climbing:length":"10m","climbing:orientation":"O","climbing:quality":"solid","climbing:rock":"granite","climbing:sport":"yes","natural":"cliff"}},"166052499":{"lat":51.8755656,"lon":10.4744541,"ts":"2014-08-03T07:10:21Z","tz":1,"tags":{"climbing":"route","climbing:bolted":"no","climbing:grade:uiaa":"4","climbing:length":"30m","climbing:pitches":"2","name":"Ost-Wand"}},"219408528":{"lat":51.8738031,"lon":10.4811053,"ts":"2025-01-13T17:07:41Z","tz":1,"tags":{"climbing":"crag","climbing:rock":"granite","height":"20","name":"Obere Studentenklippe - Bollwerk","natural":"cliff","source":"Bing","sport":"climbing","url":"http://felsinfo.alpenverein.de/kletterfelsen/harz_harzvorland/okertal/obere_studentenklippen_-_bollwerk.html"}},"219408530":{"lat":51.8736187,"lon":10.4806651,"ts":"2025-01-13T17:07:41Z","tz":1,"tags":{"climbing":"crag","name":"Obere Studentenklippe - Bastion","natural":"cliff","source":"Bing","sport":"climbing"}},"219408531":{"lat":51.8736097,"lon":10.4810821,"ts":"2025-01-13T17:07:41Z","tz":1,"tags":{"climbing":"crag","name":"Untere Studentenklippe - Plattenwand","natural":"cliff","source":"Bing","sport":"climbing"}},"225824971":{"lat":51.8670713,"lon":10.483871,"ts":"2018-10-15T12:30:39Z","tz":1,"tags":{"climbing:rock":"granite","climbing:sport":"yes","name":"Hexenküche","natural":"cliff","sport":"climbing"}},"277386128":{"lat":51.8770195,"lon":10.4744363,"ts":"2025-01-13T17:07:41Z","tz":1,"tags":{"climbing":"crag","name":"Adlerklippe","natural":"cliff","ref":"OT 159","sport":"climbing","url":"http://felsinfo.alpenverein.de/kletterfelsen/harz_harzvorland/okertal/adlerklippenvorturm.html"}},"277386130":{"lat":51.8769986,"lon":10.474591,"ts":"2025-01-13T17:07:41Z","tz":1,"tags":{"climbing":"crag","name":"Adlerklippensockel","natural":"cliff","ref":"OT 160","sport":"climbing","urk":"http://felsinfo.alpenverein.de/kletterfelsen/harz_harzvorland/okertal/adlerklippensockel.html"}},"277386132":{"lat":51.8772813,"lon":10.474429,"ts":"2025-01-13T17:07:41Z","tz":1,"tags":{"climbing":"crag","name":"Aussichtsturm","natural":"cliff","ref":"OT 161","sport":"climbing","url":"http://felsinfo.alpenverein.de/kletterfelsen/harz_harzvorland/okertal/adlerklippen_aussichtsturm.html"}},"277386135":{"lat":51.8756647,"lon":10.4743419,"ts":"2014-05-26T12:55:19Z","tz":1,"tags":{"name":"Oberer Fels","natural":"cliff","ref":"OT 146","sport":"climbing"}},"277386137":{"lat":51.8755814,"lon":10.474436,"ts":"2020-09-11T22:41:11Z","tz":1,"tags":{"climbing":"crag","climbing:grade:uiaa:max":"7","climbing:grade:uiaa:min":"5","climbing:length":"30m","climbing:orientation":"O","climbing:quality":"solid","climbing:rock":"granite","climbing:sport":"yes","height":"35","name":"Schlafender Löwe","natural":"cliff","ref":"OT 145","sport":"climbing","url":"http://felsinfo.alpenverein.de/kletterfelsen/harz_harzvorland/okertal/schlafender_loewe__hauptfels.html"}},"282741807":{"lat":51.8762983,"lon":10.4737604,"ts":"2014-05-26T12:55:19Z","tz":1,"tags":{"climbing:length":"10m","climbing:trad":"yes","name":"Klumpen","natural":"cliff","ref":"OT 150","sport":"climbing","url":"http://felsinfo.alpenverein.de/kletterfelsen/harz_harzvorland/okertal/klumpen.html"}},"284418097":{"lat":51.8763125,"lon":10.4737123,"ts":"2014-05-26T12:55:18Z","tz":1,"tags":{"access":"no","climbing:trad":"yes","name":"Klumpen","natural":"cliff","ref":"OT 150","sport":"climbing","url":"http://felsinfo.alpenverein.de/kletterfelsen/harz_harzvorland/okertal/klumpen.html"}},"284418098":{"lat":51.8757029,"lon":10.4743375,"ts":"2014-05-26T12:55:19Z","tz":1,"tags":{"access":"no","name":"Oberer Fels","natural":"cliff","ref":"OT 146","sport":"climbing"}},"284418099":{"lat":51.8763713,"lon":10.4739315,"ts":"2014-05-26T12:55:19Z","tz":1,"tags":{"access":"no","name":"Passo di Ball","natural":"cliff","ref":"OT 149","sport":"climbing","url":"http://felsinfo.alpenverein.de/kletterfelsen/harz_harzvorland/okertal/passo_di_ball__mit_suedostsporn_.html"}},"284418100":{"lat":51.8763189,"lon":10.4739754,"ts":"2014-11-21T09:40:34Z","tz":1,"tags":{"name":"Passo di Ball","natural":"cliff","ref":"OT 149","sport":"climbing","url":"http://felsinfo.alpenverein.de/kletterfelsen/harz_harzvorland/okertal/passo_di_ball__mit_suedostsporn_.html"}},"284418101":{"lat":51.8762233,"lon":10.4740314,"ts":"2014-05-26T12:55:19Z","tz":1,"tags":{"name":"Passo di Ball Südostsporn","natural":"cliff","ref":"OT 148","sport":"climbing","url":"http://felsinfo.alpenverein.de/kletterfelsen/harz_harzvorland/okertal/passo_di_ball__mit_suedostsporn_.html"}},"284418104":{"lat":51.8763748,"lon":10.474164,"ts":"2014-05-26T12:55:19Z","tz":1,"tags":{"access":"no","name":"Überhangfels","natural":"cliff","ref":"OT 147","sport":"climbing","url":"http://felsinfo.alpenverein.de/kletterfelsen/harz_harzvorland/okertal/ueberhangfels.html"}},"284418106":{"lat":51.8763558,"lon":10.4741779,"ts":"2014-05-26T12:55:19Z","tz":1,"tags":{"name":"Überhangfels","natural":"cliff","ref":"OT 147","sport":"climbing","url":"http://felsinfo.alpenverein.de/kletterfelsen/harz_harzvorland/okertal/ueberhangfels.html"}},"294930356":{"lat":51.8769805,"lon":10.4738642,"ts":"2025-01-13T17:07:41Z","tz":1,"tags":{"climbing":"crag","name":"Adlerklippe Nordwand","natural":"cliff","ref":"OT 159","sport":"climbing"}},"294930358":{"lat":51.8769711,"lon":10.4736401,"ts":"2025-01-13T17:07:41Z","tz":1,"tags":{"access":"no","climbing":"crag","name":"Adlerklippe","natural":"cliff","ref":"OT 159","sport":"climbing"}},"294930359":{"lat":51.8768872,"lon":10.4739016,"ts":"2025-01-13T17:07:41Z","tz":1,"tags":{"climbing":"crag","name":"Adlerklippe","natural":"cliff","ref":"OT 159","sport":"climbing","url":"http://felsinfo.alpenverein.de/kletterfelsen/harz_harzvorland/okertal/adlerklippengrat__sued-_und_nordseite_.html"}},"294930360":{"lat":51.8765735,"lon":10.4738874,"ts":"2025-01-13T17:07:41Z","tz":1,"tags":{"climbing":"crag","name":"Rastplatzwand","natural":"cliff","ref":"OT 156","sport":"climbing","url":"http://felsinfo.alpenverein.de/kletterfelsen/harz_harzvorland/okertal/rastplatzwand__rastplatzgrat_.html"}},"295607809":{"lat":51.8756263,"lon":10.4743819,"ts":"2020-09-11T22:41:11Z","tz":1,"tags":{"access":"no","climbing":"crag","climbing:grade:uiaa:max":"7","climbing:grade:uiaa:min":"5","climbing:length":"30m","climbing:orientation":"O","climbing:quality":"solid","climbing:rock":"granite","climbing:sport":"yes","name":"Schlafender Löwe","natural":"cliff","ref":"OT 145","sport":"climbing"}},"313798926":{"lat":51.876917,"lon":10.4730395,"ts":"2025-01-13T17:07:41Z","tz":1,"tags":{"climbing":"crag","name":"Kleine Zacke","natural":"cliff","ref":"OT 158","sport":"climbing"}},"313798930":{"lat":51.8761689,"lon":10.472264,"ts":"2014-11-21T09:40:33Z","tz":1,"tags":{"name":"Warzenwand","natural":"cliff","ref":"OT 154","sport":"climbing"}},"323183047":{"lat":51.8721174,"lon":10.4804185,"ts":"2025-01-13T17:07:41Z","tz":1,"tags":{"climbing":"crag","name":"Großer Treppenstein","natural":"cliff","sport":"climbing","tourism":"viewpoint","wheelchair":"no"}},"323183219":{"lat":51.8675119,"lon":10.4785,"ts":"2021-05-10T06:58:36Z","tz":1,"tags":{"name":"Grosser Kurfürst","natural":"cliff","sport":"climbing"}},"328469248":{"lat":51.8783456,"lon":10.4784352,"ts":"2025-01-13T17:07:41Z","tz":1,"tags":{"climbing":"crag","name":"Ziegenrückenklippe","natural":"cliff","sport":"climbing"}},"617456187":{"lat":51.8720935,"lon":10.4801192,"ts":"2025-01-13T17:07:41Z","tz":1,"tags":{"climbing":"crag","climbing:rock":"granite","climbing:sport":"yes","name":"Großer Treppenstein","natural":"cliff","sport":"climbing","url":"http://felsinfo.alpenverein.de/kletterfelsen/harz_harzvorland/okertal/grosser_treppenstein.html"}},"677251190":{"lat":51.8783432,"lon":10.4792881,"ts":"2025-01-13T17:07:41Z","tz":1,"tags":{"climbing":"boulder","climbing:boulder":"yes","height":"5","name":"Schlösschen","natural":"cliff","sport":"climbing"}},"677251191":{"lat":51.8781498,"lon":10.479007,"ts":"2025-01-13T17:07:41Z","tz":1,"tags":{"climbing":"boulder","climbing:boulder":"yes","name":"Wachturm","natural":"cliff","sport":"climbing"}},"677251218":{"lat":51.8801975,"lon":10.4742388,"ts":"2025-01-13T17:07:41Z","tz":1,"tags":{"climbing":"crag","name":"Ziegenrückensteinbruch","natural":"cliff","sport":"climbing"}},"734924089":{"lat":52.0031607,"lon":10.214065,"ts":"2022-09-25T17:02:05Z","tz":1,"tags":{"height":"20","name":"Wachtmeister","natural":"cliff","ref":"33","sport":"climbing"}},"734924094":{"lat":52.0044379,"lon":10.2143937,"ts":"2021-11-02T07:46:53Z","tz":1,"tags":{"height":"8","natural":"cliff","ref":"30","sport":"climbing"}},"822848172":{"lat":51.8770725,"lon":10.479034,"ts":"2025-01-13T17:07:41Z","tz":1,"tags":{"climbing":"crag","name":"Aussichtskanzel","natural":"cliff","sport":"climbing"}},"861082058":{"lat":51.8737927,"lon":10.4805028,"ts":"2025-01-13T17:07:41Z","tz":1,"tags":{"climbing":"crag","name":"Studentenklippen","natural":"cliff","sport":"climbing"}},"997233263":{"lat":52.003818,"lon":10.2148101,"ts":"2021-11-06T09:20:15Z","tz":1,"tags":{"name":"Glatte Wand","natural":"cliff","ref":"32","sport":"climbing"}},"997233264":{"lat":52.003631,"lon":10.2145785,"ts":"2021-11-06T09:20:15Z","tz":1,"tags":{"name":"Student","natural":"cliff","ref":"32a","sport":"climbing"}},"997233265":{"lat":52.0062029,"lon":10.2152686,"ts":"2022-02-21T16:18:00Z","tz":1,"tags":{"name":"Westliche Sommerwand","natural":"cliff","ref":"23","sport":"climbing"}},"997233266":{"lat":52.0049543,"lon":10.2160433,"ts":"2021-11-06T09:20:15Z","tz":1,"tags":{"climbing":"boulder","name":"Durchschlupf","natural":"cliff"}},"997233267":{"lat":52.0046258,"lon":10.2151025,"ts":"2021-11-12T18:41:13Z","tz":1,"tags":{"name":"Kesselsporn","natural":"cliff","ref":"28","sport":"climbing"}},"997233269":{"lat":52.0059524,"lon":10.2134855,"ts":"2021-11-12T19:32:34Z","tz":1,"tags":{"name":"Eichkatzwand","natural":"cliff","ref":"19","sport":"climbing"}},"997233270":{"lat":52.0055506,"lon":10.2127337,"ts":"2021-11-02T07:46:53Z","tz":1,"tags":{"name":"Honigwand","natural":"cliff","ref":"21","sport":"climbing"}},"997233271":{"lat":52.0042987,"lon":10.2168213,"ts":"2021-11-02T07:46:53Z","tz":1,"tags":{"natural":"cliff","ref":"29","sport":"climbing"}},"997233272":{"lat":52.0056621,"lon":10.2129383,"ts":"2021-11-02T07:46:53Z","tz":1,"tags":{"name":"Wabenwand","natural":"cliff","ref":"20","sport":"climbing"}},"997233273":{"lat":52.0049941,"lon":10.2125417,"ts":"2021-11-13T12:50:31Z","tz":1,"tags":{"height":"10","name":"Kahle Kanzel","natural":"cliff","ref":"22","sport":"climbing"}},"997233275":{"lat":52.0037618,"lon":10.2123901,"ts":"2021-11-06T09:20:15Z","tz":1,"tags":{"name":"Katzenkopf","natural":"cliff","ref":"31","sport":"climbing"}},"997233276":{"lat":52.0027553,"lon":10.2157964,"ts":"2022-09-26T17:58:03Z","tz":1,"tags":{"name":"Südöstliche Zwillingswände","natural":"cliff","ref":"34","sport":"climbing"}},"997233278":{"lat":52.0012143,"lon":10.2138774,"ts":"2021-11-01T21:33:54Z","tz":1,"tags":{"name":"Südlicher Steinbruch","natural":"cliff","sport":"climbing"}},"997237681":{"lat":52.0056143,"lon":10.2150902,"ts":"2021-11-02T07:46:53Z","tz":1,"tags":{"name":"Weiblein im Walde","natural":"cliff","ref":"26","sport":"climbing"}},"997684040":{"lat":52.0047993,"lon":10.2157762,"ts":"2023-09-18T11:37:58Z","tz":1,"tags":{"climbing":"boulder","natural":"cliff"}},"997684042":{"lat":52.0055342,"lon":10.2156882,"ts":"2022-02-21T16:18:00Z","tz":1,"tags":{"name":"Winterwand","natural":"cliff","ref":"25","sport":"climbing"}},"997684047":{"lat":52.0040035,"lon":10.2178326,"ts":"2023-09-18T11:34:59Z","tz":1,"tags":{"climbing":"boulder","name":"Survival Dach","natural":"cliff","sport":"climbing"}},"1001833655":{"lat":52.0050767,"lon":10.2157446,"ts":"2023-09-18T11:37:58Z","tz":1,"tags":{"climbing":"boulder","name":"Sofadach","natural":"cliff"}},"1001833662":{"lat":52.0059324,"lon":10.2168327,"ts":"2021-11-12T18:41:13Z","tz":1,"tags":{"climbing":"boulder","name":"Östliche Sommerwand","natural":"cliff","ref":"24","sport":"climbing"}},"1033296178":{"lat":52.0052384,"lon":10.2149093,"ts":"2023-09-18T11:37:58Z","tz":1,"tags":{"climbing":"boulder","natural":"cliff"}},"1085999225":{"lat":51.8769149,"lon":10.4778523,"ts":"2025-01-13T17:07:41Z","tz":1,"tags":{"climbing":"crag","name":"Schiffsbug","natural":"cliff","sport":"climbing"}},"1085999226":{"lat":51.8770663,"lon":10.47745,"ts":"2025-01-13T17:07:41Z","tz":1,"tags":{"climbing":"crag","name":"Namenloser Fels","natural":"cliff","sport":"climbing"}},"1097760792":{"lat":52.0057113,"lon":10.2194,"ts":"2023-09-18T11:33:31Z","tz":1,"tags":{"climbing:sport":"yes","natural":"cliff","sport":"climbing"}},"1453614557":{"lat":51.8734792,"lon":10.4767541,"ts":"2018-05-22T17:41:39Z","tz":1,"tags":{"name":"Eschwegefelsen","sport":"climbing","tourism":"viewpoint","url":"http://felsinfo.alpenverein.de/index.php?mapId=82&option=com_content&view=article&id=840&fels=3097#scale=18055&centerX=1166270&centerY=6777269&layers=1465218397,152917,0"}},"1722087922":{"lat":51.8755582,"lon":10.4727936,"ts":"2025-01-13T17:07:41Z","tz":1,"tags":{"climbing":"crag","name":"Uhuklippen","natural":"cliff","sport":"climbing"}},"1775360425":{"lat":51.8711939,"lon":10.4724325,"ts":"2012-06-03T20:27:19Z","tz":1,"tags":{"climbing":"route_bottom","climbing:bolts":"4","climbing:grade:uiaa":"6","climbing:length":"10m"}},"1775360429":{"lat":51.8712027,"lon":10.4724172,"ts":"2012-06-03T20:27:19Z","tz":1,"tags":{"climbing":"route_bottom","climbing:bolts":"4","climbing:grade:uiaa":"7+","climbing:length":"10m"}},"1775360483":{"lat":51.8755373,"lon":10.4745152,"ts":"2014-08-03T07:10:21Z","tz":1,"tags":{"climbing":"route_bottom"}},"1775360492":{"lat":51.875594,"lon":10.4743929,"ts":"2014-08-03T07:10:21Z","tz":1,"tags":{"climbing":"route_top"}},"2819004473":{"lat":51.8772707,"lon":10.4741247,"ts":"2025-01-13T17:07:41Z","tz":1,"tags":{"climbing":"crag","name":"Adlereck (Triangel)","natural":"peak","ref":"OT 163","sport":"climbing"}},"2819004474":{"lat":51.8770184,"lon":10.4743877,"ts":"2014-07-29T10:08:35Z","tz":1,"tags":{"name":"Adlerklippe Vorturm","natural":"peak","sport":"climbing"}},"2819004475":{"lat":51.8766687,"lon":10.473257,"ts":"2025-01-13T17:07:41Z","tz":1,"tags":{"climbing":"crag","name":"Adlerklippenzacke","natural":"cliff","ref":"OT 157","sport":"climbing"}},"2819004476":{"lat":51.8765533,"lon":10.4730432,"ts":"2025-01-13T17:07:41Z","tz":1,"tags":{"climbing":"crag","name":"Kleine Wand","natural":"cliff","ref":"155","sport":"climbing"}},"2819004479":{"lat":51.8763383,"lon":10.4726973,"ts":"2022-04-24T18:06:51Z","tz":1,"tags":{"name":"Kunz Zugabenwand","natural":"cliff","ref":"OT 153","sport":"climbing"}},"2819004480":{"lat":51.8763709,"lon":10.4727574,"ts":"2025-01-13T17:07:41Z","tz":1,"tags":{"climbing":"crag","name":"Kunz","natural":"cliff","ref":"OT 152","sport":"climbing","url":"http://felsinfo.alpenverein.de/kletterfelsen/harz_harzvorland/okertal/kunz.html"}},"2819004481":{"lat":51.8771721,"lon":10.474008,"ts":"2025-01-13T17:07:41Z","tz":1,"tags":{"climbing":"crag","name":"Nordmassiv","natural":"peak","ref":"OT 162","sport":"climbing"}},"2819004483":{"lat":51.8763426,"lon":10.4739917,"ts":"2025-01-13T17:07:41Z","tz":1,"tags":{"climbing":"crag","name":"Passo di Ball","natural":"cliff","sport":"climbing"}},"2819018332":{"lat":51.8756009,"lon":10.4744019,"ts":"2025-01-13T17:07:41Z","tz":1,"tags":{"climbing":"crag","name":"Schlafender Löwe","natural":"cliff","sport":"climbing"}},"2819018333":{"lat":51.8764124,"lon":10.4730051,"ts":"2025-01-13T17:07:41Z","tz":1,"tags":{"climbing":"crag","name":"Tofana","natural":"cliff","ref":"OT 151","sport":"climbing","url":"http://felsinfo.alpenverein.de/kletterfelsen/harz_harzvorland/okertal/tofana.html","wikidata":"Q2438724","wikipedia":"de:Tofana (Harz)"}},"2819018335":{"lat":51.8763564,"lon":10.4741968,"ts":"2025-01-13T17:07:41Z","tz":1,"tags":{"climbing":"crag","name":"Überhangfels","natural":"cliff","sport":"climbing"}},"2881659968":{"lat":51.8763001,"lon":10.4737637,"ts":"2025-01-13T17:07:41Z","tz":1,"tags":{"climbing":"crag","name":"Klumpen","natural":"cliff","sport":"climbing"}},"3347707993":{"lat":52.0018643,"lon":10.211513,"ts":"2021-11-13T11:36:46Z","tz":1,"tags":{"climbing:summit_log":"yes","ele":"235","name":"Osterklippe","natural":"peak","sport":"climbing","tourism":"attraction"}},"4548994209":{"lat":51.8724671,"lon":10.4738938,"ts":"2021-05-11T06:03:30Z","tz":1,"tags":{"name":"Kleiner Dülferklotz","natural":"cliff","sport":"climbing"}},"4548994210":{"lat":51.8733706,"lon":10.4733674,"ts":"2021-05-11T06:03:30Z","tz":1,"tags":{"name":"Zipf","natural":"cliff","sport":"climbing"}},"5635637584":{"lat":51.8736322,"lon":10.4798415,"ts":"2025-01-13T17:07:41Z","tz":1,"tags":{"climbing":"crag","climbing:rock":"granite","name":"Untere Studentenklippe","natural":"cliff","sport":"climbing","url":"http://felsinfo.alpenverein.de/index.php?mapId=82&option=com_content&view=article&id=840&fels=3097#scale=18055&centerX=1166609&centerY=6777298&layers=1465218397,152917,0"}},"7682719487":{"lat":51.8770203,"lon":10.4789187,"ts":"2023-07-07T14:10:59Z","tz":1,"tags":{"name":"Aussichtskanzel","sport":"climbing"}},"8717147223":{"lat":51.8726078,"lon":10.4769444,"ts":"2025-01-13T17:07:41Z","tz":1,"tags":{"climbing":"crag","name":"Harzchausseewand","natural":"cliff","sport":"climbing"}},"8717147224":{"lat":51.8722749,"lon":10.478999,"ts":"2025-01-13T17:07:41Z","tz":1,"tags":{"climbing":"crag","name":"Treppensteinturm","natural":"cliff","sport":"climbing"}},"8717147225":{"lat":51.8724703,"lon":10.4782212,"ts":"2025-01-13T17:07:41Z","tz":1,"tags":{"climbing":"crag","name":"Falterwand","natural":"cliff","sport":"climbing"}},"8717147226":{"lat":51.8724951,"lon":10.4779342,"ts":"2025-01-13T17:07:41Z","tz":1,"tags":{"climbing":"crag","name":"Drachenturm","natural":"cliff","sport":"climbing"}},"8717147230":{"lat":51.8757723,"lon":10.4769659,"ts":"2025-01-13T17:07:41Z","tz":1,"tags":{"climbing":"crag","name":"Tank","natural":"cliff","sport":"climbing"}},"8717147231":{"lat":51.875461,"lon":10.4772448,"ts":"2025-01-13T17:07:41Z","tz":1,"tags":{"climbing":"crag","name":"Nachbar","natural":"cliff","sport":"climbing"}},"8717147232":{"lat":51.8752464,"lon":10.4773377,"ts":"2025-01-13T17:07:41Z","tz":1,"tags":{"climbing":"crag","name":"Hauskante","natural":"cliff","sport":"climbing"}},"8717147233":{"lat":51.8762607,"lon":10.4779887,"ts":"2025-01-13T17:07:41Z","tz":1,"tags":{"climbing":"crag","name":"Pagodenstein","natural":"cliff","sport":"climbing"}},"8720582972":{"lat":51.8712614,"lon":10.47445,"ts":"2021-05-11T06:03:30Z","tz":1,"tags":{"name":"Teufelskanzel","natural":"cliff","sport":"climbing"}},"8720582973":{"lat":51.8712548,"lon":10.4737955,"ts":"2021-05-11T06:03:30Z","tz":1,"tags":{"name":"Marienwand","natural":"cliff","sport":"climbing"}},"8720582974":{"lat":51.8720662,"lon":10.4737097,"ts":"2021-05-11T06:03:30Z","tz":1,"tags":{"name":"Großer Dülferklotz","natural":"cliff","sport":"climbing"}},"9212057139":{"lat":52.0039884,"lon":10.2123667,"ts":"2023-09-18T11:37:58Z","tz":1,"tags":{"climbing":"boulder","name":"Sandmann","natural":"stone"}},"9212057140":{"lat":52.0061939,"lon":10.2133886,"ts":"2024-04-13T17:50:27Z","tz":1,"tags":{"alt_name":"Eichkatzblock","climbing":"boulder","name":"Quader","natural":"stone"}},"9950849408":{"lat":51.8775011,"lon":10.4816061,"ts":"2025-01-13T17:07:41Z","tz":1,"tags":{"climbing":"crag","name":"Ziegenrückenturm","natural":"cliff","sport":"climbing"}},"9950888189":{"lat":51.876895,"lon":10.4777867,"ts":"2022-08-13T12:14:55Z","tz":1,"tags":{"name":"Schiffsbug","sport":"climbing"}},"9950888192":{"lat":51.8770374,"lon":10.4773709,"ts":"2022-08-13T12:14:55Z","tz":1,"tags":{"name":"Namenloser Fels","sport":"climbing"}},"11286403355":{"lat":51.8579906,"lon":10.3579584,"ts":"2023-10-24T15:18:43Z","tz":1,"tags":{"climbing":"crag","fee":"yes","leisure":"sports_centre","name":"Klettergarten Zipline Bocksberg ZAB","opening_hours":"Apr-Oct 10:00-17:00","operator":"ErlebnisBocksBerg","outdoor":"yes","payment:cash":"yes","payment:paypal":"yes","sport":"climbing","website":"https://www.zipline-adventure-bocksberg.de/"}},"12509485426":{"lat":51.873857,"lon":10.4849146,"ts":"2025-01-17T14:57:15Z","tz":1,"tags":{"climbing":"boulder","climbing:boulder":"yes","name":"Untere Bergmannsklippe","natural":"cliff"}},"12509485427":{"lat":51.8734889,"lon":10.4868866,"ts":"2025-01-17T14:57:15Z","tz":1,"tags":{"climbing":"boulder","name":"Obere Bergmannsklippe","natural":"cliff"}}}