{"18772787":{"lat":44.4202384,"lon":10.4139045,"ts":"2025-03-02T09:57:15Z","tz":1,"tags":{"climbing":"crag","name":"Parete Est","site":"climbing","type":"site","wikimedia_commons":"File:Pietra di Bismantova - Parete Est.jpg"}},"18772788":{"lat":44.4202109,"lon":10.4136929,"ts":"2025-03-02T10:32:12Z","tz":1,"tags":{"climbing":"area","name":"Pietra di Bismantova","site":"climbing","type":"site"}},"18772922":{"lat":44.4201077,"lon":10.4135661,"ts":"2025-03-02T10:33:13Z","tz":1,"tags":{"climbing":"crag","name":"Pilone Giallo","site":"climbing","sport":"climbing","type":"site","wikimedia_commons":"File:Pietra di Bismantova - Pilone Giallo.jpg"}},"397862278":{"lat":44.4221033,"lon":10.4102519,"ts":"2021-05-04T17:46:10Z","tz":1,"tags":{"leisure":"sports_centre","natural":"rock","sport":"climbing"}},"808154588":{"lat":44.4193331,"lon":10.411549,"ts":"2024-08-16T10:16:45Z","tz":1,"tags":{"climbing:grade:french:max":"8c","climbing:grade:french:min":"5a","description":"Monotiri, Vie di più tiri attrezzate e in artif., boulder. Pietra: variazioni di arenaria calcaracea","leisure":"sports_centre","name":"Falesia Arrampicata Sportiva Pietra di Bismantova","sport":"climbing","wheelchair":"no"}},"3569158311":{"lat":44.3496372,"lon":10.2472893,"ts":"2024-05-22T10:35:14Z","tz":1,"tags":{"addr:city":"ventasso","addr:postcode":"42032","addr:street":"Via Valbona","leisure":"sports_centre","name":"Falesia Arrampicata Torre di Valbona","sport":"climbing"}},"5281880200":{"lat":44.4220905,"lon":10.410237,"ts":"2024-05-29T21:12:02Z","tz":1,"tags":{"leisure":"sports_centre","name":"Sassolungo","sport":"climbing"}},"7560638180":{"lat":44.3985064,"lon":10.360001,"ts":"2020-05-26T19:55:26Z","tz":1,"tags":{"fee":"no","leisure":"sports_centre","sport":"climbing"}},"11460779386":{"lat":44.4196129,"lon":10.4090733,"ts":"2024-08-16T10:16:56Z","tz":1,"tags":{"leisure":"sports_centre","name":"Torrione Sirotti","sport":"climbing","wheelchair":"no"}},"11460779387":{"lat":44.4228328,"lon":10.4160404,"ts":"2023-12-27T20:32:24Z","tz":1,"tags":{"leisure":"sports_centre","name":"Spigolo FontanaCornia","sport":"climbing"}},"11460779388":{"lat":44.4197975,"lon":10.4126414,"ts":"2025-03-02T09:47:47Z","tz":1,"tags":{"climbing":"crag","name":"Anfiteatro","site":"climbing","sport":"climbing","type":"site"}},"11925326313":{"lat":44.4194847,"lon":10.4093683,"ts":"2024-08-16T10:16:56Z","tz":1,"tags":{"leisure":"sports_centre","name":"Capibara","sport":"climbing","wheelchair":"no"}},"11925326314":{"lat":44.4193845,"lon":10.4095308,"ts":"2024-08-16T10:16:57Z","tz":1,"tags":{"leisure":"sports_centre","name":"Placche di Albertino","sport":"climbing","wheelchair":"no"}},"11925326315":{"lat":44.419158,"lon":10.4097304,"ts":"2024-08-16T10:16:57Z","tz":1,"tags":{"leisure":"sports_centre","name":"Gare Nuove","sport":"climbing","wheelchair":"no"}},"11925326316":{"lat":44.4190083,"lon":10.4100937,"ts":"2024-08-16T10:16:57Z","tz":1,"tags":{"leisure":"sports_centre","name":"Illusioni","sport":"climbing","wheelchair":"no"}},"11925326317":{"lat":44.4188565,"lon":10.4105885,"ts":"2024-05-22T10:25:25Z","tz":1,"tags":{"leisure":"sports_centre","name":"Zona Gabri","sport":"climbing"}},"11925326318":{"lat":44.4186961,"lon":10.4109906,"ts":"2024-05-22T10:25:25Z","tz":1,"tags":{"leisure":"sports_centre","name":"Verbum","sport":"climbing"}},"11925326319":{"lat":44.4187115,"lon":10.4113088,"ts":"2024-05-22T10:25:25Z","tz":1,"tags":{"leisure":"sports_centre","name":"Gare Vecchie","sport":"climbing"}},"11925326320":{"lat":44.4198584,"lon":10.412216,"ts":"2025-03-02T09:47:47Z","tz":1,"tags":{"climbing":"crag","name":"Cocoa","site":"climbing","sport":"climbing","type":"site","wheelchair":"no"}},"11925326321":{"lat":44.4200879,"lon":10.4134387,"ts":"2025-03-02T09:47:47Z","tz":1,"tags":{"climbing":"crag","name":"Nino Marchi","site":"climbing","sport":"climbing","type":"site","wheelchair":"no"}},"11925326322":{"lat":44.4199869,"lon":10.4132604,"ts":"2025-03-02T09:47:47Z","tz":1,"tags":{"climbing":"crag","name":"Banana","site":"climbing","sport":"climbing","type":"site","wheelchair":"no"}},"11925326327":{"lat":44.4207667,"lon":10.4151697,"ts":"2025-03-02T09:47:47Z","tz":1,"tags":{"climbing":"crag","name":"Pornografie","site":"climbing","sport":"climbing","type":"site"}},"11925326328":{"lat":44.4215917,"lon":10.4152338,"ts":"2024-05-22T10:25:25Z","tz":1,"tags":{"leisure":"sports_centre","name":"Le Terrazze","sport":"climbing"}},"11943088532":{"lat":44.419655,"lon":10.4132974,"ts":"2025-03-02T09:47:47Z","tz":1,"tags":{"climbing":"crag","name":"Sasso Batman","site":"climbing","sport":"climbing","type":"site"}},"12289921279":{"lat":44.4218969,"lon":10.4111938,"ts":"2024-10-26T10:39:56Z","tz":1,"tags":{"leisure":"sports_centre","name":"Parete Ovest","sport":"climbing"}},"12629955021":{"lat":44.4202384,"lon":10.4139045,"ts":"2025-03-02T09:58:10Z","tz":1,"tags":{"climbing":"route_bottom","climbing:grade:saxon":"V","description:cs":"Dlouhý komin, vícedélka, dobře zajištěné a krásné lezení.","length":"120m","name":"Oppio","wikimedia_commons":"File:Pietra di Bismantova - Parete Est.jpg","wikimedia_commons:path":"0.635,0.639|0.693,0.381B|0.676,0.344B|0.62,0.314B|0.612,0.252|0.541,0.162"}},"12630051200":{"lat":44.420156,"lon":10.4136105,"ts":"2025-03-02T10:32:12Z","tz":1,"tags":{"climbing":"route_bottom","climbing:grade:french":"6b","length":"13m","name":"Via Crocis"}},"12630051301":{"lat":44.4201545,"lon":10.4136044,"ts":"2025-03-02T10:32:12Z","tz":1,"tags":{"climbing":"route_bottom","climbing:grade:french":"6a+","length":"13m","name":"Bi-Centenario"}},"12630051302":{"lat":44.4201529,"lon":10.4135997,"ts":"2025-03-02T10:32:12Z","tz":1,"tags":{"climbing":"route_bottom","climbing:grade:french":"6a","length":"13m","name":"Centenario"}},"12630051303":{"lat":44.4201512,"lon":10.4135947,"ts":"2025-03-02T10:32:12Z","tz":1,"tags":{"climbing":"route_bottom","climbing:grade:french":"7a+","length":"15m","name":"Allegria"}},"12630051304":{"lat":44.4201493,"lon":10.413586,"ts":"2025-03-02T10:32:12Z","tz":1,"tags":{"climbing":"route_bottom","climbing:grade:french":"6c","length":"15m","name":"I tre moschettoni"}},"12630051305":{"lat":44.4201471,"lon":10.4135803,"ts":"2025-03-02T10:32:12Z","tz":1,"tags":{"climbing":"route_bottom","climbing:grade:french":"5b+","length":"10m","name":"Prime armi"}},"12630051306":{"lat":44.420145,"lon":10.4135736,"ts":"2025-03-02T10:32:12Z","tz":1,"tags":{"climbing":"route_bottom","climbing:grade:french":"5a","length":"10m","name":"Eta Beta"}},"12630051307":{"lat":44.4201416,"lon":10.4135682,"ts":"2025-03-02T10:32:12Z","tz":1,"tags":{"climbing":"route_bottom","climbing:grade:french":"8a","length":"20m","name":"Tell my why"}},"12630051308":{"lat":44.4201392,"lon":10.4135635,"ts":"2025-03-02T10:32:12Z","tz":1,"tags":{"climbing":"route_bottom","climbing:grade:french":"8b","length":"20m","name":"Costruzione di un amore"}},"12630051309":{"lat":44.4201361,"lon":10.4135585,"ts":"2025-03-02T10:32:12Z","tz":1,"tags":{"climbing":"route_bottom","climbing:grade:french":"8a","length":"20m","name":"Skizo"}},"12630051310":{"lat":44.4201328,"lon":10.4135531,"ts":"2025-03-02T10:32:12Z","tz":1,"tags":{"climbing":"route_bottom","climbing:grade:french":"7a+","length":"20m","name":"Bla Bla Bla"}},"12630051311":{"lat":44.4201299,"lon":10.4135488,"ts":"2025-03-02T10:32:12Z","tz":1,"tags":{"climbing":"route_bottom","climbing:grade:french":"6c+","length":"25m","name":"Drago con il tetto"}},"12630051312":{"lat":44.4201258,"lon":10.4135457,"ts":"2025-03-02T10:32:12Z","tz":1,"tags":{"climbing":"route_bottom","climbing:grade:french":"6v","length":"20m","name":"Drago"}},"12630051313":{"lat":44.4201225,"lon":10.4135417,"ts":"2025-03-02T10:32:12Z","tz":1,"tags":{"climbing":"route_bottom","climbing:grade:french":"7c","length":"20m","name":"Ramadam"}},"12630051314":{"lat":44.4201189,"lon":10.4135384,"ts":"2025-03-02T10:32:12Z","tz":1,"tags":{"climbing":"route_bottom","climbing:grade:french":"6a","length":"20m","name":"Nannuzzi"}},"12630051315":{"lat":44.420115,"lon":10.4135347,"ts":"2025-03-02T10:32:12Z","tz":1,"tags":{"climbing":"route_bottom","climbing:grade:french":"6b","length":"20m","name":"Passeri e Penne"}},"12630051316":{"lat":44.4201105,"lon":10.413532,"ts":"2025-03-02T10:38:23Z","tz":1,"tags":{"climbing":"route_bottom","climbing:grade:french":"7a","length":"20m","name":"Diario di Sole","wikimedia_commons":"File:Pietra di Bismantova - Pilone Giallo.jpg","wikimedia_commons:path":"0.812,0.857|0.491,0.34"}},"12630051317":{"lat":44.4201064,"lon":10.41353,"ts":"2025-03-02T10:38:23Z","tz":1,"tags":{"climbing":"route_bottom","climbing:grade:french":"5a","length":"20m","name":"Pronto Soccorso","wikimedia_commons":"File:Pietra di Bismantova - Pilone Giallo.jpg","wikimedia_commons:path":"0.595,0.958|0.491,0.481|0.491,0.34"}},"12630051318":{"lat":44.4201028,"lon":10.413528,"ts":"2025-03-02T10:38:23Z","tz":1,"tags":{"climbing":"route_bottom","climbing:grade:french":"8a","length":"35m","name":"Castelli di Sabbia","wikimedia_commons":"File:Pietra di Bismantova - Pilone Giallo.jpg","wikimedia_commons:path":"0.407,0.93|0.4,0.55|0.4,0.279|0.395,0.139"}},"12630051319":{"lat":44.4200983,"lon":10.413527,"ts":"2025-03-02T10:38:23Z","tz":1,"tags":{"climbing":"route_bottom","climbing:grade:french":"6b","length":"20m","name":"Karen B Corta","wikimedia_commons":"File:Pietra di Bismantova - Pilone Giallo.jpg","wikimedia_commons:path":"0.407,0.93|0.4,0.55|0.439,0.487|0.432,0.33|0.442,0.293"}},"12630051320":{"lat":44.420094,"lon":10.4135256,"ts":"2025-03-02T10:38:23Z","tz":1,"tags":{"climbing":"route_bottom","climbing:grade:french":"7b","length":"35m","name":"Karen B","wikimedia_commons":"File:Pietra di Bismantova - Pilone Giallo.jpg","wikimedia_commons:path":"0.407,0.93|0.4,0.55|0.439,0.487|0.432,0.33|0.4,0.279|0.395,0.139"}},"12630051321":{"lat":44.4200885,"lon":10.4135246,"ts":"2025-03-02T10:38:23Z","tz":1,"tags":{"climbing":"route_bottom","climbing:grade:french":"7a","length":"35m","name":"Rainbow Warrior","wikimedia_commons":"File:Pietra di Bismantova - Pilone Giallo.jpg","wikimedia_commons:path":"0.119,0.976|0.35,0.281|0.345,0.144"}},"12630051322":{"lat":44.4200844,"lon":10.4135246,"ts":"2025-03-02T10:38:23Z","tz":1,"tags":{"climbing":"route_bottom","climbing:grade:french":"7c","length":"23m","name":"Bagdad","wikimedia_commons":"File:Pietra di Bismantova - Pilone Giallo.jpg","wikimedia_commons:path":"0.016,0.573|0.297,0.178|0.316,0.11"}},"12630051323":{"lat":44.4200796,"lon":10.4135246,"ts":"2025-03-02T10:38:23Z","tz":1,"tags":{"climbing":"route_bottom","climbing:grade:french":"6b","length":"9m","name":"Beccami sul Becco","wikimedia_commons":"File:Pietra di Bismantova - Pilone Giallo.jpg","wikimedia_commons:path":"0.016,0.573|0.297,0.178"}},"12630051324":{"lat":44.4200736,"lon":10.4135233,"ts":"2025-03-02T10:38:23Z","tz":1,"tags":{"climbing":"route_bottom","climbing:grade:french":"6a+","length":"25m","name":"Figli dei Fiori","wikimedia_commons":"File:Pietra di Bismantova - Pilone Giallo.jpg","wikimedia_commons:path":"0.037,0.289|0.285,0.147|0.284,0.115"}},"12630051325":{"lat":44.4200686,"lon":10.4135226,"ts":"2025-03-02T10:32:12Z","tz":1,"tags":{"climbing":"route_bottom","climbing:grade:french":"7a+","length":"25m","name":"Tato Pese"}},"12630051326":{"lat":44.4200643,"lon":10.4135219,"ts":"2025-03-02T10:32:12Z","tz":1,"tags":{"climbing":"route_bottom","climbing:grade:french":"6c","length":"25m","name":"Vé"}},"12630051327":{"lat":44.4200595,"lon":10.4135216,"ts":"2025-03-02T10:32:12Z","tz":1,"tags":{"climbing":"route_bottom","climbing:grade:french":"6c+","length":"25m","name":"Birba"}}}