{"1137301505":{"lat":28.5293537,"lon":77.1490022,"ts":"2024-03-27T15:04:44Z","tz":6,"tags":{"addr:postcode":"110070","addr:street":"Vasant Kunj","building":"yes","climbing:boulder":"yes","email":"info@boulderbox.in","fee":"yes","indoor":"yes","internet_access":"wlan","leisure":"fitness_centre","name":"Boulder Box","opening_hours":"We-Mo 11:00-21:30","phone":"+919650105578","sport":"climbing","website":"https://boulderbox.in/"}},"1295220280":{"lat":28.3672808,"lon":77.1810043,"ts":"2024-06-23T09:36:50Z","tz":6,"tags":{"amenity":"camping","name":"The Crashpad Mangar","sport":"climbing","tourism":"camp_site"}},"10598471421":{"lat":28.484486,"lon":77.129079,"ts":"2024-02-20T13:19:00Z","tz":6,"tags":{"addr:city":"New Delhi","addr:district":"Aya Nagar","addr:postcode":"110047","addr:street":"Mehrauli Gurgaon Road","email":"info@climbcentral.in","fixme":"address format:\n\n1 Global Avenue, Mehrauli Gurgaon Road\nMetro Pillar 173, Aya Nagar\nNew Delhi, 110047, INDIA","leisure":"sports_centre","name":"Climb Central Delhi","name:hi":"क्लाइंब सेंट्रल दिल्ली","operator":"Climb Central","phone":"+917011385695","sport":"climbing","website":"https://www.climbcentral.in/"}},"11096994405":{"lat":28.5350023,"lon":77.2467216,"ts":"2023-08-08T05:26:57Z","tz":6,"tags":{"addr:district":"Greater Kailash 2","addr:housenumber":"Opposite M-39","addr:postcode":"110048","internet_access":"wlan","leisure":"sports_centre","mobile":"+919818440969","name":"Delhi Rock","sport":"climbing","website":"https://delhirock.com/"}},"12002537737":{"lat":28.3647102,"lon":77.1853524,"ts":"2024-06-23T09:36:50Z","tz":6,"tags":{"fixme":"approximative position","name":"Wolcher Sector","sport":"climbing"}},"12143384463":{"lat":28.5991028,"lon":77.1809848,"ts":"2024-08-29T02:48:04Z","tz":6,"tags":{"climbing:sport":"yes","climbing:toprope":"yes","leisure":"sports_centre","outdoor":"yes","sport":"climbing"}}}