{"309871320":{"lat":41.2449647,"lon":1.0572136,"ts":"2024-09-02T09:20:39Z","tz":1,"tags":{"name":"Cingle de la Cova Llonga","name:ca":"Cingle de la Cova Llonga","natural":"cliff","sport":"climbing"}},"5241244411":{"lat":41.308911,"lon":1.15368,"ts":"2019-06-10T11:02:25Z","tz":1,"tags":{"name":"Barranc dels Tres Pilans","sport":"climbing"}},"6138738093":{"lat":41.3081516,"lon":1.1600716,"ts":"2022-11-10T00:44:23Z","tz":1,"tags":{"name":"Castell Dalmau","name:ca":"Castell Dalmau","sport":"climbing"}},"6164576915":{"lat":41.3188562,"lon":1.158873,"ts":"2018-12-26T21:10:15Z","tz":1,"tags":{"name":"La Xina","sport":"climbing"}},"6164597666":{"lat":41.308197,"lon":1.1601528,"ts":"2022-11-10T00:44:24Z","tz":1,"tags":{"name":"Castell Dalmau","name:ca":"Castell Dalmau","sport":"climbing"}},"6539013028":{"lat":41.3137303,"lon":1.1548511,"ts":"2023-08-06T14:40:05Z","tz":1,"tags":{"name":"Llosa Negra","name:ca":"Llosa Negra","place":"locality","sport":"climbing"}},"6723801300":{"lat":41.317416,"lon":1.1666369,"ts":"2022-11-26T09:56:59Z","tz":1,"tags":{"leaf_cycle":"mixed","leaf_type":"mixed","name":"Clot d'en Goda","name:ca":"Clot d'en Goda","natural":"wood","sport":"climbing"}},"8748409128":{"lat":41.3175666,"lon":1.1587582,"ts":"2021-05-20T06:10:33Z","tz":1,"tags":{"name":"Piló Suicida","sport":"climbing"}},"8748409762":{"lat":41.3179239,"lon":1.1588788,"ts":"2021-05-20T06:08:55Z","tz":1,"tags":{"name":"La Penya darrera el Piló","sport":"climbing"}},"8748419598":{"lat":41.3173989,"lon":1.1596304,"ts":"2022-11-26T09:57:05Z","tz":1,"tags":{"name":"Els Tres Grans","name:ca":"Els Tres Grans","sport":"climbing"}},"8748420039":{"lat":41.3170921,"lon":1.1585664,"ts":"2022-11-26T09:57:08Z","tz":1,"tags":{"name":"Penya Roja","name:ca":"Penya Roja","sport":"climbing"}},"8748431517":{"lat":41.3168564,"lon":1.1605322,"ts":"2022-12-11T22:16:09Z","tz":1,"tags":{"name":"La Platgeta","name:ca":"La Platgeta","sport":"climbing"}},"10605513952":{"lat":41.312061,"lon":1.1535856,"ts":"2023-02-04T06:57:27Z","tz":1,"tags":{"description":"Sector d'escalada Lo Terrall","name":"Lo Terrall","sport":"climbing"}},"10605533190":{"lat":41.322273,"lon":1.1637213,"ts":"2023-02-04T07:00:40Z","tz":1,"tags":{"description":"Sector d'escalada de la Conxinxina","name":"La Conxinxina","sport":"climbing"}},"10605544506":{"lat":41.3200519,"lon":1.1839093,"ts":"2023-02-04T07:05:09Z","tz":1,"tags":{"description":"Sector d'escalada El Toll de la Paret","name":"El Toll de la Paret","sport":"climbing"}}}