{"3690627":{"lat":47.6315759,"lon":11.3393986,"ts":"2024-12-23T22:02:43Z","tz":1,"tags":{"climbing":"area","name":"Kraftwerk","type":"site"}},"3730020":{"lat":47.6583806,"lon":11.5065303,"ts":"2014-05-10T01:07:52Z","tz":1,"tags":{"climbing":"area","name":"Brauneck","type":"area"}},"103322933":{"lat":47.7333451,"lon":11.4468351,"ts":"2024-08-29T12:26:11Z","tz":1,"tags":{"leisure":"pitch","lit":"no","name":"Klettergarten Bad Heilbrunn","sport":"climbing","survey:date":"2022-03-24"}},"167794728":{"lat":47.6589197,"lon":11.5047826,"ts":"2020-09-11T22:41:11Z","tz":1,"tags":{"climbing:bolted":"yes","climbing:grade:uiaa:max":"8","climbing:grade:uiaa:min":"5-","climbing:length":"35","climbing:multipitch":"1","climbing:orientation":"S","climbing:rock":"limestone","climbing:sport":"16","name":"Wilderwand","natural":"cliff","sport":"climbing"}},"167794729":{"lat":47.6584593,"lon":11.5028176,"ts":"2020-09-11T22:41:11Z","tz":1,"tags":{"climbing:bolted":"yes","climbing:grade:uiaa:min":"5+","climbing:length":"50","climbing:orientation":"SE","climbing:quality":"fragile","climbing:rock":"limestone","climbing:sport":"yes","name":"Die Mauer","natural":"cliff","sport":"climbing"}},"167794730":{"lat":47.6590223,"lon":11.5044699,"ts":"2014-05-11T00:37:35Z","tz":1,"tags":{"climbing:bolted":"yes","climbing:multipitch":"2","climbing:orientation":"SE","climbing:sport":"2","name":"Schiffsbug","natural":"cliff","source":"bing","sport":"climbing"}},"167794731":{"lat":47.6590803,"lon":11.5053373,"ts":"2020-09-11T22:41:11Z","tz":1,"tags":{"climbing:bolted":"yes","climbing:grade:uiaa:max":"8","climbing:grade:uiaa:min":"3","climbing:length":"30","climbing:orientation":"SE","climbing:rock":"limestone","climbing:sport":"7","name":"Bonsaiturm","natural":"cliff","source":"bing","sport":"climbing"}},"240093498":{"lat":47.6441907,"lon":11.3728249,"ts":"2020-09-11T22:41:11Z","tz":1,"tags":{"climbing":"crag","climbing:grade:uiaa:max":"10+","climbing:grade:uiaa:min":"6+","climbing:length:max":"40","climbing:orientation":"SE","climbing:rock":"limestone","climbing:routes":"33","name":"Rodeowand","natural":"cliff","sport":"climbing"}},"272083872":{"lat":47.7333509,"lon":11.447131,"ts":"2020-09-11T22:41:11Z","tz":1,"tags":{"climbing:grade:uiaa:min":"4","climbing:orientation":"W","name":"untere Westwand","natural":"cliff","sport":"climbing"}},"277739695":{"lat":47.636029,"lon":11.3477533,"ts":"2024-12-23T22:02:43Z","tz":1,"tags":{"climbing":"crag","climbing:grade:uiaa:max":"9-","climbing:grade:uiaa:min":"5+","climbing:length":"15","climbing:orientation":"S","climbing:quality":"solid","climbing:sport":"26","name":"Wiesenwand","name:de":"Wiesenwand","natural":"cliff","sport":"climbing"}},"277739798":{"lat":47.6346406,"lon":11.346257,"ts":"2024-12-23T22:02:43Z","tz":1,"tags":{"climbing":"crag","climbing:bolted":"yes","climbing:grade:uiaa:max":"10","climbing:grade:uiaa:min":"4","climbing:length":"15","climbing:orientation":"S","climbing:quality":"solid","climbing:rock":"limestone","climbing:sport":"22","name":"Keltenwand","natural":"cliff","sport":"climbing"}},"277741498":{"lat":47.6344956,"lon":11.3453812,"ts":"2024-12-23T22:02:43Z","tz":1,"tags":{"climbing":"crag","climbing:bolted":"yes","climbing:grade:uiaa:max":"8+","climbing:grade:uiaa:min":"5-","climbing:length":"15","climbing:orientation":"W","climbing:quality":"solid","climbing:rock":"limestone","climbing:sport":"14","name":"Untere Seewände (Hauptwand)","natural":"cliff","sport":"climbing"}},"277801136":{"lat":47.6283704,"lon":11.3277499,"ts":"2020-09-11T22:41:11Z","tz":1,"tags":{"climbing:bolted":"yes","climbing:grade:uiaa:max":"11","climbing:grade:uiaa:min":"5-","climbing:length":"55 m","climbing:orientation":"SE","climbing:quality":"solid","climbing:rock":"limestone","climbing:sport":"120","name":"Atlantiswand","natural":"cliff","sport":"climbing"}},"277801137":{"lat":47.628843,"lon":11.3334364,"ts":"2020-09-11T22:41:11Z","tz":1,"tags":{"climbing:bolted":"yes","climbing:grade:uiaa:max":"8","climbing:grade:uiaa:min":"5+","climbing:length":"12","climbing:orientation":"SE","climbing:quality":"solid","climbing:rock":"limestone","climbing:sport":"yes","name":"Frosch","natural":"cliff","sport":"climbing"}},"277801138":{"lat":47.6269611,"lon":11.3298502,"ts":"2024-12-23T22:02:43Z","tz":1,"tags":{"climbing":"crag","climbing:bolted":"yes","climbing:grade:uiaa:max":"10+","climbing:grade:uiaa:min":"4+","climbing:length":"10","climbing:orientation":"S","climbing:quality":"solid","climbing:rock":"limestone","climbing:sport":"30","name":"Reservat","natural":"cliff","sport":"climbing"}},"279665026":{"lat":47.6347944,"lon":11.3447832,"ts":"2024-12-23T22:02:43Z","tz":1,"tags":{"climbing":"crag","climbing:bolted":"yes","climbing:grade:uiaa:max":"8-","climbing:grade:uiaa:min":"7","climbing:length":"15","climbing:orientation":"W","climbing:quality":"solid","climbing:rock":"limestone","climbing:sport":"5","name":"Untere Seewände (Linke Wand)","natural":"cliff","sport":"climbing"}},"280664929":{"lat":47.6590173,"lon":11.5038075,"ts":"2025-03-21T18:03:34Z","tz":1,"tags":{"climbing:bolted":"yes","climbing:grade:uiaa:max":"7+","climbing:grade:uiaa:min":"6-","climbing:length":"26","climbing:orientation":"SE","climbing:rock":"limestone","climbing:sport":"4","name":"Futschijamanadel","natural":"bare_rock","sport":"climbing"}},"280667861":{"lat":47.6591451,"lon":11.5080891,"ts":"2020-09-11T22:41:11Z","tz":1,"tags":{"climbing:bolted":"yes","climbing:grade:uiaa:max":"9","climbing:grade:uiaa:min":"4-","climbing:length":"30","climbing:multipitch":"1","climbing:orientation":"W","climbing:rock":"limestone","climbing:sport":"10","name":"Ameisenwand","natural":"cliff","source":"bing","sport":"climbing"}},"280667862":{"lat":47.6590936,"lon":11.508112,"ts":"2020-09-11T22:41:11Z","tz":1,"tags":{"climbing:bolted":"yes","climbing:grade:uiaa:max":"8-","climbing:grade:uiaa:min":"6","climbing:length":"18","climbing:orientation":"S","climbing:rock":"limestone","climbing:sport":"6","name":"First","natural":"cliff","source":"bing","sport":"climbing"}},"280667863":{"lat":47.6588486,"lon":11.5053642,"ts":"2020-09-11T22:41:11Z","tz":1,"tags":{"climbing:bolted":"yes","climbing:grade:uiaa:max":"7","climbing:grade:uiaa:min":"5+","climbing:length":"40","climbing:multipitch":"1","climbing:orientation":"S","climbing:rock":"limestone","climbing:sport":"6","name":"French Connection","natural":"cliff","sport":"climbing"}},"280667864":{"lat":47.6576872,"lon":11.5106341,"ts":"2025-03-21T18:03:34Z","tz":1,"tags":{"climbing:bolted":"yes","climbing:grade:uiaa:max":"7","climbing:grade:uiaa:min":"4-","climbing:length":"21","climbing:orientation":"SW","climbing:rock":"limestone","climbing:sport":"7","name":"Gamskopf","natural":"bare_rock","source":"bing","sport":"climbing"}},"280667865":{"lat":47.6588775,"lon":11.5057862,"ts":"2020-09-11T22:41:11Z","tz":1,"tags":{"climbing:bolted":"yes","climbing:grade:uiaa:max":"4","climbing:grade:uiaa:min":"4","climbing:orientation":"S","climbing:rock":"limestone","climbing:sport":"yes","name":"Kindergarten","natural":"cliff","sport":"climbing"}},"280667866":{"lat":47.6591626,"lon":11.508023,"ts":"2020-09-11T22:41:11Z","tz":1,"tags":{"climbing:bolted":"yes","climbing:grade:uiaa:max":"7+","climbing:grade:uiaa:min":"6+","climbing:length":"10","climbing:orientation":"S","climbing:rock":"limestone","climbing:sport":"yes","name":"Risswand","natural":"cliff","source":"bing","sport":"climbing"}},"280667867":{"lat":47.6589254,"lon":11.5058304,"ts":"2020-09-11T22:41:11Z","tz":1,"tags":{"climbing:bolted":"3","climbing:grade:uiaa:max":"6","climbing:grade:uiaa:min":"5-","climbing:length":"25","climbing:orientation":"S","climbing:rock":"limestone","climbing:sport":"yes","name":"Siebter Himmel","natural":"cliff","source":"bing","sport":"climbing"}},"280667868":{"lat":47.6591659,"lon":11.5079851,"ts":"2020-09-11T22:41:11Z","tz":1,"tags":{"climbing:bolted":"yes","climbing:grade:uiaa:max":"7","climbing:grade:uiaa:min":"4","climbing:length":"30","climbing:orientation":"S","climbing:rock":"limestone","climbing:sport":"13","name":"Wachturm","natural":"cliff","sport":"climbing"}},"280667869":{"lat":47.659186,"lon":11.5078047,"ts":"2020-09-11T22:41:11Z","tz":1,"tags":{"climbing:bolted":"yes","climbing:grade:uiaa:max":"6-","climbing:grade:uiaa:min":"3","climbing:length":"18","climbing:orientation":"S","climbing:rock":"limestone","climbing:sport":"9","name":"Märchentraum","natural":"cliff","source":"bing","sport":"climbing"}},"288308965":{"lat":47.633476,"lon":11.3489363,"ts":"2024-12-23T22:02:43Z","tz":1,"tags":{"climbing":"crag","climbing:bolted":"yes","climbing:length":"15","climbing:orientation":"S","climbing:quality":"solid","climbing:rock":"limestone","climbing:sport":"yes","name":"Riversidewall","natural":"cliff","opening_hours":"24/7","sport":"climbing"}},"306841537":{"lat":47.628175,"lon":11.3303556,"ts":"2021-06-20T22:11:25Z","tz":1,"tags":{"climbing:bolted":"yes","climbing:grade:uiaa:max":"5-","climbing:grade:uiaa:min":"4-","climbing:length":"15 m","climbing:orientation":"SE","climbing:quality":"solid","climbing:rock":"limestone","climbing:sport":"6","name":"Atlantiswand","natural":"cliff","sport":"climbing"}},"438301506":{"lat":47.7334463,"lon":11.4476194,"ts":"2020-09-11T22:41:11Z","tz":1,"tags":{"climbing:grade:uiaa:min":"3","climbing:orientation":"S","ele":"670","name":"hintere Südwand","natural":"cliff","sport":"climbing"}},"438301508":{"lat":47.7334617,"lon":11.4463792,"ts":"2020-09-11T22:41:11Z","tz":1,"tags":{"climbing:bolted":"3","climbing:grade:uiaa:max":"6-","climbing:grade:uiaa:min":"3","climbing:length:max":"30","climbing:length:min":"25","climbing:orientation":"S","climbing:quality":"solid","climbing:sport":"19","ele":"650","fee":"no","name":"Vordere Südwand","natural":"cliff","sport":"climbing"}},"609661332":{"lat":47.6541113,"lon":11.4638212,"ts":"2023-08-16T12:30:39Z","tz":1,"tags":{"alt_name":"Maxlsteig","climbing":"route","climbing:grade:uiaa":"3","name":"Maxisteig"}},"779573468":{"lat":47.631355,"lon":11.333007,"ts":"2020-03-10T20:16:15Z","tz":1,"tags":{"name":"Schmiedwand","natural":"cliff","sport":"climbing"}},"783349110":{"lat":47.6437172,"lon":11.3713966,"ts":"2021-07-31T16:35:12Z","tz":1,"tags":{"access":"yes","climbing":"crag","climbing:grade:uiaa:max":"11-","climbing:length:max":"40","climbing:length:min":"10","climbing:orientation":"S","climbing:rock":"limestone","climbing:routes":"49","climbing:sport":"yes","name":"Kienstein","natural":"cliff","sport":"climbing","url":"http://felsinfo.alpenverein.de/index.php?mapId=82&option=com_content&view=article&id=840&fels=4423#scale=18055&centerX=1127599&centerY=6479412&layers=1465218397,152917,0"}},"783356965":{"lat":47.6406317,"lon":11.3638705,"ts":"2021-08-29T22:03:26Z","tz":1,"tags":{"climbing":"crag","climbing:grade:uiaa:max":"9","climbing:grade:uiaa:min":"5","climbing:length":"15","climbing:length:max":"35","climbing:orientation":"N","climbing:rock":"limestone","climbing:routes":"18","name":"Betongwand","natural":"cliff","sport":"climbing","url":"http://felsinfo.alpenverein.de/index.php?mapId=82&option=com_content&view=article&id=840&fels=4424#scale=18055&centerX=1127599&centerY=6479412&layers=1465218397,152917,0"}},"794784669":{"lat":47.6303539,"lon":11.2873174,"ts":"2020-04-22T12:18:12Z","tz":1,"tags":{"natural":"cliff","sport":"climbing"}},"1261926164":{"lat":47.6607989,"lon":11.4860664,"ts":"2014-05-10T01:07:54Z","tz":1,"tags":{"climbing:bolted":"yes","climbing:orientation":"SE","climbing:rock":"limestone","name":"Jungmannschaftwand","sport":"climbing"}},"7497180678":{"lat":47.6436603,"lon":11.3708905,"ts":"2020-05-08T09:47:12Z","tz":1,"tags":{"name":"508","sport":"climbing"}},"7497197851":{"lat":47.6439208,"lon":11.3708642,"ts":"2020-08-29T16:01:40Z","tz":1,"tags":{"name":"Sunset Boulevard","sport":"climbing"}},"8018140517":{"lat":47.6736,"lon":11.58792,"ts":"2020-10-18T08:19:00Z","tz":1,"tags":{"climbing:grade:uiaa:max":"8-","climbing:grade:uiaa:min":"4","climbing:length":"15","climbing:length:max":"18","climbing:orientation":"S","climbing:rock":"limestone","climbing:routes":"24","climbing:sport":"yes","name":"Hohenburg","natural":"cliff","sport":"climbing","url":"http://felsinfo.alpenverein.de/felsinfo/westliches_oberbayern/benediktenwandgruppe/4316"}},"9016286522":{"lat":47.6378524,"lon":11.3542619,"ts":"2021-08-18T07:57:14Z","tz":1,"tags":{"climbing:bolted":"yes","climbing:grade:uiaa:min":"3","climbing:sport":"yes","name":"Traumfängerwand","sport":"climbing"}},"9893299876":{"lat":47.6696794,"lon":11.5436046,"ts":"2022-07-17T13:58:11Z","tz":1,"tags":{"fee":"no","leisure":"sports_centre","name":"Sektor Däumling Ostwand","source":"local knowledge","sport":"climbing","website":"https://docplayer.org/70162307-Demmelspitze-klettern-in-den-voralpen-ausrichtung-norden-und-nord-westen-zustieg-vom-parkplatz-ca-minuten-schwierigkeitsverteilung-achtung.html"}},"9893299877":{"lat":47.6696506,"lon":11.5432509,"ts":"2022-07-17T13:58:11Z","tz":1,"tags":{"fee":"no","leisure":"sports_centre","name":"Sektor Däumling Westwand","source":"local knowledge","sport":"climbing","website":"https://docplayer.org/70162307-Demmelspitze-klettern-in-den-voralpen-ausrichtung-norden-und-nord-westen-zustieg-vom-parkplatz-ca-minuten-schwierigkeitsverteilung-achtung.html"}},"10937914217":{"lat":47.6738011,"lon":11.5890799,"ts":"2023-05-29T19:40:12Z","tz":1,"tags":{"fee":"no","leisure":"sports_centre","name":"Hohenburg Hauptwand","sport":"climbing"}}}