{"13661415":{"lat":26.867596,"lon":128.2614924,"ts":"2022-01-11T14:53:22Z","tz":9,"tags":{"climbing":"crag","name":"辺戸岬・宇佐浜","name:en":"cape hedo - USA beach","type":"site"}},"593707192":{"lat":26.8675523,"lon":128.2614087,"ts":"2022-01-11T14:53:22Z","tz":9,"tags":{"name":"メインワオール","name:en":"main wall","natural":"cliff","sport":"climbing"}},"593707193":{"lat":26.8674974,"lon":128.2614607,"ts":"2022-01-11T14:53:22Z","tz":9,"tags":{"name":"アンダギー岩","name:en":"andagi rock","natural":"cliff","sport":"climbing"}},"593707194":{"lat":26.8673728,"lon":128.2615102,"ts":"2022-01-11T14:53:22Z","tz":9,"tags":{"name":"ハーフドームボルダー","name:en":"half dome boulder","natural":"cliff","sport":"climbing"}},"1020290326":{"lat":26.8678057,"lon":128.2616527,"ts":"2022-01-11T14:53:22Z","tz":9,"tags":{"name":"aquarium rock","natural":"cliff","sport":"climbing"}}}