{"244799728":{"lat":46.9698628,"lon":4.6528816,"ts":"2023-05-05T13:01:22Z","tz":1,"tags":{"climbing":"area","climbing:boulder":"no","name":"Cormot","natural":"cliff","rock":"limestone","sport":"climbing"}},"428916373":{"lat":46.9045375,"lon":4.7322275,"ts":"2023-05-05T13:04:24Z","tz":1,"tags":{"climbing":"crag","climbing:bolted":"2 m","climbing:boulder":"no","climbing:sport":"yes","name":"Site d'escalade de Remigny","natural":"cliff","opening_hours":"24/7","rock":"limestone","sport":"climbing","url":"https://www.remigny.fr/escalade"}},"428917564":{"lat":46.9018972,"lon":4.6095384,"ts":"2020-11-10T02:00:23Z","tz":1,"tags":{"name":"Site d’escalade du Mt Rome","natural":"cliff","sport":"climbing"}},"428917565":{"lat":46.9019085,"lon":4.6104528,"ts":"2020-11-10T02:00:23Z","tz":1,"tags":{"natural":"cliff","sport":"climbing"}},"585984123":{"lat":46.9658717,"lon":4.6533852,"ts":"2023-05-05T12:59:32Z","tz":1,"tags":{"climbing":"crag","fee":"no","name":"Secteur gâteau","natural":"rock","rock":"limestone","sport":"climbing","url":"https://www.nolay.com/activites/les-superbes-falaises-de-cormot/"}},"585986363":{"lat":46.9018956,"lon":4.6098617,"ts":"2022-11-04T02:14:44Z","tz":1,"tags":{"name":"Mont Rome","sport":"climbing"}},"2934190473":{"lat":46.8259068,"lon":4.8337406,"ts":"2023-02-16T00:38:21Z","tz":1,"tags":{"man_made":"yes","source":"data.gouv.fr:Le ministère des droits des femmes, de la ville, de la jeunesse et des sports - 2014","sport":"climbing"}},"2934190484":{"lat":46.9051231,"lon":4.7615868,"ts":"2023-02-16T00:38:21Z","tz":1,"tags":{"man_made":"yes","source":"data.gouv.fr:Le ministère des droits des femmes, de la ville, de la jeunesse et des sports - 2014","sport":"climbing"}},"2934346758":{"lat":46.8028362,"lon":4.8662017,"ts":"2023-02-16T00:38:21Z","tz":1,"tags":{"man_made":"yes","source":"data.gouv.fr:Le ministère des droits des femmes, de la ville, de la jeunesse et des sports - 2014","sport":"climbing"}},"2937982636":{"lat":46.98356,"lon":4.64211,"ts":"2014-06-28T20:19:31Z","tz":1,"tags":{"name":"Cirque du Bout du Monde","source":"data.gouv.fr:Le ministère des droits des femmes, de la ville, de la jeunesse et des sports - 2014","sport":"climbing"}},"5703370274":{"lat":46.9718129,"lon":4.6556738,"ts":"2018-06-19T22:09:14Z","tz":1,"tags":{"indoor":"no","opening_hours":"24/7","outdoor":"yes","sport":"climbing"}},"5703370275":{"lat":46.9716354,"lon":4.6529366,"ts":"2018-06-19T22:09:14Z","tz":1,"tags":{"indoor":"no","opening_hours":"24/7","outdoor":"yes","sport":"climbing"}},"5703370276":{"lat":46.9715192,"lon":4.6503617,"ts":"2018-06-19T22:09:14Z","tz":1,"tags":{"indoor":"no","opening_hours":"24/7","outdoor":"yes","sport":"climbing"}},"6322821745":{"lat":46.8188495,"lon":4.7040165,"ts":"2019-03-07T11:22:58Z","tz":1,"tags":{"leisure":"sports_centre","name":"Le Teu","natural":"rock","sport":"climbing","url":"http://bloggrincheux.canalblog.com/archives/teu/"}}}