{"99407574":{"lat":46.0299016,"lon":4.697745,"ts":"2011-02-12T21:53:57Z","tz":1,"tags":{"leisure":"sports_centre","name":"Mur d'Escalade","sport":"climbing"}},"496168034":{"lat":45.9678695,"lon":4.701403,"ts":"2023-11-04T08:59:04Z","tz":1,"tags":{"climbing:deepwater":"no","climbing:grade:french:max":"6c","climbing:grade:french:min":"3","climbing:ice":"no","climbing:length":"10","climbing:length:max":"15","climbing:length:min":"8","climbing:mixed":"no","climbing:multipitch":"no","climbing:sport":"yes","climbing:toprope":"no","climbing:trad":"no","name":"Site d'escalade de Buisante-Limas","natural":"cliff","operator":"Fédération française des clubs alpins et de montagne","sport":"climbing","website":"https://villefranche-sur-saone.ffcam.fr/SNE_Buisante.html"}},"1376767750":{"lat":45.8681487,"lon":4.8130631,"ts":"2019-08-11T19:59:37Z","tz":1,"tags":{"access":"yes","climbing:grade:french:max":"6b+","climbing:grade:french:min":"3c","climbing:length:max":"30","climbing:length:min":"15","climbing:orientation":"SW","climbing:rock":"limestone","climbing:routes":"26","climbing:sport":"yes","fee":"no","leisure":"sports_centre","name":"Curis-au-Mont-d'Or","operator":"Fédération Française de la Montagne et de l'Escalade","outdoor":"yes","sport":"climbing","website":"https://www.ffme.fr/site/falaise-fiche/1669.html"}},"3710431309":{"lat":46.0597404,"lon":4.7115183,"ts":"2015-08-23T11:47:56Z","tz":1,"tags":{"source":"data.gouv.fr:Le ministère des droits des femmes, de la ville, de la jeunesse et des sports - 2014","sport":"climbing"}},"3759191495":{"lat":45.9386312,"lon":4.7124459,"ts":"2015-09-25T17:55:02Z","tz":1,"tags":{"source":"data.gouv.fr:Le ministère des droits des femmes, de la ville, de la jeunesse et des sports - 2014","sport":"climbing"}},"3759191534":{"lat":45.9913238,"lon":4.6928006,"ts":"2015-09-25T17:55:03Z","tz":1,"tags":{"leisure":"pitch","source":"data.gouv.fr:Le ministère des droits des femmes, de la ville, de la jeunesse et des sports - 2014","sport":"climbing"}},"6772728850":{"lat":45.9675946,"lon":4.7014473,"ts":"2024-05-09T10:53:19Z","tz":1,"tags":{"climbing":"route","climbing:bolted":"1.5","climbing:grade:french":"4","climbing:length":"7","climbing:orientation":"N","climbing:quality":"solid","climbing:rock":"limestone","climbing:sport":"yes","description":"Sur le dièdre","operator":"Fédération française des clubs alpins et de montagne","outdoor":"yes","ref":"28","ref:camptocamp":"../routes/1146474"}},"6772728853":{"lat":45.9676171,"lon":4.7012509,"ts":"2024-05-09T10:53:19Z","tz":1,"tags":{"climbing":"route","operator":"Fédération française des clubs alpins et de montagne","ref":"31","ref:camptocamp":"../routes/1146483"}},"6772728854":{"lat":45.9676109,"lon":4.7012958,"ts":"2024-05-09T10:53:19Z","tz":1,"tags":{"climbing":"route","name":"La nounours","operator":"Fédération française des clubs alpins et de montagne","ref":"30","ref:camptocamp":"../routes/1146478"}},"6772728855":{"lat":45.9676237,"lon":4.7012042,"ts":"2024-05-09T10:53:19Z","tz":1,"tags":{"climbing":"route","name":"Victoire sur l'équeville","operator":"Fédération française des clubs alpins et de montagne","ref":"32","ref:camptocamp":"../routes/1146481"}},"6772728856":{"lat":45.9675923,"lon":4.7014283,"ts":"2024-05-09T10:53:19Z","tz":1,"tags":{"climbing":"route","climbing:bolted":"1.5","climbing:grade:french":"5b","climbing:length":"7","climbing:orientation":"N","climbing:quality":"solid","climbing:rock":"limestone","climbing:sport":"yes","description":"Première à droite après le dièdre","operator":"Fédération française des clubs alpins et de montagne","outdoor":"yes","ref":"29","ref:camptocamp":"../routes/1146474"}},"9542967221":{"lat":45.8478619,"lon":4.817873,"ts":"2022-02-27T15:50:51Z","tz":1,"tags":{"climbing:bolted":"2","climbing:grade:french:max":"7a","climbing:grade:french:min":"5b","climbing:length:max":"20","climbing:length:min":"20","climbing:orientation":"E","climbing:rock":"limestone","climbing:sport":"yes","leisure":"sports_centre","sport":"climbing","website":"https://www.escalade-montagne.fr/wp-content/uploads/2015/06/Topo-Couzon-au-mont-d_or-lyon-escalade.pdf"}}}