{"237152687":{"lat":50.0706006,"lon":19.6828846,"ts":"2015-02-03T21:26:01Z","tz":1,"tags":{"height":"20","name":"Sępia Czułowska","natural":"bare_rock","rock":"limestone","source":"knowledge","sport":"climbing"}},"237152688":{"lat":50.0705756,"lon":19.6828562,"ts":"2013-09-08T20:21:44Z","tz":1,"tags":{"height":"16","leisure":"climbing","name":"Sępia Czułowska","natural":"cliff","rock":"limestone","source":"knowledge","sport":"climbing"}},"237152689":{"lat":50.0701685,"lon":19.6826383,"ts":"2024-06-13T13:10:03Z","tz":1,"tags":{"height":"25","name":"Wacman","natural":"bare_rock","rock":"limestone","source":"knowledge","sport":"climbing"}},"237152690":{"lat":50.0702226,"lon":19.6825775,"ts":"2013-09-08T20:21:45Z","tz":1,"tags":{"height":"20","leisure":"climbing","name":"Wacman","natural":"cliff","rock":"limestone","source":"knowledge","sport":"climbing"}},"237152821":{"lat":50.0717236,"lon":19.6842804,"ts":"2022-03-20T00:39:50Z","tz":1,"tags":{"height":"60","name":"Łysina","natural":"bare_rock","rock":"limestone","source":"knowledge","sport":"climbing"}},"237152822":{"lat":50.0717761,"lon":19.6841775,"ts":"2022-03-20T00:39:50Z","tz":1,"tags":{"height":"55","leisure":"climbing","name":"Łysina","natural":"cliff","rock":"limestone","source":"knowledge","sport":"climbing"}},"237152823":{"lat":50.0718209,"lon":19.6845858,"ts":"2022-03-20T00:39:50Z","tz":1,"tags":{"height":"25","leisure":"climbing","name":"Żagiel","natural":"cliff","rock":"limestone","source":"knowledge","sport":"climbing"}},"242883276":{"lat":50.1970081,"lon":19.6836326,"ts":"2020-03-10T16:00:34Z","tz":1,"tags":{"climbing:bolted":"yes","climbing:grade:polish:max":"VI.3","climbing:grade:polish:min":"III","climbing:length":"15","climbing:quality":"solid","climbing:rock":"limestone","climbing:routes":"18","climbing:sport":"yes","climbing:trad":"yes","height":"16","iof":"bare_rock","name":"Racuch","natural":"bare_rock","rock":"limestone","source":"knowledge","sport":"climbing"}},"242883332":{"lat":50.1969505,"lon":19.6835854,"ts":"2021-08-19T15:41:21Z","tz":1,"tags":{"height":"15","iof":"cliff","leisure":"climbing","name":"Racuch","natural":"cliff","passable":"yes","rock":"limestone","source":"knowledge","sport":"climbing"}},"338368265":{"lat":50.2072743,"lon":19.6805848,"ts":"2015-04-13T18:53:40Z","tz":1,"tags":{"climbing:quality":"solid","climbing:rock":"limestone","natural":"bare_rock","rock":"limestone","source":"knowledge","sport":"climbing"}},"1306127615":{"lat":50.1996661,"lon":19.667113,"ts":"2024-08-07T10:05:45Z","tz":1,"tags":{"height":"12","leisure":"climbing","name":"Powroźna Grań","natural":"cliff","rock":"limestone","source":"knowledge","sport":"climbing"}},"1306127616":{"lat":50.1996248,"lon":19.6673862,"ts":"2024-08-07T10:05:45Z","tz":1,"tags":{"height":"12","leisure":"climbing","name":"Powroźna Grań","natural":"cliff","rock":"limestone","source":"knowledge","sport":"climbing"}},"1306127617":{"lat":50.1990179,"lon":19.6678931,"ts":"2024-08-07T10:05:45Z","tz":1,"tags":{"height":"16","leisure":"climbing","name":"Szafot","natural":"cliff","rock":"limestone","source":"knowledge","sport":"climbing"}},"1306127618":{"lat":50.1991029,"lon":19.667929,"ts":"2024-08-07T10:05:45Z","tz":1,"tags":{"climbing:bolted":"yes","climbing:quality":"solid","climbing:rock":"limestone","climbing:sport":"yes","climbing:trad":"no","name":"Szafot","natural":"bare_rock","rock":"limestone","source":"knowledge","sport":"climbing"}},"1306127619":{"lat":50.1993531,"lon":19.6677336,"ts":"2024-08-07T10:05:45Z","tz":1,"tags":{"climbing:quality":"solid","climbing:rock":"limestone","natural":"bare_rock","rock":"limestone","source":"knowledge","sport":"climbing"}},"1306127620":{"lat":50.1995083,"lon":19.6676219,"ts":"2024-08-07T10:05:45Z","tz":1,"tags":{"climbing:quality":"solid","climbing:rock":"limestone","natural":"bare_rock","rock":"limestone","source":"knowledge","sport":"climbing"}},"1306127621":{"lat":50.1995525,"lon":19.6672619,"ts":"2024-08-07T10:05:45Z","tz":1,"tags":{"climbing:quality":"solid","climbing:rock":"limestone","natural":"bare_rock","rock":"limestone","source":"knowledge","sport":"climbing"}},"1306127622":{"lat":50.1995314,"lon":19.6671611,"ts":"2024-08-07T10:05:45Z","tz":1,"tags":{"climbing:quality":"solid","climbing:rock":"limestone","natural":"bare_rock","rock":"limestone","source":"knowledge","sport":"climbing"}},"1306127623":{"lat":50.1995096,"lon":19.6670369,"ts":"2024-08-07T10:05:45Z","tz":1,"tags":{"climbing:quality":"solid","climbing:rock":"limestone","natural":"bare_rock","rock":"limestone","source":"knowledge","sport":"climbing"}},"1306127624":{"lat":50.1996325,"lon":19.6673126,"ts":"2024-08-07T10:05:45Z","tz":1,"tags":{"climbing:bolted":"yes","climbing:quality":"solid","climbing:rock":"limestone","climbing:sport":"yes","climbing:trad":"yes","height":"30","name":"Powroźna Grań","natural":"bare_rock","rock":"limestone","source":"knowledge","sport":"climbing"}},"1306127625":{"lat":50.1997227,"lon":19.6676128,"ts":"2024-08-07T10:05:45Z","tz":1,"tags":{"height":"14","leisure":"climbing","name":"Folwark","natural":"cliff","rock":"limestone","source":"knowledge","sport":"climbing"}},"1306127626":{"lat":50.1998724,"lon":19.6678001,"ts":"2024-08-07T10:05:45Z","tz":1,"tags":{"height":"14","leisure":"climbing","name":"Manufaktura","natural":"cliff","rock":"limestone","source":"knowledge","sport":"climbing"}},"1306127627":{"lat":50.1996977,"lon":19.6676604,"ts":"2024-08-07T10:05:45Z","tz":1,"tags":{"climbing:bolted":"yes","climbing:quality":"solid","climbing:rock":"limestone","climbing:sport":"yes","height":"14","name":"Powroźnikowa","natural":"bare_rock","rock":"limestone","source":"knowledge","sport":"climbing"}},"1306127628":{"lat":50.2000587,"lon":19.667889,"ts":"2024-08-07T10:05:45Z","tz":1,"tags":{"height":"15","leisure":"climbing","name":"Parowozownia","natural":"cliff","rock":"limestone","source":"knowledge","sport":"climbing"}},"1306127629":{"lat":50.2003147,"lon":19.6681175,"ts":"2024-08-07T10:05:45Z","tz":1,"tags":{"height":"14","leisure":"climbing","name":"Ośmiornica","natural":"cliff","rock":"limestone","source":"knowledge","sport":"climbing"}},"1306127630":{"lat":50.1999842,"lon":19.6679273,"ts":"2024-08-07T10:05:45Z","tz":1,"tags":{"climbing:bolted":"yes","climbing:quality":"solid","climbing:rock":"limestone","climbing:sport":"yes","climbing:trad":"no","height":"15","name":"Powroźnikowa - Parowozownia","natural":"bare_rock","rock":"limestone","source":"knowledge","sport":"climbing"}},"1306127631":{"lat":50.2003766,"lon":19.6678183,"ts":"2024-08-07T10:05:45Z","tz":1,"tags":{"climbing:quality":"solid","climbing:rock":"limestone","name":"Gilotynka","natural":"bare_rock","rock":"limestone","source":"knowledge","sport":"climbing"}},"1306127632":{"lat":50.2004786,"lon":19.6684256,"ts":"2024-08-07T10:05:45Z","tz":1,"tags":{"height":"15","leisure":"climbing","name":"Ząbczyska","natural":"cliff","rock":"limestone","source":"knowledge","sport":"climbing"}},"1306127634":{"lat":50.2004065,"lon":19.6682865,"ts":"2024-08-07T10:05:45Z","tz":1,"tags":{"climbing:bolted":"yes","climbing:quality":"solid","climbing:rock":"limestone","climbing:sport":"yes","climbing:trad":"yes","height":"18","name":"Powroźnikowa","natural":"bare_rock","rock":"limestone","source":"knowledge","sport":"climbing"}},"1306127635":{"lat":50.2006648,"lon":19.6684211,"ts":"2024-08-07T10:05:45Z","tz":1,"tags":{"height":"18","leisure":"climbing","name":"Wersal","natural":"cliff","rock":"limestone","source":"knowledge","sport":"climbing"}},"1306127636":{"lat":50.200718,"lon":19.6685453,"ts":"2024-08-07T10:05:45Z","tz":1,"tags":{"climbing:bolted":"yes","climbing:quality":"solid","climbing:rock":"limestone","climbing:sport":"yes","height":"18","name":"Powroźnikowa","natural":"bare_rock","rock":"limestone","source":"knowledge","sport":"climbing"}},"3628785642":{"lat":50.163248,"lon":19.4614556,"ts":"2015-07-01T10:21:35Z","tz":1,"tags":{"name":"Ściana wspinaczkowa","sport":"climbing","tourism":"attraction"}}}