{"150279639":{"lat":50.4479556,"lon":30.5472187,"ts":"2023-10-31T20:40:06Z","tz":2,"tags":{"historic":"ruins","name":"Нижня підпірна стіна - Київська фортеця","name:ru":"Нижняя подпорная стена - Киевская крепость","name:uk":"Нижня підпірна стіна - Київська фортеця","sport":"climbing"}},"352558068":{"lat":50.442377,"lon":30.375,"ts":"2023-03-03T20:30:24Z","tz":2,"tags":{"contact:website":"http://maugli.kiev.ua/","name":"Мотузковий парк \"Мауглі\"","name:uk":"Мотузковий парк \"Мауглі\"","sport":"climbing","tourism":"theme_park"}},"1086057469":{"lat":50.462743,"lon":30.5362731,"ts":"2022-08-13T18:57:50Z","tz":2,"tags":{"barrier":"wall","climbing":"bouldering","sport":"climbing"}},"1086057470":{"lat":50.4628304,"lon":30.5361463,"ts":"2023-11-01T16:29:39Z","tz":2,"tags":{"contact:facebook":"ostrivclimb","leisure":"sports_centre","name":"Скелелазний центр \"Острів\"","name:en":"Climbing area \"Ostrov\"","name:ru":"Скелодром \"Остров\"","name:uk":"Скелелазний центр \"Острів\"","sport":"climbing"}},"1367898112":{"lat":50.4365484,"lon":30.4229516,"ts":"2024-03-23T09:56:27Z","tz":2,"tags":{"int_name":"Climbstand «Vertical»","leisure":"sports_centre","name":"Стенд «Вертикаль»","name:uk":"Стенд «Вертикаль»","sport":"climbing"}},"4945450412":{"lat":50.4000416,"lon":30.5143046,"ts":"2023-03-03T18:16:54Z","tz":2,"tags":{"leisure":"sports_centre","name":"Climbing gym up","name:uk":"Climbing gym up","sport":"climbing"}},"6947697253":{"lat":50.4425635,"lon":30.4496353,"ts":"2023-10-30T23:12:27Z","tz":2,"tags":{"alt_name":"KPIskala","climbing:boulder":"yes","climbing:sport":"yes","name":"Скалодром КПІскала","name:ru":"Скалодром КПИскала","name:uk":"Скалодром КПІскала","phone":"+380 73 433 0993","sport":"climbing"}}}