{"5146278192":{"lat":24.2320197,"lon":112.8910057,"ts":"2023-01-28T16:10:51Z","tz":8,"tags":{"leisure":"sports_centre","name":"Big Temple Crag","sport":"climbing"}},"5146278193":{"lat":24.2339512,"lon":112.8771688,"ts":"2018-11-02T02:54:28Z","tz":8,"tags":{"name":"Camel Tower","sport":"climbing"}},"5146278194":{"lat":24.2239143,"lon":112.8859032,"ts":"2018-12-30T23:32:15Z","tz":8,"tags":{"name":"The Jungle Book","sport":"climbing"}},"5146278195":{"lat":24.2299495,"lon":112.8929788,"ts":"2023-01-28T16:10:51Z","tz":8,"tags":{"leisure":"sports_centre","name":"Wizard of Oz Wall","sport":"climbing"}},"5146278196":{"lat":24.2379232,"lon":112.8783704,"ts":"2017-10-04T00:23:54Z","tz":8,"tags":{"sport":"climbing"}},"5146278197":{"lat":24.2376102,"lon":112.8760551,"ts":"2017-10-04T00:23:54Z","tz":8,"tags":{"sport":"climbing"}},"5146278198":{"lat":24.2296475,"lon":112.8873183,"ts":"2017-10-04T00:23:54Z","tz":8,"tags":{"sport":"climbing"}},"5451363821":{"lat":24.2126979,"lon":112.9173576,"ts":"2018-12-30T23:42:27Z","tz":8,"tags":{"name:en":"Bamboo groove","sport":"climbing"}},"6031086685":{"lat":24.2311608,"lon":112.8740104,"ts":"2018-12-30T23:42:27Z","tz":8,"tags":{"name":"Pocket Crag","sport":"climbing"}},"6031086695":{"lat":24.2179854,"lon":112.926359,"ts":"2018-11-02T02:54:27Z","tz":8,"tags":{"name":"Little Temple Crag","sport":"climbing"}},"6031086700":{"lat":24.2307224,"lon":112.8796881,"ts":"2018-11-02T02:54:28Z","tz":8,"tags":{"name":"Camel Mountain","sport":"climbing"}},"6031086703":{"lat":24.2158137,"lon":112.9038671,"ts":"2018-11-02T02:54:28Z","tz":8,"tags":{"name":"The Afternoon Crag","sport":"climbing"}},"6147650331":{"lat":24.2132948,"lon":112.9142678,"ts":"2018-12-30T23:42:27Z","tz":8,"tags":{"name:en":"Fantasyland","sport":"climbing"}}}