{"28702892":{"lat":48.4019571,"lon":-4.4625864,"ts":"2022-09-10T08:24:06Z","tz":1,"tags":{"leisure":"sports_centre","name":"Mur d'Escalade Jean Guéguéniat","sport":"climbing","wheelchair":"yes"}},"352030720":{"lat":48.3805948,"lon":-4.3933712,"ts":"2021-07-22T16:37:22Z","tz":1,"tags":{"name":"Le Cube","natural":"bare_rock","source":"data.gouv.fr:Le ministère des droits des femmes, de la ville, de la jeunesse et des sports - 2014","sport":"climbing"}},"910137896":{"lat":48.3899925,"lon":-4.4983631,"ts":"2025-03-29T06:06:16Z","tz":1,"tags":{"harassment_prevention":"ask_angela","leisure":"fitness_centre","level":"0;1","name":"Climb Up Brest","opening_hours":"Mo-Fr 10:00-23:00; Sa-Su 10:00-20:00","phone":"+33988037826","sauna":"yes","sport":"climbing","website":"https://brest.climb-up.fr/","wheelchair":"limited"}},"938061269":{"lat":48.3885197,"lon":-4.3764321,"ts":"2021-12-12T13:11:54Z","tz":1,"tags":{"ele":"98","name":"Rocher de l'Impératrice","name:br":"Roc'h an Impalaerez","natural":"peak","source:name:br":"ofis publik ar brezhoneg","sport":"climbing"}},"1091892142":{"lat":48.3893686,"lon":-4.375806,"ts":"2022-10-01T20:13:16Z","tz":1,"tags":{"climbing":"route","climbing:grade:uiaa:mean":"6","climbing:length":"35","climbing:length:min":"35","climbing:pitches":"1","climbing:routes":"3","climbing:sport":"yes","climbing:trad":"yes","leisure":"sports_centre","name":"Site d'escalade du rocher de l'impératrice","source":"survey","sport":"climbing"}},"1692074889":{"lat":48.3916393,"lon":-4.4870475,"ts":"2024-08-19T09:22:05Z","tz":1,"tags":{"climbing:boulder":"yes","contact:city":"Brest","contact:country":"FR","contact:housenumber":"6","contact:phone":"+33 9 82 25 18 87","contact:postcode":"29200","contact:street":"Rue Augustin Morvan","contact:website":"http://brest.theroof.fr/","leisure":"sports_centre","name":"The Roof - Maison de l'escalade","opening_hours":"10:00 - 22:00","source":"BMO mars2012","sport":"climbing","wheelchair":"yes"}},"2938052184":{"lat":48.3776422,"lon":-4.3983866,"ts":"2021-04-19T14:30:38Z","tz":1,"tags":{"name":"Le Serpent","source":"data.gouv.fr:Le ministère des droits des femmes, de la ville, de la jeunesse et des sports - 2014","sport":"climbing"}},"9386872317":{"lat":48.2355454,"lon":-4.2893759,"ts":"2023-09-18T16:34:42Z","tz":1,"tags":{"name":"Argol","note":"Topo: « Escalade à Pen-Hir et Argol » disponible à l'office de tourisme de Crozon ou de Camaret-sur-Mer","sport":"climbing"}},"10728398390":{"lat":48.3892726,"lon":-4.3757038,"ts":"2024-11-09T22:56:03Z","tz":1,"tags":{"access":"yes","cash_withdrawal:fee":"no","cash_withdrawal:purchase_minimum":"no","check_date":"2024-11-09","climbing:quality":"solid","climbing:rock":"granite","climbing:sport":"yes","climbing:summit_log":"no","climbing:trad":"yes","fee":"no","internet_access":"no","leisure":"sports_centre","opening_hours":"24/7","outdoor":"yes","source":"survey","sport":"climbing","wheelchair":"no"}},"12174370438":{"lat":48.4467622,"lon":-4.397991,"ts":"2024-09-13T07:45:15Z","tz":1,"tags":{"leisure":"sports_centre","sport":"climbing"}}}