{"14708618":{"lat":49.5593909,"lon":16.3106337,"ts":"2022-10-24T12:14:08Z","tz":1,"tags":{"climbing":"route","name":"Via Ferrata Ledová stěna (Velká věž)","route":"via_ferrata","type":"route","via_ferrata_scale":"2+"}},"14717468":{"lat":49.5585543,"lon":16.3091704,"ts":"2022-10-21T11:26:30Z","tz":1,"tags":{"climbing":"route","name":"Via Ferrata Horní vyhlídka","route":"via_ferrata","type":"route","via_ferrata_scale":"3+"}},"17643972":{"lat":49.5024566,"lon":16.3600388,"ts":"2024-05-27T19:47:08Z","tz":1,"tags":{"climbing":"crag","name":"Vysoká skála u Štěpánova","site":"climbing","sport":"climbing","type":"site","website":"https://www.horosvaz.cz/skaly-skala-7364/"}},"17755951":{"lat":49.5620442,"lon":16.3096339,"ts":"2024-06-23T21:29:57Z","tz":1,"tags":{"climbing":"crag","name":"Skály pod hrází","site":"climbing","sport":"climbing","type":"site","website":"https://www.horosvaz.cz/skaly-skala-13021/"}},"17755954":{"lat":49.5594225,"lon":16.3098063,"ts":"2024-06-23T21:32:25Z","tz":1,"tags":{"climbing":"crag","name":"Malá věž","site":"climbing","sport":"climbing","type":"site","website":"https://www.horosvaz.cz/skaly-skala-13020/"}},"17755958":{"lat":49.5594545,"lon":16.3105048,"ts":"2024-06-23T21:33:12Z","tz":1,"tags":{"climbing":"crag","name":"Velká věž","site":"climbing","sport":"climbing","type":"site","website":"https://www.horosvaz.cz/skaly-skala-13019/"}},"46618248":{"lat":49.5594076,"lon":16.3104073,"ts":"2025-01-02T16:43:06Z","tz":1,"tags":{"climbing:ice":"yes","leisure":"sports_centre","name":"Ledová stěna Adrex","source":"survey","sport":"climbing"}},"367301581":{"lat":49.522672,"lon":16.2518109,"ts":"2015-08-24T18:51:26Z","tz":1,"tags":{"leisure":"pitch","lit":"no","name":"Lanový park Siesta","sport":"climbing","surface":"dirt"}},"7707584420":{"lat":49.4499455,"lon":16.3022438,"ts":"2020-07-12T17:56:00Z","tz":1,"tags":{"fixme":"add more details","leisure":"sports_centre","name":"Výří skála","sport":"climbing"}},"11938075367":{"lat":49.5024179,"lon":16.3602361,"ts":"2024-05-27T19:47:08Z","tz":1,"tags":{"climbing":"route_bottom","climbing:grade:uiaa":"4","name":"Prastará","sport":"climbing","website":"https://www.horosvaz.cz/skaly-cesta-52528/"}},"11938075368":{"lat":49.5024178,"lon":16.3602189,"ts":"2024-05-27T19:47:08Z","tz":1,"tags":{"climbing":"route_bottom","climbing:grade:uiaa":"6-","name":"Smíšené pocity","sport":"climbing","website":"https://www.horosvaz.cz/skaly-cesta-52529/"}},"11938125669":{"lat":49.5024151,"lon":16.3601997,"ts":"2024-05-27T19:47:08Z","tz":1,"tags":{"climbing":"route_bottom","climbing:grade:uiaa":"4+","name":"Zkratka pro turisty","sport":"climbing","website":"https://www.horosvaz.cz/skaly-cesta-52530/"}},"11938125670":{"lat":49.5024117,"lon":16.3601818,"ts":"2024-05-27T19:47:08Z","tz":1,"tags":{"climbing":"route_bottom","climbing:grade:uiaa":"5","name":"Nejlepší na konec","sport":"climbing","website":"https://www.horosvaz.cz/skaly-cesta-52532/"}},"11938125671":{"lat":49.5024125,"lon":16.3601593,"ts":"2024-05-27T19:47:08Z","tz":1,"tags":{"climbing":"route_bottom","climbing:grade:uiaa":"5+","name":"Iontová disbalance","sport":"climbing","website":"https://www.horosvaz.cz/skaly-cesta-52531/"}},"11938125672":{"lat":49.5024181,"lon":16.3601394,"ts":"2024-05-27T19:47:08Z","tz":1,"tags":{"climbing":"route_bottom","climbing:grade:uiaa":"4","name":"Čekání na Adama","sport":"climbing","website":"https://www.horosvaz.cz/skaly-cesta-52514/"}},"11938125673":{"lat":49.5024236,"lon":16.3601196,"ts":"2024-05-27T19:47:08Z","tz":1,"tags":{"climbing":"route_bottom","climbing:grade:uiaa":"4","name":"Jarní cesta","sport":"climbing","website":"https://www.horosvaz.cz/skaly-cesta-52516/"}},"11938125674":{"lat":49.5024292,"lon":16.3600997,"ts":"2024-05-27T19:47:08Z","tz":1,"tags":{"climbing":"route_bottom","climbing:grade:uiaa":"6","name":"Přes převis","sport":"climbing","website":"https://www.horosvaz.cz/skaly-cesta-52519/"}},"11938125675":{"lat":49.5024347,"lon":16.3600799,"ts":"2024-05-27T19:47:08Z","tz":1,"tags":{"climbing":"route_bottom","climbing:grade:uiaa":"7/7+","name":"Věčně mladý","sport":"climbing","website":"https://www.horosvaz.cz/skaly-cesta-52534/"}},"11938125676":{"lat":49.5024403,"lon":16.36006,"ts":"2024-05-27T19:47:08Z","tz":1,"tags":{"climbing":"route_bottom","climbing:grade:uiaa":"8+","name":"Přes převisy","sport":"climbing","website":"https://www.horosvaz.cz/skaly-cesta-52518/"}},"11938125677":{"lat":49.5024458,"lon":16.3600401,"ts":"2024-05-27T19:47:08Z","tz":1,"tags":{"climbing":"route_bottom","climbing:grade:uiaa":"6","name":"Pánská jízda","sport":"climbing","website":"https://www.horosvaz.cz/skaly-cesta-52533/"}},"11938125678":{"lat":49.5024514,"lon":16.3600203,"ts":"2024-05-27T19:47:08Z","tz":1,"tags":{"climbing":"route_bottom","climbing:grade:uiaa":"5","name":"Newprojekt","sport":"climbing","website":"https://www.horosvaz.cz/skaly-cesta-52526/"}},"11938125679":{"lat":49.502457,"lon":16.3600004,"ts":"2024-05-27T19:47:08Z","tz":1,"tags":{"climbing":"route_bottom","climbing:grade:uiaa":"4","name":"Osiková","sport":"climbing","website":"https://www.horosvaz.cz/skaly-cesta-52522/"}},"11938125680":{"lat":49.5024625,"lon":16.3599806,"ts":"2024-05-27T19:47:08Z","tz":1,"tags":{"climbing":"route_bottom","climbing:grade:uiaa":"5+","name":"Sluneční paprsek","sport":"climbing","website":"https://www.horosvaz.cz/skaly-cesta-52527/"}},"11938125681":{"lat":49.5024681,"lon":16.3599607,"ts":"2024-05-27T19:47:08Z","tz":1,"tags":{"climbing":"route_bottom","climbing:grade:uiaa":"6-","name":"Na hraně","sport":"climbing","website":"https://www.horosvaz.cz/skaly-cesta-52515/"}},"11938125682":{"lat":49.5024736,"lon":16.3599408,"ts":"2024-05-27T19:47:08Z","tz":1,"tags":{"climbing":"route_bottom","climbing:grade:uiaa":"5","name":"Malinová - direkt","sport":"climbing","website":"https://www.horosvaz.cz/skaly-cesta-52523/"}},"11938125683":{"lat":49.5024792,"lon":16.359921,"ts":"2024-05-27T19:47:08Z","tz":1,"tags":{"climbing":"route_bottom","climbing:grade:uiaa":"4","name":"Malinová","sport":"climbing","website":"https://www.horosvaz.cz/skaly-cesta-52524/"}},"11938125684":{"lat":49.5024847,"lon":16.3599011,"ts":"2024-05-27T19:47:08Z","tz":1,"tags":{"climbing":"route_bottom","climbing:grade:uiaa":"4","name":"Plavovláska (středem)","sport":"climbing","website":"https://www.horosvaz.cz/skaly-cesta-52517/"}},"11938125685":{"lat":49.5024903,"lon":16.3598812,"ts":"2024-05-27T19:47:08Z","tz":1,"tags":{"climbing":"route_bottom","climbing:grade:uiaa":"4","name":"Západní hrana","sport":"climbing","website":"https://www.horosvaz.cz/skaly-cesta-52521/"}},"11938125686":{"lat":49.5024959,"lon":16.3598614,"ts":"2024-05-27T19:47:08Z","tz":1,"tags":{"climbing":"route_bottom","climbing:grade:uiaa":"6-","name":"Černovláska","sport":"climbing","website":"https://www.horosvaz.cz/skaly-cesta-52520/"}},"11938125687":{"lat":49.5025014,"lon":16.3598415,"ts":"2024-05-27T19:47:08Z","tz":1,"tags":{"climbing":"route_bottom","climbing:grade:uiaa":"3","name":"Normálka","sport":"climbing","website":"https://www.horosvaz.cz/skaly-cesta-52525/"}},"12004386550":{"lat":49.5619725,"lon":16.3096088,"ts":"2024-06-23T21:29:57Z","tz":1,"tags":{"author":"Autoři neznámí","climbing":"route_bottom","climbing:grade:french":"6c","name":"Třídírna","sport":"climbing","website":"https://www.horosvaz.cz/skaly-cesta-105380/"}},"12004386551":{"lat":49.5619902,"lon":16.3096071,"ts":"2024-06-23T21:29:57Z","tz":1,"tags":{"author":"Autoři neznámí","climbing":"route_bottom","climbing:grade:french":"5c","name":"Drtírna","sport":"climbing","website":"https://www.horosvaz.cz/skaly-cesta-105379/"}},"12004386552":{"lat":49.562008,"lon":16.3096054,"ts":"2024-06-23T21:29:57Z","tz":1,"tags":{"author":"Autoři neznámí","climbing":"route_bottom","climbing:grade:french":"5c","name":"Betonárna","sport":"climbing","website":"https://www.horosvaz.cz/skaly-cesta-105378/"}},"12004386553":{"lat":49.5620437,"lon":16.3096155,"ts":"2024-06-23T21:29:57Z","tz":1,"tags":{"author":"Autoři neznámí","climbing":"route_bottom","climbing:grade:french":"5a","name":"Turbína","sport":"climbing","website":"https://www.horosvaz.cz/skaly-cesta-105377/"}},"12004386554":{"lat":49.5620618,"lon":16.3096272,"ts":"2024-06-23T21:29:57Z","tz":1,"tags":{"author":"Autoři neznámí","climbing":"route_bottom","climbing:grade:french":"5b","name":"Johnson","sport":"climbing","website":"https://www.horosvaz.cz/skaly-cesta-105376/"}},"12004386555":{"lat":49.5620798,"lon":16.309639,"ts":"2024-06-23T21:29:57Z","tz":1,"tags":{"author":"Autoři neznámí","climbing":"route_bottom","climbing:grade:french":"5b","name":"Labutí jezero","sport":"climbing","website":"https://www.horosvaz.cz/skaly-cesta-105375/"}},"12004386556":{"lat":49.5620979,"lon":16.3096507,"ts":"2024-06-23T21:29:57Z","tz":1,"tags":{"author":"Autoři neznámí","climbing":"route_bottom","climbing:grade:french":"6a","name":"Chudbín","sport":"climbing","website":"https://www.horosvaz.cz/skaly-cesta-105374/"}},"12004386557":{"lat":49.5621159,"lon":16.3096624,"ts":"2024-06-23T21:29:57Z","tz":1,"tags":{"author":"Autoři neznámí","climbing":"route_bottom","climbing:grade:french":"5c+","name":"Levobřežka","sport":"climbing","website":"https://www.horosvaz.cz/skaly-cesta-105373/"}},"12004423602":{"lat":49.5594427,"lon":16.3098039,"ts":"2024-06-23T21:32:25Z","tz":1,"tags":{"climbing":"route_bottom","climbing:grade:french":"6a+","name":"Zakantou","sport":"climbing","website":"https://www.horosvaz.cz/skaly-cesta-105371/"}},"12004423603":{"lat":49.5594225,"lon":16.3098063,"ts":"2024-06-23T21:32:25Z","tz":1,"tags":{"climbing":"route_bottom","climbing:grade:french":"5c+","name":"Víra ve Vír","sport":"climbing","website":"https://www.horosvaz.cz/skaly-cesta-105370/"}},"12004423604":{"lat":49.5594023,"lon":16.3098086,"ts":"2024-06-23T21:32:25Z","tz":1,"tags":{"climbing":"route_bottom","climbing:grade:french":"5c","name":"Řekyproud","sport":"climbing","website":"https://www.horosvaz.cz/skaly-cesta-105369/"}},"12004423605":{"lat":49.5594787,"lon":16.3104963,"ts":"2024-06-23T21:33:12Z","tz":1,"tags":{"climbing":"route_bottom","climbing:grade:french":"5c","name":"Žlab","sport":"climbing","website":"https://www.horosvaz.cz/skaly-cesta-105368/"}},"12004423606":{"lat":49.5594666,"lon":16.3105006,"ts":"2024-06-23T21:33:12Z","tz":1,"tags":{"climbing":"route_bottom","climbing:grade:french":"5b","name":"Nepromyšlená","sport":"climbing","website":"https://www.horosvaz.cz/skaly-cesta-105366/"}},"12004423607":{"lat":49.5594545,"lon":16.3105048,"ts":"2024-06-23T21:33:12Z","tz":1,"tags":{"climbing":"route_bottom","climbing:grade:french":"5b","name":"Central","sport":"climbing","website":"https://www.horosvaz.cz/skaly-cesta-105365/"}},"12004423608":{"lat":49.5594424,"lon":16.3105091,"ts":"2024-06-23T21:33:12Z","tz":1,"tags":{"climbing":"route_bottom","climbing:grade:french":"5c","name":"Mravenečník","sport":"climbing","website":"https://www.horosvaz.cz/skaly-cesta-105364/"}},"12004423609":{"lat":49.5594303,"lon":16.3105133,"ts":"2024-06-23T21:33:12Z","tz":1,"tags":{"climbing":"route_bottom","climbing:grade:french":"6b+","name":"Horké červnové odpoledne","sport":"climbing","website":"https://www.horosvaz.cz/skaly-cesta-105367/"}}}