{"686355717":{"lat":43.5588922,"lon":16.456046,"ts":"2019-04-27T22:35:25Z","tz":1,"tags":{"name":"Piramida","natural":"bare_rock","sport":"climbing"}},"686355718":{"lat":43.5593062,"lon":16.4558652,"ts":"2019-04-27T22:48:43Z","tz":1,"tags":{"natural":"bare_rock","sport":"climbing"}},"708032192":{"lat":43.509111,"lon":16.397829,"ts":"2019-04-27T21:44:40Z","tz":1,"tags":{"climbing:bolted":"yes","climbing:grade:french:max":"8a","climbing:grade:french:min":"4b","climbing:orientation":"south","climbing:routes":"77","name":"Marjan","operator":"Marulianus","sport":"climbing"}},"3073524950":{"lat":43.5185398,"lon":16.4317824,"ts":"2014-09-13T14:59:57Z","tz":1,"tags":{"leisure":"sports_centre","name":"Climbing center Marulianus","name:en":"Climbing center Marulianus","name:hr":"PenjaÄki centar Marulianus","sport":"climbing","website":"http://www.marulianus.hr/"}},"4625583009":{"lat":43.3502665,"lon":16.4797019,"ts":"2017-01-23T15:14:14Z","tz":1,"tags":{"climbing:bolted":"yes","sport":"climbing"}},"4625583022":{"lat":43.3511179,"lon":16.4696785,"ts":"2018-05-21T20:46:24Z","tz":1,"tags":{"climbing:bolted":"yes","name":"Kurba","sport":"climbing"}},"6433213906":{"lat":43.5009503,"lon":16.4244772,"ts":"2019-04-27T21:44:40Z","tz":1,"tags":{"climbing:deepwater":"yes","climbing:grade:french:max":"7c","climbing:grade:french:min":"5c","name":"Sustipan","operator":"Marulianus","sport":"climbing"}}}