{"18459590":{"lat":32.3890407,"lon":-110.7167834,"ts":"2024-12-24T11:59:47Z","tz":-7,"tags":{"climbing":"area","name":"Mount Lemmon","sport":"climbing","type":"site"}},"930808975":{"lat":32.4011225,"lon":-110.696806,"ts":"2021-04-14T22:10:53Z","tz":-7,"tags":{"name":"Barnum Rock","natural":"cliff","sport":"climbing"}},"8630314961":{"lat":32.4010768,"lon":-110.6968983,"ts":"2021-04-14T22:14:04Z","tz":-7,"tags":{"name":"Barnum Rock","sport":"climbing","tourism":"attraction"}},"8630377674":{"lat":32.3890407,"lon":-110.7167834,"ts":"2024-12-26T11:59:37Z","tz":-7,"tags":{"climbing":"crag","climbing:grade:yds_class:max":"5.12c","climbing:grade:yds_class:min":"5.4","climbing:sport":"yes","climbing:trad":"yes","name":"Munchkinland","sport":"climbing"}},"8630406314":{"lat":32.3998434,"lon":-110.7161292,"ts":"2021-04-14T22:45:37Z","tz":-7,"tags":{"name":"Incinerated Ridge","sport":"climbing","tourism":"attraction"}},"8630406315":{"lat":32.3996463,"lon":-110.7158457,"ts":"2021-04-14T22:45:37Z","tz":-7,"tags":{"name":"Tall Wall","sport":"climbing","tourism":"attraction"}}}