{"1880713":{"lat":53.2519374,"lon":-1.5826792,"ts":"2023-05-19T00:32:43Z","tz":0,"tags":{"name":"Birchen Edge","natural":"cliff","sport":"climbing","wikidata":"Q4915715","wikipedia":"en:Birchen Edge"}},"7585320":{"lat":53.3280344,"lon":-1.6006973,"ts":"2022-06-09T13:01:03Z","tz":0,"tags":{"climbing":"crag","climbing:rock":"gritstone","name":"Burbage South Valley","site":"bouldering_area","type":"site"}},"18459730":{"lat":53.2799493,"lon":-1.6804683,"ts":"2024-12-24T13:02:21Z","tz":0,"tags":{"climbing":"area","name":"Peak District Limestone","sport":"climbing","type":"site"}},"23310064":{"lat":53.2639427,"lon":-1.6110665,"ts":"2023-06-18T18:24:55Z","tz":0,"tags":{"climbing":"crag","climbing:rock":"gritstone","climbing:trad":"yes","name":"Baslow Edge","natural":"cliff","sport":"climbing"}},"32202500":{"lat":53.2554724,"lon":-1.5928081,"ts":"2023-06-17T00:14:59Z","tz":0,"tags":{"climbing":"crag","climbing:rock":"gritstone","climbing:trad":"yes","name":"Gardom's Edge","natural":"cliff","sport":"climbing","wikidata":"Q5522638"}},"42387693":{"lat":53.2747425,"lon":-1.6176316,"ts":"2020-07-22T09:25:48Z","tz":0,"tags":{"climbing":"crag","climbing:rock":"gritstone","climbing:trad":"yes","ele":"330","name":"Curbar Edge","name:zh":"科巴边缘","natural":"cliff","sport":"climbing"}},"42400331":{"lat":53.281636,"lon":-1.6881635,"ts":"2024-12-24T13:00:21Z","tz":0,"tags":{"climbing":"crag","climbing:bolts":"yes","climbing:rock":"limestone","geology":"limestone","name":"Horseshoe Quarry","natural":"cliff","note":"Actually a disused limestone quarry","sport":"climbing"}},"42400332":{"lat":53.2816161,"lon":-1.6903306,"ts":"2018-08-02T13:26:26Z","tz":0,"tags":{"natural":"cliff","note":"Actually a disused limestone quarry","sport":"climbing"}},"42400333":{"lat":53.281801,"lon":-1.6872625,"ts":"2019-09-05T22:09:54Z","tz":0,"tags":{"natural":"cliff","note":"Actually a disused limestone quarry","sport":"climbing"}},"42402911":{"lat":53.2851439,"lon":-1.6277195,"ts":"2020-09-27T08:15:05Z","tz":0,"tags":{"climbing":"crag","climbing:rock":"gritstone","climbing:trad":"yes","name":"Froggatt Edge","natural":"cliff","sport":"climbing","wikidata":"Q5505247","wikipedia":"en:Froggatt Edge"}},"123861270":{"lat":53.319937,"lon":-1.6233483,"ts":"2020-07-22T17:07:00Z","tz":0,"tags":{"climbing":"crag","climbing:bouldering":"yes","climbing:rock":"gritstone","name":"Mother Cap Quarry","natural":"cliff","sport":"climbing"}},"196133275":{"lat":53.1562538,"lon":-1.6483074,"ts":"2019-02-19T11:33:12Z","tz":0,"tags":{"natural":"cliff","source":"survey","sport":"climbing"}},"196140601":{"lat":53.1579747,"lon":-1.660665,"ts":"2019-09-29T12:45:04Z","tz":0,"tags":{"natural":"cliff","source":"survey","sport":"climbing"}},"283619691":{"lat":53.3178991,"lon":-1.6284143,"ts":"2023-10-01T15:49:47Z","tz":0,"tags":{"name":"Millstone Edge","natural":"cliff","sport":"climbing"}},"283619694":{"lat":53.3204762,"lon":-1.6289209,"ts":"2020-12-13T22:35:45Z","tz":0,"tags":{"climbing:trad":"yes","height":"20","name":"Millstone Edge","natural":"cliff","sport":"climbing"}},"283626706":{"lat":53.3143224,"lon":-1.6276643,"ts":"2020-12-13T22:32:01Z","tz":0,"tags":{"climbing:trad":"yes","name":"Lawrencefield","natural":"cliff","sport":"climbing","website":"https://www.ukclimbing.com/logbook/crag.php?id=91"}},"372861533":{"lat":53.3222124,"lon":-1.625711,"ts":"2020-12-13T22:15:21Z","tz":0,"tags":{"climbing:bouldering":"yes","climbing:rock":"gritstone","natural":"cliff","sport":"climbing"}},"377548428":{"lat":53.2804968,"lon":-1.62474,"ts":"2020-07-22T09:25:48Z","tz":0,"tags":{"climbing":"crag","climbing:rock":"gritstone","climbing:trad":"yes","name":"Curbar Edge","natural":"cliff","sport":"climbing"}},"389088742":{"lat":53.3231795,"lon":-1.6247795,"ts":"2020-07-22T08:48:46Z","tz":0,"tags":{"climbing:bouldering":"yes","climbing:rock":"gritstone","natural":"cliff","sport":"climbing"}},"389599709":{"lat":53.2772794,"lon":-1.6717232,"ts":"2024-12-24T13:02:21Z","tz":0,"tags":{"climbing":"crag","climbing:bolts":"yes","name":"The Balcony","natural":"cliff","sport":"climbing"}},"426807108":{"lat":53.3268066,"lon":-1.5994862,"ts":"2020-11-20T22:39:08Z","tz":0,"tags":{"climbing":"crag","climbing:rock":"gritstone","climbing:trad":"yes","name":"Burbage South","natural":"cliff","sport":"climbing"}},"464310556":{"lat":53.3279246,"lon":-1.5822752,"ts":"2020-07-22T09:25:48Z","tz":0,"tags":{"climbing":"crag","climbing:boulder":"yes","climbing:rock":"gritstone","name":"Houndkirk Tor (False)","natural":"cliff","sport":"climbing"}},"521903738":{"lat":53.251812,"lon":-1.7460805,"ts":"2019-09-06T20:26:36Z","tz":0,"tags":{"climbing":"crag","climbing:sport":"yes","height":"25","name":"Moat Buttress","natural":"cliff","sport":"climbing"}},"562295209":{"lat":53.2539704,"lon":-1.7551893,"ts":"2019-09-06T20:26:36Z","tz":0,"tags":{"climbing":"crag","climbing:sport":"yes","name":"Central Buttress","natural":"cliff","sport":"climbing"}},"562296905":{"lat":53.255263,"lon":-1.7541754,"ts":"2019-09-06T20:26:36Z","tz":0,"tags":{"climbing":"crag","climbing:sport":"yes","name":"The Upper Circle","natural":"cliff","sport":"climbing"}},"694257475":{"lat":53.2509279,"lon":-1.7511977,"ts":"2019-09-06T20:26:36Z","tz":0,"tags":{"climbing":"crag","climbing:sport":"yes","height":"20","name":"The Cornice","natural":"cliff","sport":"climbing"}},"694257477":{"lat":53.2526393,"lon":-1.7444297,"ts":"2024-04-14T17:10:55Z","tz":0,"tags":{"climbing":"crag","climbing:sport":"yes","name":"Rubicon Wall","natural":"cliff","sport":"climbing"}},"697984552":{"lat":53.3094909,"lon":-1.6195952,"ts":"2019-09-25T11:51:20Z","tz":0,"tags":{"natural":"cliff","sport":"climbing"}},"697984562":{"lat":53.3104859,"lon":-1.6179752,"ts":"2019-09-23T11:20:49Z","tz":0,"tags":{"climbing:bolted":"no","climbing:rock":"gritstone","name":"Yarncliff Quarry","natural":"cliff","sport":"climbing"}},"721958716":{"lat":53.2798854,"lon":-1.6786641,"ts":"2024-12-24T13:02:21Z","tz":0,"tags":{"climbing":"crag","climbing:bolts":"yes","name":"Stoney West","natural":"cliff","sport":"climbing"}},"722930444":{"lat":53.279357,"lon":-1.6849767,"ts":"2024-12-24T13:00:21Z","tz":0,"tags":{"climbing":"crag","name":"Horse Thief Quarry","natural":"cliff","sport":"climbing"}},"727446025":{"lat":53.3076831,"lon":-1.6199474,"ts":"2019-09-25T11:51:20Z","tz":0,"tags":{"name":"Yarncliff Edge","natural":"cliff","sport":"climbing"}},"727460683":{"lat":53.2996804,"lon":-1.6208645,"ts":"2019-12-17T20:09:46Z","tz":0,"tags":{"name":"North Quarry, Tegness","natural":"cliff","sport":"climbing"}},"728027196":{"lat":53.2986846,"lon":-1.619295,"ts":"2019-12-17T20:08:20Z","tz":0,"tags":{"name":"Tegness Pinnacle","natural":"cliff","sport":"climbing"}},"728027197":{"lat":53.2985073,"lon":-1.6191384,"ts":"2019-12-17T20:09:22Z","tz":0,"tags":{"name":"Pinnacle Quarry, Tegness","natural":"cliff","sport":"climbing"}},"729550781":{"lat":53.156947,"lon":-1.6656287,"ts":"2019-09-29T13:13:54Z","tz":0,"tags":{"natural":"cliff","sport":"climbing"}},"731405237":{"lat":53.2585844,"lon":-1.6577249,"ts":"2019-10-04T08:30:16Z","tz":0,"tags":{"disused":"yes","landuse":"quarry","name":"Deep Rake","sport":"climbing"}},"731584604":{"lat":53.2900428,"lon":-1.7032711,"ts":"2019-10-04T12:36:41Z","tz":0,"tags":{"natural":"cliff","sport":"climbing"}},"828665110":{"lat":53.320244,"lon":-1.6199614,"ts":"2020-12-13T22:07:35Z","tz":0,"tags":{"climbing:bouldering":"yes","climbing:rock":"gritstone","name":"Secret Garden Main Area","natural":"cliff","sport":"climbing"}},"996963664":{"lat":53.1682945,"lon":-1.5830157,"ts":"2021-10-27T18:01:34Z","tz":0,"tags":{"natural":"cliff","sport":"climbing"}},"1212254825":{"lat":53.3166968,"lon":-1.6283465,"ts":"2023-10-01T15:49:47Z","tz":0,"tags":{"name":"Millstone Edge","natural":"cliff","sport":"climbing"}},"1273385380":{"lat":53.2698404,"lon":-1.6114873,"ts":"2024-04-17T14:56:39Z","tz":0,"tags":{"climbing":"crag","climbing:rock":"gritstone","climbing:trad":"yes","ele":"330","name":"Curbar Edge","name:zh":"科巴边缘","natural":"cliff","sport":"climbing"}},"2338699606":{"lat":53.1570297,"lon":-1.6658699,"ts":"2019-02-19T11:33:12Z","tz":0,"tags":{"name":"Robin Hood's Stride","natural":"peak","sport":"climbing"}},"5029551990":{"lat":53.2823026,"lon":-1.6787184,"ts":"2023-12-30T09:34:31Z","tz":0,"tags":{"historic":"archaeological_site","name":"Cucklet Delph","sport":"climbing","tourism":"attraction"}},"5113631662":{"lat":53.327605,"lon":-1.602412,"ts":"2020-07-22T09:25:48Z","tz":0,"tags":{"climbing":"crag","climbing:boulder":"yes","climbing:rock":"gritstone","name":"The Fat Cobra","natural":"stone","sport":"climbing"}},"5113631663":{"lat":53.3279875,"lon":-1.6012511,"ts":"2020-07-22T09:25:48Z","tz":0,"tags":{"climbing":"crag","climbing:boulder":"yes","climbing:rock":"gritstone","name":"The Brick","natural":"stone","sport":"climbing"}},"5113631664":{"lat":53.3275058,"lon":-1.599934,"ts":"2020-07-22T09:25:48Z","tz":0,"tags":{"climbing":"crag","climbing:boulder":"yes","climbing:rock":"gritstone","name":"The Tank","natural":"stone","sport":"climbing"}},"7086008373":{"lat":53.3282497,"lon":-1.5994581,"ts":"2020-07-22T09:25:48Z","tz":0,"tags":{"climbing":"crag","climbing:boulder":"yes","climbing:rock":"gritstone","name":"The Useful Boulder","natural":"stone","sport":"climbing"}},"7086008374":{"lat":53.3280739,"lon":-1.5989825,"ts":"2020-07-22T09:25:48Z","tz":0,"tags":{"climbing":"crag","climbing:boulder":"yes","climbing:rock":"gritstone","name":"The Whale","natural":"stone","sport":"climbing"}},"7086008375":{"lat":53.328563,"lon":-1.5996415,"ts":"2020-07-22T09:25:48Z","tz":0,"tags":{"climbing":"crag","climbing:boulder":"yes","climbing:rock":"gritstone","name":"The Useless Boulder","natural":"stone","sport":"climbing"}},"7086036769":{"lat":53.3283019,"lon":-1.6015824,"ts":"2020-07-22T09:25:48Z","tz":0,"tags":{"climbing":"crag","climbing:boulder":"yes","climbing:rock":"gritstone","name":"The Dog","natural":"stone","sport":"climbing"}},"7086036770":{"lat":53.3287554,"lon":-1.6018256,"ts":"2020-07-22T09:25:48Z","tz":0,"tags":{"climbing":"crag","climbing:boulder":"yes","climbing:rock":"gritstone","name":"The Rabbit","natural":"stone","sport":"climbing"}},"7086044290":{"lat":53.3275172,"lon":-1.6000297,"ts":"2020-07-22T09:25:48Z","tz":0,"tags":{"climbing":"crag","climbing:boulder":"yes","climbing:rock":"gritstone","name":"The Armoured Car","natural":"stone","sport":"climbing"}},"7086044291":{"lat":53.3275937,"lon":-1.6000212,"ts":"2020-07-22T09:25:48Z","tz":0,"tags":{"climbing":"crag","climbing:boulder":"yes","climbing:rock":"gritstone","name":"The Sentry","natural":"stone","sport":"climbing"}},"7086045011":{"lat":53.328042,"lon":-1.6033271,"ts":"2020-07-22T09:25:48Z","tz":0,"tags":{"climbing":"crag","climbing:boulder":"yes","climbing:rock":"gritstone","name":"The Liver","natural":"stone","sport":"climbing"}},"7086045012":{"lat":53.3279758,"lon":-1.6026019,"ts":"2020-07-22T09:25:48Z","tz":0,"tags":{"climbing":"crag","climbing:boulder":"yes","climbing:rock":"gritstone","name":"The Kidney","natural":"stone","sport":"climbing"}},"7086052402":{"lat":53.3275427,"lon":-1.6013734,"ts":"2020-07-22T09:25:48Z","tz":0,"tags":{"climbing":"crag","climbing:boulder":"yes","climbing:rock":"gritstone","name":"The Sheep","natural":"stone","sport":"climbing"}},"7617830417":{"lat":53.3282863,"lon":-1.5866036,"ts":"2020-07-22T09:25:48Z","tz":0,"tags":{"climbing":"crag","climbing:boulder":"yes","climbing:rock":"gritstone","name":"Boomerang Boulder","natural":"stone","sport":"climbing"}},"7647417857":{"lat":53.2705908,"lon":-1.6181713,"ts":"2020-06-23T20:14:26Z","tz":0,"tags":{"climbing":"boulder","climbing:bouldering":"yes","climbing:rock":"gritstone","name":"The Loafstone","natural":"stone","sport":"climbing"}},"7647417859":{"lat":53.2723305,"lon":-1.616536,"ts":"2020-06-23T20:14:26Z","tz":0,"tags":{"climbing":"boulder","climbing:bouldering":"yes","climbing:rock":"gritstone","name":"Shy Wall","natural":"stone","sport":"climbing"}},"7647417861":{"lat":53.2715,"lon":-1.6152083,"ts":"2020-06-23T20:14:26Z","tz":0,"tags":{"climbing":"boulder","climbing:bouldering":"yes","climbing:rock":"gritstone","name":"Gorilla Warfare","natural":"stone","sport":"climbing"}},"7647417868":{"lat":53.2725509,"lon":-1.6166527,"ts":"2020-06-23T20:14:26Z","tz":0,"tags":{"climbing":"boulder","climbing:bouldering":"yes","climbing:rock":"gritstone","name":"Bens Wall","natural":"stone","sport":"climbing"}},"7647417870":{"lat":53.2717613,"lon":-1.6157722,"ts":"2020-06-23T20:14:26Z","tz":0,"tags":{"climbing":"boulder","climbing:bouldering":"yes","climbing:rock":"gritstone","name":"Mini Prow Boulder","natural":"stone","sport":"climbing"}},"7647417872":{"lat":53.2710405,"lon":-1.6161765,"ts":"2020-06-23T20:14:26Z","tz":0,"tags":{"climbing":"boulder","climbing:bouldering":"yes","climbing:rock":"gritstone","name":"Trackside Boulder","natural":"stone","sport":"climbing"}},"7647417876":{"lat":53.2708663,"lon":-1.6179225,"ts":"2020-06-23T20:14:26Z","tz":0,"tags":{"climbing":"boulder","climbing:bouldering":"yes","climbing:rock":"gritstone","name":"Not A Jerry Traverse","natural":"stone","sport":"climbing"}},"7647417878":{"lat":53.2719349,"lon":-1.6157951,"ts":"2020-06-23T20:14:26Z","tz":0,"tags":{"climbing":"boulder","climbing:bouldering":"yes","climbing:rock":"gritstone","name":"Bad Landing Boulder","natural":"stone","sport":"climbing"}},"7647417880":{"lat":53.2713944,"lon":-1.6153686,"ts":"2020-06-23T20:14:26Z","tz":0,"tags":{"climbing":"boulder","climbing:bouldering":"yes","climbing:rock":"gritstone","name":"Crescent Slab","natural":"stone","sport":"climbing"}},"7677999754":{"lat":53.2862343,"lon":-1.6307439,"ts":"2020-07-02T18:29:34Z","tz":0,"tags":{"climbing:bouldering":"yes","climbing:rock":"gritstone","name":"The Tombstone","natural":"stone","sport":"climbing"}},"7683327621":{"lat":53.3012256,"lon":-1.6035317,"ts":"2020-07-04T18:49:25Z","tz":0,"tags":{"climbing:bouldering":"yes","climbing:rock":"gritstone","name":"Lodge Block","natural":"stone","sport":"climbing"}},"7692017264":{"lat":53.3187412,"lon":-1.603826,"ts":"2020-07-07T14:49:43Z","tz":0,"tags":{"climbing:bouldering":"yes","climbing:rock":"gritstone","name":"The Sheep","natural":"stone","sport":"climbing"}},"7737629428":{"lat":53.3203145,"lon":-1.6196915,"ts":"2020-07-22T17:07:00Z","tz":0,"tags":{"climbing":"crag","climbing:boulder":"yes","climbing:rock":"gritstone","name":"The Garden Shed","natural":"rock","sport":"climbing"}},"7737629433":{"lat":53.3206356,"lon":-1.6203616,"ts":"2020-07-22T17:07:00Z","tz":0,"tags":{"climbing":"crag","climbing:boulder":"yes","climbing:rock":"gritstone","name":"Walnut Whip","natural":"rock","sport":"climbing"}},"7737629437":{"lat":53.3202416,"lon":-1.6204521,"ts":"2020-07-22T17:07:00Z","tz":0,"tags":{"climbing":"crag","climbing:boulder":"yes","climbing:rock":"gritstone","name":"Stepped Roof","natural":"rock","sport":"climbing"}},"7737629440":{"lat":53.3184502,"lon":-1.620197,"ts":"2020-07-22T17:07:00Z","tz":0,"tags":{"climbing":"crag","climbing:boulder":"yes","climbing:rock":"gritstone","name":"Bigmouth Block","natural":"stone","sport":"climbing"}},"7886672497":{"lat":53.2527896,"lon":-1.5831255,"ts":"2020-09-08T09:17:09Z","tz":0,"tags":{"climbing":"crag","climbing:boulder":"yes","climbing:rock":"gritstone","name":"Victory","natural":"rock","sport":"climbing"}},"7886672498":{"lat":53.2527255,"lon":-1.5830098,"ts":"2020-09-08T09:17:09Z","tz":0,"tags":{"climbing":"crag","climbing:boulder":"yes","climbing:rock":"gritstone","name":"Defiance","natural":"rock","sport":"climbing"}},"7886672499":{"lat":53.2526625,"lon":-1.582935,"ts":"2020-09-08T09:17:09Z","tz":0,"tags":{"climbing":"crag","climbing:boulder":"yes","climbing:rock":"gritstone","name":"Royal Soverin","natural":"rock","sport":"climbing"}},"8146611821":{"lat":53.3137514,"lon":-1.5311496,"ts":"2020-11-20T16:06:31Z","tz":0,"tags":{"climbing:boulder":"yes","climbing:fee":"no","climbing:rock":"artificial (cement)","name":"Green Oak Boulder","sport":"climbing"}},"9806447585":{"lat":53.3276033,"lon":-1.6022068,"ts":"2024-06-24T15:00:17Z","tz":0,"tags":{"climbing":"crag","climbing:boulder":"yes","climbing:rock":"gritstone","name":"Pock Block","natural":"stone","sport":"climbing"}},"9807309271":{"lat":53.2830673,"lon":-1.6276477,"ts":"2022-06-09T20:44:30Z","tz":0,"tags":{"name":"Froggatt Edge","sport":"climbing"}}}