{"18459644":{"lat":41.4991913,"lon":-1.4617144,"ts":"2024-12-24T12:21:38Z","tz":1,"tags":{"climbing":"area","name":"Las Torcas de Chodes","sport":"climbing","type":"site"}},"1154036917":{"lat":41.4919216,"lon":-1.4618938,"ts":"2023-03-13T14:02:45Z","tz":1,"tags":{"climbing":"crag","name":"Aguja negra","natural":"cliff","sport":"climbing"}},"1154036918":{"lat":41.4940431,"lon":-1.4606326,"ts":"2023-03-13T14:02:45Z","tz":1,"tags":{"climbing":"crag","name":"Puente de Roca","natural":"cliff","sport":"climbing"}},"1154036919":{"lat":41.4956103,"lon":-1.4615759,"ts":"2024-12-23T10:31:20Z","tz":1,"tags":{"climbing":"crag","climbing:rock":"limestone","climbing:sport":"yes","name":"la Boina","natural":"cliff","sport":"climbing","url":"http://www.enlavertical.com/sectors/view/398"}},"1154036920":{"lat":41.4928568,"lon":-1.4617214,"ts":"2023-03-13T14:02:45Z","tz":1,"tags":{"climbing":"crag","name":"Tocho del Camino","natural":"cliff","sport":"climbing"}},"1154036921":{"lat":41.4945589,"lon":-1.4597715,"ts":"2024-12-23T10:30:23Z","tz":1,"tags":{"climbing":"crag","climbing:rock":"limestone","climbing:sport":"yes","name":"La gran Placa","natural":"cliff","sport":"climbing","url":"http://www.enlavertical.com/sectors/view/400"}},"1154036922":{"lat":41.4955786,"lon":-1.4612759,"ts":"2024-12-23T10:31:20Z","tz":1,"tags":{"climbing":"crag","climbing:rock":"limestone","climbing:sport":"yes","name":"Pared del túnel","natural":"cliff","sport":"climbing","url":"http://www.enlavertical.com/sectors/view/399"}},"1154036924":{"lat":41.4912817,"lon":-1.4619544,"ts":"2023-03-13T14:02:45Z","tz":1,"tags":{"climbing":"crag","name":"Aguja coneriza","natural":"cliff","sport":"climbing"}},"1154038609":{"lat":41.4943118,"lon":-1.4571854,"ts":"2024-12-23T10:30:23Z","tz":1,"tags":{"climbing":"crag","climbing:rock":"limestone","climbing:sport":"yes","name":"Placa del Búho","natural":"cliff","sport":"climbing","url":"http://aragonenvertical.blogspot.com.es/2007/10/morata-de-jalon-chodes-placa-del-buho.html"}},"1154038610":{"lat":41.4926981,"lon":-1.4574692,"ts":"2024-12-23T10:30:23Z","tz":1,"tags":{"climbing":"crag","climbing:rock":"limestone","climbing:sport":"yes","name":"El Almendro","natural":"cliff","sport":"climbing","url":"https://es.scribd.com/doc/24247479/Croquis-de-Escalada-en-Morata-de-Jalon"}},"1154038612":{"lat":41.4928269,"lon":-1.4568408,"ts":"2024-12-23T10:30:23Z","tz":1,"tags":{"climbing":"crag","climbing:rock":"limestone","climbing:sport":"yes","name":"Macizo del Alí","natural":"cliff","sport":"climbing","url":"http://www.enlavertical.com/sectors/view/401"}},"4453192844":{"lat":41.4900648,"lon":-1.4598775,"ts":"2024-12-23T10:28:56Z","tz":1,"tags":{"climbing":"crag","climbing:rock":"limestone","climbing:sport":"yes","name":"La Pared Perdida","sport":"climbing","url":"http://www.enlavertical.com/sectors/view/760"}},"4453252004":{"lat":41.4988015,"lon":-1.4621006,"ts":"2024-12-24T12:21:38Z","tz":1,"tags":{"climbing":"crag","climbing:rock":"limestone","climbing:trad":"yes","name":"Pared de las Torcas","place":"locality","sport":"climbing"}},"4453252005":{"lat":41.4993238,"lon":-1.4618002,"ts":"2024-12-23T10:32:08Z","tz":1,"tags":{"climbing":"crag","climbing:rock":"limestone","climbing:sport":"yes","name":"Aguja del Paraíso","sport":"climbing"}},"4453252006":{"lat":41.499581,"lon":-1.4613281,"ts":"2024-12-23T10:32:08Z","tz":1,"tags":{"climbing":"crag","climbing:rock":"limestone","climbing:sport":"yes","name":"El Jardín del Edén","place":"locality","sport":"climbing"}}}