{"11209612":{"lat":50.6794819,"lon":14.017705,"ts":"2022-10-18T19:08:16Z","tz":1,"tags":{"climbing":"route","name":"Via Ferrata Vinařská","route":"via_ferrata","type":"route","via_ferrata_scale":"2"}},"14297819":{"lat":50.5278584,"lon":13.7626371,"ts":"2024-04-24T13:24:42Z","tz":1,"tags":{"climbing":"area","name":"Bořeň","site":"climbing","type":"site"}},"17510576":{"lat":50.5272903,"lon":13.7649893,"ts":"2024-04-24T12:55:01Z","tz":1,"tags":{"climbing":"crag","name":"Kozí (JV) pilíře","site":"climbing","sport":"climbing","type":"site","website":"https://www.horosvaz.cz/skaly-skala-139/"}},"17510717":{"lat":50.5268023,"lon":13.7644212,"ts":"2024-04-24T13:14:41Z","tz":1,"tags":{"climbing":"crag","name":"Stěna u Pašeráka","site":"climbing","sport":"climbing","type":"site","website":"https://www.horosvaz.cz/skaly-skala-136/"}},"17510733":{"lat":50.5269779,"lon":13.7645715,"ts":"2024-04-24T13:24:42Z","tz":1,"tags":{"climbing":"crag","name":"Stěna u Ďáblovy kazatelny","site":"climbing","sport":"climbing","type":"site","website":"https://www.horosvaz.cz/skaly-skala-137/"}},"17569404":{"lat":50.520748,"lon":13.8494653,"ts":"2024-05-07T12:10:37Z","tz":1,"tags":{"climbing":"crag","name":"Centrální stěna","site":"climbing","sport":"climbing","type":"site","website":"https://www.horosvaz.cz/skaly-skala-9249/"}},"17654766":{"lat":50.5318664,"lon":13.933229,"ts":"2024-05-30T20:38:48Z","tz":1,"tags":{"climbing":"crag","name":"Nosatec","site":"climbing","sport":"climbing","type":"site","website":"https://www.horosvaz.cz/skaly-skala-18524/"}},"17654768":{"lat":50.5310317,"lon":13.8908176,"ts":"2024-05-30T20:41:47Z","tz":1,"tags":{"climbing":"crag","name":"Velká skála","site":"climbing","sport":"climbing","type":"site","website":"https://www.horosvaz.cz/skaly-skala-8703/"}},"17654777":{"lat":50.5595668,"lon":13.9032366,"ts":"2024-05-30T20:50:02Z","tz":1,"tags":{"climbing":"crag","name":"Hlavní masív","site":"climbing","sport":"climbing","type":"site","website":"https://www.horosvaz.cz/skaly-skala-312/"}},"17654779":{"lat":50.5593966,"lon":13.9035198,"ts":"2024-05-30T20:50:42Z","tz":1,"tags":{"climbing":"crag","name":"Věžička","site":"climbing","sport":"climbing","type":"site","website":"https://www.horosvaz.cz/skaly-skala-4085/"}},"17654780":{"lat":50.559539,"lon":13.9035386,"ts":"2024-05-30T20:51:02Z","tz":1,"tags":{"climbing":"crag","name":"Horní stěna","site":"climbing","sport":"climbing","type":"site","website":"https://www.horosvaz.cz/skaly-skala-897/"}},"17654782":{"lat":50.559507,"lon":13.9038201,"ts":"2024-05-30T20:51:18Z","tz":1,"tags":{"climbing":"crag","name":"Lišejníková stěna","site":"climbing","sport":"climbing","type":"site","website":"https://www.horosvaz.cz/skaly-skala-898/"}},"17656521":{"lat":50.6200726,"lon":14.0558922,"ts":"2024-05-31T10:14:49Z","tz":1,"tags":{"climbing:restriction":"yes","climbing:restriction:time_description":"Zákaz vstupu 23. 2.-30. 6. (kvůli hnízdění)","name":"Strážce Vaňova","site":"climbing","sport":"climbing","type":"site","website":"https://www.horosvaz.cz/skaly-skala-4549/"}},"17656527":{"lat":50.620121,"lon":14.0562609,"ts":"2024-05-31T10:15:36Z","tz":1,"tags":{"climbing":"crag","climbing:restriction":"yes","climbing:restriction:time_description":"Zákaz vstupu 23. 2.-30. 6. (kvůli hnízdění)","name":"Vaňovská jehla (Bandstein)","site":"climbing","sport":"climbing","type":"site","website":"https://www.horosvaz.cz/skaly-skala-11658/"}},"17656904":{"lat":50.5561969,"lon":14.0492,"ts":"2024-05-31T13:06:12Z","tz":1,"tags":{"climbing":"crag","name":"Mravenec","site":"climbing","sport":"climbing","type":"site","website":"https://www.horosvaz.cz/skaly-skala-8425/"}},"338765128":{"lat":50.5162206,"lon":13.7114517,"ts":"2016-07-10T15:18:16Z","tz":1,"tags":{"natural":"cliff","sport":"climbing"}},"338765133":{"lat":50.5143288,"lon":13.7122436,"ts":"2015-05-16T14:07:15Z","tz":1,"tags":{"name":"Škuner","natural":"rock","sport":"climbing"}},"430377167":{"lat":50.5277966,"lon":13.7638628,"ts":"2024-06-03T07:50:38Z","tz":1,"tags":{"ele":"539","name":"Bořeň","name:cs":"Bořeň","name:de":"Borschen","natural":"peak","sport":"climbing","website":"http://www.boren-klettern.de/","wikidata":"Q72262482","wikipedia":"cs:Bořeň"}},"3299904366":{"lat":50.6467701,"lon":14.0438149,"ts":"2023-11-06T23:29:57Z","tz":1,"tags":{"addr:housenumber":"1312/21","addr:postcode":"40010","addr:street":"Pražská","email":"stena.usti@hudy.cz","internet_access":"wlan","leisure":"sports_centre","name":"HUDY lezecká stěna","opening_hours":"Mo-Su 10:00-22:00","phone":"+420 603 566 582","sport":"climbing","website":"https://www.hudysteny.cz/usti"}},"3743382404":{"lat":50.6969818,"lon":13.733293,"ts":"2016-05-08T13:52:13Z","tz":1,"tags":{"natural":"stone","sport":"climbing"}},"7069852455":{"lat":50.6394338,"lon":13.8203781,"ts":"2019-12-19T15:13:15Z","tz":1,"tags":{"access":"customers","climbing":"route","climbing:pitches":"1","fee":"yes","leisure":"sports_centre","name":"Lanový park Teplice","sport":"climbing"}},"11844334749":{"lat":50.5273133,"lon":13.7651641,"ts":"2024-04-24T12:55:01Z","tz":1,"tags":{"climbing":"route_bottom","climbing:grade:uiaa":"5","name":"Naležato","sport":"climbing","website":"https://www.horosvaz.cz/skaly-cesta-2302/"}},"11844334750":{"lat":50.5273104,"lon":13.7651423,"ts":"2024-04-24T12:55:01Z","tz":1,"tags":{"climbing":"route_bottom","climbing:grade:uiaa":"4","name":"Malá dvojspára","sport":"climbing","website":"https://www.horosvaz.cz/skaly-cesta-2303/"}},"11844334751":{"lat":50.5273075,"lon":13.7651204,"ts":"2024-04-24T12:55:01Z","tz":1,"tags":{"climbing":"route_bottom","climbing:grade:uiaa":"4","name":"Sokolík","sport":"climbing","website":"https://www.horosvaz.cz/skaly-cesta-2304/"}},"11844334752":{"lat":50.5273047,"lon":13.7650986,"ts":"2024-04-24T12:55:01Z","tz":1,"tags":{"climbing":"route_bottom","climbing:grade:uiaa":"3","name":"Nedělní","sport":"climbing","website":"https://www.horosvaz.cz/skaly-cesta-2305/"}},"11844334753":{"lat":50.5273018,"lon":13.7650767,"ts":"2024-04-24T12:55:01Z","tz":1,"tags":{"climbing":"route_bottom","climbing:grade:uiaa":"6","name":"Šílená kláda","sport":"climbing","website":"https://www.horosvaz.cz/skaly-cesta-2306/"}},"11844334754":{"lat":50.5272989,"lon":13.7650549,"ts":"2024-04-24T12:55:01Z","tz":1,"tags":{"climbing":"route_bottom","climbing:grade:uiaa":"4","name":"Komínová","sport":"climbing","website":"https://www.horosvaz.cz/skaly-cesta-2307/"}},"11844334755":{"lat":50.527296,"lon":13.765033,"ts":"2024-04-24T12:55:01Z","tz":1,"tags":{"climbing":"route_bottom","climbing:grade:uiaa":"3","name":"Stará cesta","sport":"climbing","website":"https://www.horosvaz.cz/skaly-cesta-2308/"}},"11844334756":{"lat":50.5272931,"lon":13.7650112,"ts":"2024-04-24T12:55:01Z","tz":1,"tags":{"climbing":"route_bottom","climbing:grade:uiaa":"4+","name":"Májová","sport":"climbing","website":"https://www.horosvaz.cz/skaly-cesta-2309/"}},"11844334757":{"lat":50.5272902,"lon":13.7649893,"ts":"2024-04-24T12:55:01Z","tz":1,"tags":{"climbing":"route_bottom","climbing:grade:uiaa":"7-","name":"Falešná SVíčková","sport":"climbing","website":"https://www.horosvaz.cz/skaly-cesta-2310/"}},"11844334758":{"lat":50.5272874,"lon":13.7649675,"ts":"2024-04-24T12:55:01Z","tz":1,"tags":{"climbing":"route_bottom","climbing:grade:uiaa":"4","name":"Vánoční","sport":"climbing","website":"https://www.horosvaz.cz/skaly-cesta-109223/"}},"11844334759":{"lat":50.5272845,"lon":13.7649456,"ts":"2024-04-24T12:55:01Z","tz":1,"tags":{"climbing":"route_bottom","climbing:grade:uiaa":"5","name":"Kapsář","sport":"climbing","website":"https://www.horosvaz.cz/skaly-cesta-2311/"}},"11844334760":{"lat":50.5272816,"lon":13.7649238,"ts":"2024-04-24T12:55:01Z","tz":1,"tags":{"climbing":"route_bottom","climbing:grade:uiaa":"8+/9-","name":"Edovo bludné kroky","sport":"climbing","website":"https://www.horosvaz.cz/skaly-cesta-2301/"}},"11844334761":{"lat":50.5272787,"lon":13.7649019,"ts":"2024-04-24T12:55:01Z","tz":1,"tags":{"climbing":"route_bottom","climbing:grade:uiaa":"4","name":"Varianta Kozí","sport":"climbing","website":"https://www.horosvaz.cz/skaly-cesta-2312/"}},"11844334762":{"lat":50.5272758,"lon":13.7648801,"ts":"2024-04-24T12:55:01Z","tz":1,"tags":{"climbing":"route_bottom","climbing:grade:uiaa":"4","name":"Kozí","sport":"climbing","website":"https://www.horosvaz.cz/skaly-cesta-2313/"}},"11844334763":{"lat":50.5272729,"lon":13.7648582,"ts":"2024-04-24T12:55:01Z","tz":1,"tags":{"climbing":"route_bottom","climbing:grade:uiaa":"7+","name":"Přenýtovaná","sport":"climbing","website":"https://www.horosvaz.cz/skaly-cesta-2314/"}},"11844334764":{"lat":50.5272701,"lon":13.7648364,"ts":"2024-04-24T12:55:01Z","tz":1,"tags":{"climbing":"route_bottom","climbing:grade:uiaa":"6-","name":"Všechno je jinak","sport":"climbing","website":"https://www.horosvaz.cz/skaly-cesta-2315/"}},"11844334765":{"lat":50.5272672,"lon":13.7648145,"ts":"2024-04-24T12:55:01Z","tz":1,"tags":{"climbing":"route_bottom","climbing:grade:uiaa":"5+","name":"Náhorní","sport":"climbing","website":"https://www.horosvaz.cz/skaly-cesta-2316/"}},"11844385261":{"lat":50.5268258,"lon":13.7644647,"ts":"2024-04-24T13:14:41Z","tz":1,"tags":{"climbing":"route_bottom","climbing:grade:uiaa":"1","name":"Pašerácká","sport":"climbing","website":"https://www.horosvaz.cz/skaly-cesta-2280/"}},"11844385262":{"lat":50.526814,"lon":13.764443,"ts":"2024-04-24T13:14:41Z","tz":1,"tags":{"climbing":"route_bottom","climbing:grade:uiaa":"6","name":"Mirošovická","sport":"climbing","website":"https://www.horosvaz.cz/skaly-cesta-2281/"}},"11844385263":{"lat":50.5268022,"lon":13.7644213,"ts":"2024-04-24T13:14:41Z","tz":1,"tags":{"climbing":"route_bottom","climbing:grade:uiaa":"6+","name":"Knak","sport":"climbing","website":"https://www.horosvaz.cz/skaly-cesta-2282/"}},"11844385264":{"lat":50.5267905,"lon":13.7643996,"ts":"2024-04-24T13:14:41Z","tz":1,"tags":{"climbing":"route_bottom","climbing:grade:uiaa":"5+","name":"Sluneční","sport":"climbing","website":"https://www.horosvaz.cz/skaly-cesta-2283/"}},"11844385265":{"lat":50.5267787,"lon":13.7643778,"ts":"2024-04-24T13:14:41Z","tz":1,"tags":{"climbing":"route_bottom","climbing:grade:uiaa":"5-","name":"Klistýr","sport":"climbing","website":"https://www.horosvaz.cz/skaly-cesta-2284/"}},"11844398249":{"lat":50.5269507,"lon":13.7646575,"ts":"2024-04-24T13:24:42Z","tz":1,"tags":{"climbing":"route_bottom","climbing:grade:uiaa":"4+","name":"Totemová","sport":"climbing","website":"https://www.horosvaz.cz/skaly-cesta-2286/"}},"11844398250":{"lat":50.5269567,"lon":13.7646384,"ts":"2024-04-24T13:24:42Z","tz":1,"tags":{"climbing":"route_bottom","climbing:grade:uiaa":"6+","name":"Millennium","sport":"climbing","website":"https://www.horosvaz.cz/skaly-cesta-2287/"}},"11844398251":{"lat":50.5269628,"lon":13.7646193,"ts":"2024-04-24T13:24:42Z","tz":1,"tags":{"climbing":"route_bottom","climbing:grade:uiaa":"4","name":"Stará cesta","sport":"climbing","website":"https://www.horosvaz.cz/skaly-cesta-2288/"}},"11844398252":{"lat":50.5269688,"lon":13.7646002,"ts":"2024-04-24T13:24:42Z","tz":1,"tags":{"climbing":"route_bottom","climbing:grade:uiaa":"5+","name":"Honzíkova cesta","sport":"climbing","website":"https://www.horosvaz.cz/skaly-cesta-2289/"}},"11844398253":{"lat":50.5269749,"lon":13.764581,"ts":"2024-04-24T13:24:42Z","tz":1,"tags":{"climbing":"route_bottom","climbing:grade:uiaa":"4","name":"Pěkná spára","sport":"climbing","website":"https://www.horosvaz.cz/skaly-cesta-2290/"}},"11844398254":{"lat":50.526981,"lon":13.7645619,"ts":"2024-04-24T13:24:42Z","tz":1,"tags":{"climbing":"route_bottom","climbing:grade:uiaa":"6","name":"Invalidní","sport":"climbing","website":"https://www.horosvaz.cz/skaly-cesta-2291/"}},"11844398255":{"lat":50.526987,"lon":13.7645428,"ts":"2024-04-24T13:24:42Z","tz":1,"tags":{"climbing":"route_bottom","climbing:grade:uiaa":"4","name":"Šťovíková","sport":"climbing","website":"https://www.horosvaz.cz/skaly-cesta-2292/"}},"11844398256":{"lat":50.5269931,"lon":13.7645237,"ts":"2024-04-24T13:24:42Z","tz":1,"tags":{"climbing":"route_bottom","climbing:grade:uiaa":"5-","name":"Mravenčí","sport":"climbing","website":"https://www.horosvaz.cz/skaly-cesta-2293/"}},"11844398257":{"lat":50.5269991,"lon":13.7645046,"ts":"2024-04-24T13:24:42Z","tz":1,"tags":{"climbing":"route_bottom","climbing:grade:uiaa":"6-","name":"Tukan","sport":"climbing","website":"https://www.horosvaz.cz/skaly-cesta-2285/"}},"11844398258":{"lat":50.5270052,"lon":13.7644855,"ts":"2024-04-24T13:24:42Z","tz":1,"tags":{"climbing":"route_bottom","climbing:grade:uiaa":"4+","name":"Opomenutá","sport":"climbing","website":"https://www.horosvaz.cz/skaly-cesta-2294/"}},"11886432826":{"lat":50.5208187,"lon":13.8493245,"ts":"2024-05-07T12:10:37Z","tz":1,"tags":{"climbing":"route_bottom","climbing:grade:uiaa":"7-","name":"Detox","sport":"climbing","website":"https://www.horosvaz.cz/skaly-cesta-63009/"}},"11886432827":{"lat":50.5208092,"lon":13.8493432,"ts":"2024-05-07T12:10:37Z","tz":1,"tags":{"climbing":"route_bottom","climbing:grade:uiaa":"5-","name":"Bořeňská","sport":"climbing","website":"https://www.horosvaz.cz/skaly-cesta-63008/"}},"11886432828":{"lat":50.5207998,"lon":13.849362,"ts":"2024-05-07T12:10:37Z","tz":1,"tags":{"climbing":"route_bottom","climbing:grade:uiaa":"5","name":"Přes pekáč","sport":"climbing","website":"https://www.horosvaz.cz/skaly-cesta-63007/"}},"11886432829":{"lat":50.5207904,"lon":13.8493808,"ts":"2024-05-07T12:10:37Z","tz":1,"tags":{"climbing":"route_bottom","climbing:grade:uiaa":"5","name":"Čapájev","sport":"climbing","website":"https://www.horosvaz.cz/skaly-cesta-63006/"}},"11886432830":{"lat":50.5207809,"lon":13.8493996,"ts":"2024-05-07T12:10:37Z","tz":1,"tags":{"climbing":"route_bottom","climbing:grade:uiaa":"5-","name":"Za svitu čelovky","sport":"climbing","website":"https://www.horosvaz.cz/skaly-cesta-63005/"}},"11886432831":{"lat":50.5207715,"lon":13.8494183,"ts":"2024-05-07T12:10:37Z","tz":1,"tags":{"climbing":"route_bottom","climbing:grade:uiaa":"3","name":"Tyčkový kout","sport":"climbing","website":"https://www.horosvaz.cz/skaly-cesta-60706/"}},"11886432832":{"lat":50.5207621,"lon":13.8494371,"ts":"2024-05-07T12:10:37Z","tz":1,"tags":{"climbing":"route_bottom","climbing:grade:uiaa":"3","name":"Stará hetovská","sport":"climbing","website":"https://www.horosvaz.cz/skaly-cesta-60707/"}},"11886432833":{"lat":50.5207526,"lon":13.8494559,"ts":"2024-05-07T12:10:37Z","tz":1,"tags":{"climbing":"route_bottom","climbing:grade:uiaa":"5","name":"Náhrobní kámen","sport":"climbing","website":"https://www.horosvaz.cz/skaly-cesta-63004/"}},"11886432834":{"lat":50.5207432,"lon":13.8494747,"ts":"2024-05-07T12:10:37Z","tz":1,"tags":{"climbing":"route_bottom","climbing:grade:uiaa":"5-","name":"Nevolníkův smích","sport":"climbing","website":"https://www.horosvaz.cz/skaly-cesta-63003/"}},"11886432835":{"lat":50.5207338,"lon":13.8494934,"ts":"2024-05-07T12:10:37Z","tz":1,"tags":{"climbing":"route_bottom","climbing:grade:uiaa":"8-","name":"Okamžik radosti","sport":"climbing","website":"https://www.horosvaz.cz/skaly-cesta-63002/"}},"11886432836":{"lat":50.5207244,"lon":13.8495122,"ts":"2024-05-07T12:10:37Z","tz":1,"tags":{"climbing":"route_bottom","climbing:grade:uiaa":"4","name":"Komínek černých holínek","sport":"climbing","website":"https://www.horosvaz.cz/skaly-cesta-63001/"}},"11886432837":{"lat":50.5207149,"lon":13.849531,"ts":"2024-05-07T12:10:37Z","tz":1,"tags":{"climbing":"route_bottom","climbing:grade:uiaa":"5","name":"Radovesická","sport":"climbing","website":"https://www.horosvaz.cz/skaly-cesta-63000/"}},"11886432838":{"lat":50.5207055,"lon":13.8495498,"ts":"2024-05-07T12:10:37Z","tz":1,"tags":{"climbing":"route_bottom","climbing:grade:uiaa":"5","name":"Štěpánovská spára","sport":"climbing","website":"https://www.horosvaz.cz/skaly-cesta-60708/"}},"11886432839":{"lat":50.5206961,"lon":13.8495685,"ts":"2024-05-07T12:10:37Z","tz":1,"tags":{"climbing":"route_bottom","climbing:grade:uiaa":"3","name":"Stará cesta","sport":"climbing","website":"https://www.horosvaz.cz/skaly-cesta-60709/"}},"11886432840":{"lat":50.5206866,"lon":13.8495873,"ts":"2024-05-07T12:10:37Z","tz":1,"tags":{"climbing":"route_bottom","climbing:grade:uiaa":"5-","name":"Lukovská","sport":"climbing","website":"https://www.horosvaz.cz/skaly-cesta-63010/"}},"11886432841":{"lat":50.5206772,"lon":13.8496061,"ts":"2024-05-07T12:10:37Z","tz":1,"tags":{"climbing":"route_bottom","climbing:grade:uiaa":"5-","name":"Babka","sport":"climbing","website":"https://www.horosvaz.cz/skaly-cesta-62999/"}},"11946012451":{"lat":50.559521,"lon":13.9038651,"ts":"2024-05-30T20:51:18Z","tz":1,"tags":{"climbing":"route_bottom","climbing:grade:uiaa":"4","name":"Policejní pilíř","sport":"climbing","website":"https://www.horosvaz.cz/skaly-cesta-11861/"}},"11946012452":{"lat":50.559514,"lon":13.9038425,"ts":"2024-05-30T20:51:18Z","tz":1,"tags":{"climbing":"route_bottom","climbing:grade:uiaa":"4+","name":"Spára u děr","sport":"climbing","website":"https://www.horosvaz.cz/skaly-cesta-11862/"}},"11946012453":{"lat":50.559507,"lon":13.90382,"ts":"2024-05-30T20:51:18Z","tz":1,"tags":{"climbing":"route_bottom","climbing:grade:uiaa":"5-","name":"Srdce zvonu","sport":"climbing","website":"https://www.horosvaz.cz/skaly-cesta-11860/"}},"11946012454":{"lat":50.5595,"lon":13.9037975,"ts":"2024-05-30T20:51:18Z","tz":1,"tags":{"climbing":"route_bottom","climbing:grade:uiaa":"3","name":"Sračkodrom","sport":"climbing","website":"https://www.horosvaz.cz/skaly-cesta-11863/"}},"11946012455":{"lat":50.559493,"lon":13.903775,"ts":"2024-05-30T20:51:18Z","tz":1,"tags":{"climbing":"route_bottom","climbing:grade:uiaa":"2","name":"Přes výšvih","sport":"climbing","website":"https://www.horosvaz.cz/skaly-cesta-11864/"}},"11946022683":{"lat":50.5318041,"lon":13.9333585,"ts":"2024-05-30T20:38:48Z","tz":1,"tags":{"climbing":"route_bottom","climbing:grade:uiaa":"2","name":"Nouzovka","sport":"climbing","website":"https://www.horosvaz.cz/skaly-cesta-114700/"}},"11946022684":{"lat":50.5318124,"lon":13.9333412,"ts":"2024-05-30T20:38:48Z","tz":1,"tags":{"climbing":"route_bottom","climbing:grade:uiaa":"2","name":"Dopočtovka","sport":"climbing","website":"https://www.horosvaz.cz/skaly-cesta-114699/"}},"11946022685":{"lat":50.5318207,"lon":13.933324,"ts":"2024-05-30T20:38:48Z","tz":1,"tags":{"climbing":"route_bottom","climbing:grade:uiaa":"3","name":"Záď","sport":"climbing","website":"https://www.horosvaz.cz/skaly-cesta-114697/"}},"11946022686":{"lat":50.531829,"lon":13.9333067,"ts":"2024-05-30T20:38:48Z","tz":1,"tags":{"climbing":"route_bottom","climbing:grade:uiaa":"3","name":"Kýl","sport":"climbing","website":"https://www.horosvaz.cz/skaly-cesta-114694/"}},"11946022687":{"lat":50.5318373,"lon":13.9332894,"ts":"2024-05-30T20:38:48Z","tz":1,"tags":{"climbing":"route_bottom","climbing:grade:uiaa":"4","name":"Jeskynní","sport":"climbing","website":"https://www.horosvaz.cz/skaly-cesta-114693/"}},"11946022688":{"lat":50.5318456,"lon":13.9332722,"ts":"2024-05-30T20:38:48Z","tz":1,"tags":{"climbing":"route_bottom","climbing:grade:uiaa":"3","name":"Dragon","sport":"climbing","website":"https://www.horosvaz.cz/skaly-cesta-114690/"}},"11946022689":{"lat":50.531854,"lon":13.9332549,"ts":"2024-05-30T20:38:48Z","tz":1,"tags":{"climbing":"route_bottom","climbing:grade:uiaa":"2-","name":"Plachta","sport":"climbing","website":"https://www.horosvaz.cz/skaly-cesta-114688/"}},"11946022690":{"lat":50.5318623,"lon":13.9332376,"ts":"2024-05-30T20:38:48Z","tz":1,"tags":{"climbing":"route_bottom","climbing:grade:uiaa":"1","name":"Náhorní komín","sport":"climbing","website":"https://www.horosvaz.cz/skaly-cesta-114686/"}},"11946022691":{"lat":50.5318706,"lon":13.9332204,"ts":"2024-05-30T20:38:48Z","tz":1,"tags":{"climbing":"route_bottom","climbing:grade:uiaa":"2-","name":"Holubice","sport":"climbing","website":"https://www.horosvaz.cz/skaly-cesta-114684/"}},"11946022692":{"lat":50.5318789,"lon":13.9332031,"ts":"2024-05-30T20:38:48Z","tz":1,"tags":{"climbing":"route_bottom","climbing:grade:uiaa":"2","name":"Argo","sport":"climbing","website":"https://www.horosvaz.cz/skaly-cesta-114682/"}},"11946022693":{"lat":50.5318872,"lon":13.9331858,"ts":"2024-05-30T20:38:48Z","tz":1,"tags":{"climbing":"route_bottom","climbing:grade:uiaa":"4","name":"Naos","sport":"climbing","website":"https://www.horosvaz.cz/skaly-cesta-114681/"}},"11946022694":{"lat":50.5318955,"lon":13.9331686,"ts":"2024-05-30T20:38:48Z","tz":1,"tags":{"climbing":"route_bottom","climbing:grade:uiaa":"6","name":"Přes nos","sport":"climbing","website":"https://www.horosvaz.cz/skaly-cesta-112770/"}},"11946022695":{"lat":50.5319038,"lon":13.9331513,"ts":"2024-05-30T20:38:48Z","tz":1,"tags":{"climbing":"route_bottom","climbing:grade:uiaa":"5","name":"Směr Kocourov","sport":"climbing","website":"https://www.horosvaz.cz/skaly-cesta-112771/"}},"11946022696":{"lat":50.5319121,"lon":13.933134,"ts":"2024-05-30T20:38:48Z","tz":1,"tags":{"climbing":"route_bottom","climbing:grade:uiaa":"5-","name":"Stěna","sport":"climbing","website":"https://www.horosvaz.cz/skaly-cesta-114678/"}},"11946022697":{"lat":50.5319205,"lon":13.9331168,"ts":"2024-05-30T20:38:48Z","tz":1,"tags":{"climbing":"route_bottom","climbing:grade:uiaa":"4","name":"Sláva Ukrajině!","sport":"climbing","website":"https://www.horosvaz.cz/skaly-cesta-118462/"}},"11946022698":{"lat":50.5319288,"lon":13.9330995,"ts":"2024-05-30T20:38:48Z","tz":1,"tags":{"climbing":"route_bottom","climbing:grade:uiaa":"1","name":"Komín","sport":"climbing","website":"https://www.horosvaz.cz/skaly-cesta-114676/"}},"11946026762":{"lat":50.5595784,"lon":13.9032763,"ts":"2024-05-30T20:50:02Z","tz":1,"tags":{"climbing":"route_bottom","climbing:grade:uiaa":"5","name":"Pravá cesta","sport":"climbing","website":"https://www.horosvaz.cz/skaly-cesta-4714/"}},"11946026763":{"lat":50.5595726,"lon":13.9032564,"ts":"2024-05-30T20:50:02Z","tz":1,"tags":{"climbing":"route_bottom","climbing:grade:uiaa":"6+","name":"Afrodita","sport":"climbing","website":"https://www.horosvaz.cz/skaly-cesta-4715/"}},"11946026764":{"lat":50.5595668,"lon":13.9032366,"ts":"2024-05-30T20:50:02Z","tz":1,"tags":{"climbing":"route_bottom","climbing:grade:uiaa":"5+","name":"Povedená - sisyfovská var","sport":"climbing","website":"https://www.horosvaz.cz/skaly-cesta-4716/"}},"11946026765":{"lat":50.559561,"lon":13.9032167,"ts":"2024-05-30T20:50:02Z","tz":1,"tags":{"climbing":"route_bottom","climbing:grade:uiaa":"5+","name":"Povedená","sport":"climbing","website":"https://www.horosvaz.cz/skaly-cesta-4717/"}},"11946026766":{"lat":50.5595552,"lon":13.9031969,"ts":"2024-05-30T20:50:02Z","tz":1,"tags":{"climbing":"route_bottom","climbing:grade:uiaa":"3","name":"Hřebenovka","sport":"climbing","website":"https://www.horosvaz.cz/skaly-cesta-4718/"}},"11946031224":{"lat":50.5311746,"lon":13.8908462,"ts":"2024-05-30T20:41:47Z","tz":1,"tags":{"climbing":"route_bottom","climbing:grade:uiaa":"7-","name":"Stopy v prachu","sport":"climbing","website":"https://www.horosvaz.cz/skaly-cesta-118278/"}},"11946031225":{"lat":50.5311588,"lon":13.890843,"ts":"2024-05-30T20:41:47Z","tz":1,"tags":{"climbing":"route_bottom","climbing:grade:uiaa":"4","name":"Tebe si nechám zjistit","sport":"climbing","website":"https://www.horosvaz.cz/skaly-cesta-118277/"}},"11946031226":{"lat":50.5311429,"lon":13.8908398,"ts":"2024-05-30T20:41:47Z","tz":1,"tags":{"climbing":"route_bottom","climbing:grade:uiaa":"6+","name":"Amfibol","sport":"climbing","website":"https://www.horosvaz.cz/skaly-cesta-118276/"}},"11946031227":{"lat":50.531127,"lon":13.8908366,"ts":"2024-05-30T20:41:47Z","tz":1,"tags":{"climbing":"route_bottom","climbing:grade:uiaa":"7+","name":"Gabro","sport":"climbing","website":"https://www.horosvaz.cz/skaly-cesta-118275/"}},"11946031228":{"lat":50.5311111,"lon":13.8908335,"ts":"2024-05-30T20:41:47Z","tz":1,"tags":{"climbing":"route_bottom","climbing:grade:uiaa":"8-","name":"Mo Cuschle","sport":"climbing","website":"https://www.horosvaz.cz/skaly-cesta-118274/"}},"11946031229":{"lat":50.5310952,"lon":13.8908303,"ts":"2024-05-30T20:41:47Z","tz":1,"tags":{"climbing":"route_bottom","climbing:grade:uiaa":"5-","name":"Karma je zdarma","sport":"climbing","website":"https://www.horosvaz.cz/skaly-cesta-118273/"}},"11946031230":{"lat":50.5310793,"lon":13.8908271,"ts":"2024-05-30T20:41:47Z","tz":1,"tags":{"climbing":"route_bottom","climbing:grade:uiaa":"5+","name":"Percepční bod","sport":"climbing","website":"https://www.horosvaz.cz/skaly-cesta-118272/"}},"11946031231":{"lat":50.5310635,"lon":13.8908239,"ts":"2024-05-30T20:41:47Z","tz":1,"tags":{"climbing":"route_bottom","climbing:grade:uiaa":"5+","name":"Paš o paňori","sport":"climbing","website":"https://www.horosvaz.cz/skaly-cesta-118271/"}},"11946031232":{"lat":50.5310476,"lon":13.8908208,"ts":"2024-05-30T20:41:47Z","tz":1,"tags":{"climbing":"route_bottom","climbing:grade:uiaa":"3","name":"Dlouhá cesta","sport":"climbing","website":"https://www.horosvaz.cz/skaly-cesta-115858/"}},"11946031233":{"lat":50.5310317,"lon":13.8908176,"ts":"2024-05-30T20:41:47Z","tz":1,"tags":{"climbing":"route_bottom","climbing:grade:uiaa":"5+","name":"Pánbůh nás ochraňuj","sport":"climbing","website":"https://www.horosvaz.cz/skaly-cesta-118270/"}},"11946031234":{"lat":50.5310158,"lon":13.8908144,"ts":"2024-05-30T20:41:47Z","tz":1,"tags":{"climbing":"route_bottom","climbing:grade:uiaa":"6","name":"Všechno je jednou poprvé","sport":"climbing","website":"https://www.horosvaz.cz/skaly-cesta-59296/"}},"11946031235":{"lat":50.5309999,"lon":13.8908112,"ts":"2024-05-30T20:41:47Z","tz":1,"tags":{"climbing":"route_bottom","climbing:grade:uiaa":"4","name":"Křehká","sport":"climbing","website":"https://www.horosvaz.cz/skaly-cesta-59295/"}},"11946031236":{"lat":50.530984,"lon":13.8908081,"ts":"2024-05-30T20:41:47Z","tz":1,"tags":{"climbing":"route_bottom","climbing:grade:uiaa":"3","name":"Bořeňská","sport":"climbing","website":"https://www.horosvaz.cz/skaly-cesta-59294/"}},"11946031237":{"lat":50.5309682,"lon":13.8908049,"ts":"2024-05-30T20:41:47Z","tz":1,"tags":{"climbing":"route_bottom","climbing:grade:uiaa":"3","name":"Jarní","sport":"climbing","website":"https://www.horosvaz.cz/skaly-cesta-59293/"}},"11946031238":{"lat":50.5309523,"lon":13.8908017,"ts":"2024-05-30T20:41:47Z","tz":1,"tags":{"climbing":"route_bottom","climbing:grade:uiaa":"3","name":"Lukovská","sport":"climbing","website":"https://www.horosvaz.cz/skaly-cesta-59292/"}},"11946031239":{"lat":50.5309364,"lon":13.8907985,"ts":"2024-05-30T20:41:47Z","tz":1,"tags":{"climbing":"route_bottom","climbing:grade:uiaa":"3","name":"Nepovedená","sport":"climbing","website":"https://www.horosvaz.cz/skaly-cesta-59291/"}},"11946031240":{"lat":50.5309205,"lon":13.8907954,"ts":"2024-05-30T20:41:47Z","tz":1,"tags":{"climbing":"route_bottom","climbing:grade:uiaa":"2","name":"Silvestrovská","sport":"climbing","website":"https://www.horosvaz.cz/skaly-cesta-59290/"}},"11946031241":{"lat":50.5309046,"lon":13.8907922,"ts":"2024-05-30T20:41:47Z","tz":1,"tags":{"climbing":"route_bottom","climbing:grade:uiaa":"2","name":"Zarostlý komín","sport":"climbing","website":"https://www.horosvaz.cz/skaly-cesta-59289/"}},"11946031242":{"lat":50.5308887,"lon":13.890789,"ts":"2024-05-30T20:41:47Z","tz":1,"tags":{"climbing":"route_bottom","climbing:grade:uiaa":"3","name":"Hadice","sport":"climbing","website":"https://www.horosvaz.cz/skaly-cesta-59288/"}},"11946034732":{"lat":50.5593342,"lon":13.9035491,"ts":"2024-05-30T20:50:42Z","tz":1,"tags":{"climbing":"route_bottom","climbing:grade:uiaa":"4-","name":"Smrtihlav","sport":"climbing","website":"https://www.horosvaz.cz/skaly-cesta-118381/"}},"11946034733":{"lat":50.5593467,"lon":13.9035433,"ts":"2024-05-30T20:50:42Z","tz":1,"tags":{"climbing":"route_bottom","climbing:grade:uiaa":"2","name":"Modřínová","sport":"climbing","website":"https://www.horosvaz.cz/skaly-cesta-118382/"}},"11946034734":{"lat":50.5593592,"lon":13.9035374,"ts":"2024-05-30T20:50:42Z","tz":1,"tags":{"climbing":"route_bottom","climbing:grade:uiaa":"2","name":"Položená","sport":"climbing","website":"https://www.horosvaz.cz/skaly-cesta-118383/"}},"11946034735":{"lat":50.5593716,"lon":13.9035316,"ts":"2024-05-30T20:50:42Z","tz":1,"tags":{"climbing":"route_bottom","climbing:grade:uiaa":"3+","name":"Henkel partie","sport":"climbing","website":"https://www.horosvaz.cz/skaly-cesta-118385/"}},"11946034736":{"lat":50.5593841,"lon":13.9035257,"ts":"2024-05-30T20:50:42Z","tz":1,"tags":{"climbing":"route_bottom","climbing:grade:uiaa":"3","name":"Zelená","sport":"climbing","website":"https://www.horosvaz.cz/skaly-cesta-118384/"}},"11946034737":{"lat":50.5593966,"lon":13.9035199,"ts":"2024-05-30T20:50:42Z","tz":1,"tags":{"climbing":"route_bottom","climbing:grade:uiaa":"2","name":"Adélčina hrana","sport":"climbing","website":"https://www.horosvaz.cz/skaly-cesta-118376/"}},"11946034738":{"lat":50.5594091,"lon":13.903514,"ts":"2024-05-30T20:50:42Z","tz":1,"tags":{"climbing":"route_bottom","climbing:grade:uiaa":"2","name":"Západní stěnka","sport":"climbing","website":"https://www.horosvaz.cz/skaly-cesta-11859/"}},"11946034739":{"lat":50.5594215,"lon":13.9035082,"ts":"2024-05-30T20:50:42Z","tz":1,"tags":{"climbing":"route_bottom","climbing:grade:uiaa":"3","name":"Ivánkova hrana","sport":"climbing","website":"https://www.horosvaz.cz/skaly-cesta-118377/"}},"11946034740":{"lat":50.559434,"lon":13.9035023,"ts":"2024-05-30T20:50:42Z","tz":1,"tags":{"climbing":"route_bottom","climbing:grade:uiaa":"3+","name":"Suťová","sport":"climbing","website":"https://www.horosvaz.cz/skaly-cesta-118379/"}},"11946034741":{"lat":50.5594465,"lon":13.9034965,"ts":"2024-05-30T20:50:42Z","tz":1,"tags":{"climbing":"route_bottom","climbing:grade:uiaa":"3","name":"Brigádnická","sport":"climbing","website":"https://www.horosvaz.cz/skaly-cesta-118380/"}},"11946034742":{"lat":50.5594589,"lon":13.9034906,"ts":"2024-05-30T20:50:42Z","tz":1,"tags":{"climbing":"route_bottom","climbing:grade:uiaa":"3","name":"První","sport":"climbing","website":"https://www.horosvaz.cz/skaly-cesta-11858/"}},"11946043169":{"lat":50.5595211,"lon":13.9035235,"ts":"2024-05-30T20:51:02Z","tz":1,"tags":{"climbing":"route_bottom","climbing:grade:uiaa":"4","name":"Koutek","sport":"climbing","website":"https://www.horosvaz.cz/skaly-cesta-11856/"}},"11946043170":{"lat":50.5595331,"lon":13.9035335,"ts":"2024-05-30T20:51:02Z","tz":1,"tags":{"climbing":"route_bottom","climbing:grade:uiaa":"4","name":"Pro Dorinku","sport":"climbing","website":"https://www.horosvaz.cz/skaly-cesta-118542/"}},"11946043171":{"lat":50.559545,"lon":13.9035436,"ts":"2024-05-30T20:51:02Z","tz":1,"tags":{"climbing":"route_bottom","climbing:grade:uiaa":"4","name":"Poslední cesta","sport":"climbing","website":"https://www.horosvaz.cz/skaly-cesta-11857/"}},"11946043172":{"lat":50.5595569,"lon":13.9035536,"ts":"2024-05-30T20:51:02Z","tz":1,"tags":{"climbing":"route_bottom","climbing:grade:uiaa":"3-","name":"Milešovka","sport":"climbing","website":"https://www.horosvaz.cz/skaly-cesta-118541/"}},"11947490445":{"lat":50.6201074,"lon":14.0560865,"ts":"2024-05-31T10:14:49Z","tz":1,"tags":{"climbing":"route_bottom","climbing:grade:uiaa":"2","climbing:restriction:time_description":"Zákaz vstupu 23. 2.-30. 6. (kvůli hnízdění)","name":"Náhorní hrana","sport":"climbing","website":"https://www.horosvaz.cz/skaly-cesta-23170/"}},"11947490446":{"lat":50.6201037,"lon":14.0560661,"ts":"2024-05-31T10:14:49Z","tz":1,"tags":{"climbing":"route_bottom","climbing:grade:uiaa":"2","climbing:restriction:time_description":"Zákaz vstupu 23. 2.-30. 6. (kvůli hnízdění)","name":"Jihozápadní cesta","sport":"climbing","website":"https://www.horosvaz.cz/skaly-cesta-23171/"}},"11947490447":{"lat":50.6201,"lon":14.0560456,"ts":"2024-05-31T10:14:49Z","tz":1,"tags":{"climbing":"route_bottom","climbing:grade:uiaa":"5","climbing:restriction:time_description":"Zákaz vstupu 23. 2.-30. 6. (kvůli hnízdění)","name":"Kozkův šprým","sport":"climbing","website":"https://www.horosvaz.cz/skaly-cesta-23172/"}},"11947490448":{"lat":50.6200964,"lon":14.0560251,"ts":"2024-05-31T10:14:49Z","tz":1,"tags":{"climbing":"route_bottom","climbing:grade:uiaa":"6","climbing:restriction:time_description":"Zákaz vstupu 23. 2.-30. 6. (kvůli hnízdění)","name":"Spartakiádní direttissima","sport":"climbing","website":"https://www.horosvaz.cz/skaly-cesta-23173/"}},"11947490449":{"lat":50.6200927,"lon":14.0560047,"ts":"2024-05-31T10:14:49Z","tz":1,"tags":{"climbing":"route_bottom","climbing:grade:uiaa":"6","climbing:restriction:time_description":"Zákaz vstupu 23. 2.-30. 6. (kvůli hnízdění)","name":"Vánoční dárek","sport":"climbing","website":"https://www.horosvaz.cz/skaly-cesta-23174/"}},"11947490450":{"lat":50.6200891,"lon":14.0559842,"ts":"2024-05-31T10:14:49Z","tz":1,"tags":{"climbing":"route_bottom","climbing:grade:uiaa":"5","climbing:restriction:time_description":"Zákaz vstupu 23. 2.-30. 6. (kvůli hnízdění)","name":"Náhorní spára","sport":"climbing","website":"https://www.horosvaz.cz/skaly-cesta-23175/"}},"11947490451":{"lat":50.6200854,"lon":14.0559638,"ts":"2024-05-31T10:14:49Z","tz":1,"tags":{"climbing":"route_bottom","climbing:grade:uiaa":"6","climbing:restriction:time_description":"Zákaz vstupu 23. 2.-30. 6. (kvůli hnízdění)","name":"Bradou vzhůru","sport":"climbing","website":"https://www.horosvaz.cz/skaly-cesta-23176/"}},"11947490452":{"lat":50.6200817,"lon":14.0559433,"ts":"2024-05-31T10:14:49Z","tz":1,"tags":{"climbing":"route_bottom","climbing:grade:uiaa":"4","climbing:restriction:time_description":"Zákaz vstupu 23. 2.-30. 6. (kvůli hnízdění)","name":"Komu zvoní hrana - varianta","sport":"climbing","website":"https://www.horosvaz.cz/skaly-cesta-23177/"}},"11947490453":{"lat":50.6200781,"lon":14.0559229,"ts":"2024-05-31T10:14:49Z","tz":1,"tags":{"climbing":"route_bottom","climbing:grade:uiaa":"6","climbing:restriction:time_description":"Zákaz vstupu 23. 2.-30. 6. (kvůli hnízdění)","name":"Komu zvoní hrana","sport":"climbing","website":"https://www.horosvaz.cz/skaly-cesta-23178/"}},"11947490454":{"lat":50.6200744,"lon":14.0559024,"ts":"2024-05-31T10:14:49Z","tz":1,"tags":{"climbing":"route_bottom","climbing:grade:uiaa":"3","climbing:restriction:time_description":"Zákaz vstupu 23. 2.-30. 6. (kvůli hnízdění)","name":"Angreštová","sport":"climbing","website":"https://www.horosvaz.cz/skaly-cesta-23180/"}},"11947490455":{"lat":50.6200708,"lon":14.055882,"ts":"2024-05-31T10:14:49Z","tz":1,"tags":{"climbing":"route_bottom","climbing:grade:uiaa":"5","climbing:restriction:time_description":"Zákaz vstupu 23. 2.-30. 6. (kvůli hnízdění)","name":"Severovýchodní hrana","sport":"climbing","website":"https://www.horosvaz.cz/skaly-cesta-23179/"}},"11947490456":{"lat":50.6200671,"lon":14.0558615,"ts":"2024-05-31T10:14:49Z","tz":1,"tags":{"climbing":"route_bottom","climbing:grade:uiaa":"5","climbing:restriction:time_description":"Zákaz vstupu 23. 2.-30. 6. (kvůli hnízdění)","name":"Údolní spára","sport":"climbing","website":"https://www.horosvaz.cz/skaly-cesta-23181/"}},"11947490457":{"lat":50.6200635,"lon":14.0558411,"ts":"2024-05-31T10:14:49Z","tz":1,"tags":{"climbing":"route_bottom","climbing:grade:uiaa":"5","climbing:restriction:time_description":"Zákaz vstupu 23. 2.-30. 6. (kvůli hnízdění)","name":"Údolní cesta","sport":"climbing","website":"https://www.horosvaz.cz/skaly-cesta-23182/"}},"11947490458":{"lat":50.6200598,"lon":14.0558206,"ts":"2024-05-31T10:14:49Z","tz":1,"tags":{"climbing":"route_bottom","climbing:grade:uiaa":"5","climbing:restriction:time_description":"Zákaz vstupu 23. 2.-30. 6. (kvůli hnízdění)","name":"Zelený koberec","sport":"climbing","website":"https://www.horosvaz.cz/skaly-cesta-23183/"}},"11947490459":{"lat":50.6200561,"lon":14.0558002,"ts":"2024-05-31T10:14:49Z","tz":1,"tags":{"climbing":"route_bottom","climbing:grade:uiaa":"4","climbing:restriction:time_description":"Zákaz vstupu 23. 2.-30. 6. (kvůli hnízdění)","name":"Hlavní spára","sport":"climbing","website":"https://www.horosvaz.cz/skaly-cesta-23184/"}},"11947490460":{"lat":50.6200525,"lon":14.0557797,"ts":"2024-05-31T10:14:49Z","tz":1,"tags":{"climbing":"route_bottom","climbing:grade:uiaa":"4","climbing:restriction:time_description":"Zákaz vstupu 23. 2.-30. 6. (kvůli hnízdění)","name":"Kudy kam","sport":"climbing","website":"https://www.horosvaz.cz/skaly-cesta-119252/"}},"11947490461":{"lat":50.6200488,"lon":14.0557593,"ts":"2024-05-31T10:14:49Z","tz":1,"tags":{"climbing":"route_bottom","climbing:grade:uiaa":"4","climbing:restriction:time_description":"Zákaz vstupu 23. 2.-30. 6. (kvůli hnízdění)","name":"Cesta ze svahu","sport":"climbing","website":"https://www.horosvaz.cz/skaly-cesta-23185/"}},"11947490462":{"lat":50.6200452,"lon":14.0557388,"ts":"2024-05-31T10:14:49Z","tz":1,"tags":{"climbing":"route_bottom","climbing:grade:uiaa":"4","climbing:restriction:time_description":"Zákaz vstupu 23. 2.-30. 6. (kvůli hnízdění)","name":"Dřevěná galerie","sport":"climbing","website":"https://www.horosvaz.cz/skaly-cesta-23186/"}},"11947490463":{"lat":50.6200415,"lon":14.0557184,"ts":"2024-05-31T10:14:49Z","tz":1,"tags":{"climbing":"route_bottom","climbing:grade:uiaa":"3","climbing:restriction:time_description":"Zákaz vstupu 23. 2.-30. 6. (kvůli hnízdění)","name":"Okrajová cesta","sport":"climbing","website":"https://www.horosvaz.cz/skaly-cesta-23188/"}},"11947490464":{"lat":50.6200378,"lon":14.0556979,"ts":"2024-05-31T10:14:49Z","tz":1,"tags":{"climbing":"route_bottom","climbing:grade:uiaa":"2","climbing:restriction:time_description":"Zákaz vstupu 23. 2.-30. 6. (kvůli hnízdění)","name":"Stará cesta","sport":"climbing","website":"https://www.horosvaz.cz/skaly-cesta-23187/"}},"11947520072":{"lat":50.6201012,"lon":14.0561637,"ts":"2024-05-31T10:15:36Z","tz":1,"tags":{"climbing":"route_bottom","climbing:grade:uiaa":"5","name":"Nová jižní cesta","sport":"climbing","website":"https://www.horosvaz.cz/skaly-cesta-23189/"}},"11947520073":{"lat":50.6201043,"lon":14.0561786,"ts":"2024-05-31T10:15:36Z","tz":1,"tags":{"climbing":"route_bottom","climbing:grade:uiaa":"6","name":"Bielefeldská cesta","sport":"climbing","website":"https://www.horosvaz.cz/skaly-cesta-23190/"}},"11947520074":{"lat":50.6201073,"lon":14.0561936,"ts":"2024-05-31T10:15:36Z","tz":1,"tags":{"climbing":"route_bottom","climbing:grade:uiaa":"5","name":"Jižní stěna","sport":"climbing","website":"https://www.horosvaz.cz/skaly-cesta-23191/"}},"11947520075":{"lat":50.6201103,"lon":14.0562085,"ts":"2024-05-31T10:15:36Z","tz":1,"tags":{"climbing":"route_bottom","climbing:grade:uiaa":"6","name":"Skvělá generálka","sport":"climbing","website":"https://www.horosvaz.cz/skaly-cesta-23192/"}},"11947520076":{"lat":50.6201134,"lon":14.0562235,"ts":"2024-05-31T10:15:36Z","tz":1,"tags":{"climbing":"route_bottom","climbing:grade:uiaa":"7+/8-","name":"Elbblick","sport":"climbing","website":"https://www.horosvaz.cz/skaly-cesta-110807/"}},"11947520077":{"lat":50.6201164,"lon":14.0562384,"ts":"2024-05-31T10:15:36Z","tz":1,"tags":{"climbing":"route_bottom","climbing:grade:uiaa":"6","name":"Východní stěna","sport":"climbing","website":"https://www.horosvaz.cz/skaly-cesta-23193/"}},"11947520078":{"lat":50.6201195,"lon":14.0562534,"ts":"2024-05-31T10:15:36Z","tz":1,"tags":{"climbing":"route_bottom","climbing:grade:uiaa":"6","name":"Společně k vrcholu","sport":"climbing","website":"https://www.horosvaz.cz/skaly-cesta-23194/"}},"11947520079":{"lat":50.6201225,"lon":14.0562683,"ts":"2024-05-31T10:15:36Z","tz":1,"tags":{"climbing":"route_bottom","climbing:grade:uiaa":"7","name":"Via Karolína","sport":"climbing","website":"https://www.horosvaz.cz/skaly-cesta-23195/"}},"11947520080":{"lat":50.6201255,"lon":14.0562832,"ts":"2024-05-31T10:15:36Z","tz":1,"tags":{"climbing":"route_bottom","climbing:grade:uiaa":"6","name":"Přímá severní cesta","sport":"climbing","website":"https://www.horosvaz.cz/skaly-cesta-23196/"}},"11947520081":{"lat":50.6201286,"lon":14.0562982,"ts":"2024-05-31T10:15:36Z","tz":1,"tags":{"climbing":"route_bottom","climbing:grade:uiaa":"5","name":"Severní cesta","sport":"climbing","website":"https://www.horosvaz.cz/skaly-cesta-23197/"}},"11947520082":{"lat":50.6201316,"lon":14.0563131,"ts":"2024-05-31T10:15:36Z","tz":1,"tags":{"climbing":"route_bottom","climbing:grade:uiaa":"5","name":"Západní hrana","sport":"climbing","website":"https://www.horosvaz.cz/skaly-cesta-23198/"}},"11947520083":{"lat":50.6201347,"lon":14.0563281,"ts":"2024-05-31T10:15:36Z","tz":1,"tags":{"climbing":"route_bottom","climbing:grade:uiaa":"4","name":"Úzká stěna","sport":"climbing","website":"https://www.horosvaz.cz/skaly-cesta-23199/"}},"11947520084":{"lat":50.6201377,"lon":14.056343,"ts":"2024-05-31T10:15:36Z","tz":1,"tags":{"climbing":"route_bottom","climbing:grade:uiaa":"4","name":"Traverz","sport":"climbing","website":"https://www.horosvaz.cz/skaly-cesta-23200/"}},"11947520085":{"lat":50.6201407,"lon":14.056358,"ts":"2024-05-31T10:15:36Z","tz":1,"tags":{"climbing":"route_bottom","climbing:grade:uiaa":"4","name":"Stará cesta","sport":"climbing","website":"https://www.horosvaz.cz/skaly-cesta-23202/"}},"11947815714":{"lat":50.5562226,"lon":14.0491019,"ts":"2024-05-31T13:06:12Z","tz":1,"tags":{"climbing":"route_bottom","climbing:grade:uiaa":"6","name":"Ó pardón, ctihodný pane hlemýždi","sport":"climbing","website":"https://www.horosvaz.cz/skaly-cesta-58513/"}},"11947815715":{"lat":50.5562174,"lon":14.0491215,"ts":"2024-05-31T13:06:12Z","tz":1,"tags":{"climbing":"route_bottom","climbing:grade:uiaa":"6+","name":"Pytlíku, Ferdíku, to bude mazec","sport":"climbing","website":"https://www.horosvaz.cz/skaly-cesta-58514/"}},"11947815716":{"lat":50.5562123,"lon":14.0491412,"ts":"2024-05-31T13:06:12Z","tz":1,"tags":{"climbing":"route_bottom","climbing:grade:uiaa":"5+","name":"Bejt váma, šéfiku, najal bych si na tu trumpetu nosiče","sport":"climbing","website":"https://www.horosvaz.cz/skaly-cesta-58515/"}},"11947815717":{"lat":50.5562071,"lon":14.0491608,"ts":"2024-05-31T13:06:12Z","tz":1,"tags":{"climbing":"route_bottom","climbing:grade:uiaa":"5+","name":"Brundibárie","sport":"climbing","website":"https://www.horosvaz.cz/skaly-cesta-58516/"}},"11947815718":{"lat":50.556202,"lon":14.0491804,"ts":"2024-05-31T13:06:12Z","tz":1,"tags":{"climbing":"route_bottom","climbing:grade:uiaa":"6","name":"Cvrčkovo rádio","sport":"climbing","website":"https://www.horosvaz.cz/skaly-cesta-58517/"}},"11947815719":{"lat":50.5561968,"lon":14.0492,"ts":"2024-05-31T13:06:12Z","tz":1,"tags":{"climbing":"route_bottom","climbing:grade:uiaa":"5+","name":"Z pěknýho rádia pěkná muzika","sport":"climbing","website":"https://www.horosvaz.cz/skaly-cesta-58518/"}},"11947815720":{"lat":50.5561917,"lon":14.0492197,"ts":"2024-05-31T13:06:12Z","tz":1,"tags":{"climbing":"route_bottom","climbing:grade:uiaa":"5","name":"Cesta Ondřeje Sekory","sport":"climbing","website":"https://www.horosvaz.cz/skaly-cesta-58519/"}},"11947815721":{"lat":50.5561865,"lon":14.0492393,"ts":"2024-05-31T13:06:12Z","tz":1,"tags":{"climbing":"route_bottom","climbing:grade:uiaa":"5+","name":"2 x 5 je 9, kdo bručí, je čmelák","sport":"climbing","website":"https://www.horosvaz.cz/skaly-cesta-58520/"}},"11947815722":{"lat":50.5561814,"lon":14.0492589,"ts":"2024-05-31T13:06:12Z","tz":1,"tags":{"climbing":"route_bottom","climbing:grade:uiaa":"4","name":"Je libo něco jemnějšího, sličná slečinko?","sport":"climbing","website":"https://www.horosvaz.cz/skaly-cesta-58521/"}},"11947815723":{"lat":50.5561762,"lon":14.0492785,"ts":"2024-05-31T13:06:12Z","tz":1,"tags":{"climbing":"route_bottom","climbing:grade:uiaa":"4+","name":"Střevlík Masorád na čekané","sport":"climbing","website":"https://www.horosvaz.cz/skaly-cesta-58523/"}},"11947815724":{"lat":50.5561711,"lon":14.0492982,"ts":"2024-05-31T13:06:12Z","tz":1,"tags":{"climbing":"route_bottom","climbing:grade:uiaa":"5","name":"Šplh na pampelišku","sport":"climbing","website":"https://www.horosvaz.cz/skaly-cesta-58522/"}}}