{"17673955":{"lat":49.2266926,"lon":13.9011124,"ts":"2025-02-04T13:08:54Z","tz":1,"tags":{"climbing":"crag","name":"Sluneční stěna","site":"climbing","sport":"climbing","type":"site","website":"https://www.horosvaz.cz/skaly-skala-4245/","wikimedia_commons":"File:Radošovice - Skalní masiv Sluneční stěna.jpg"}},"11954873448":{"lat":49.2265384,"lon":13.9011361,"ts":"2024-06-04T03:05:36Z","tz":1,"tags":{"climbing":"route_bottom","climbing:grade:uiaa":"8-","name":"Smažení je radost","sport":"climbing","website":"https://www.horosvaz.cz/skaly-cesta-14024/"}},"11954873449":{"lat":49.2265525,"lon":13.901134,"ts":"2024-06-04T03:05:36Z","tz":1,"tags":{"climbing":"route_bottom","climbing:grade:uiaa":"8","name":"Herák je smažení","sport":"climbing","website":"https://www.horosvaz.cz/skaly-cesta-14023/"}},"11954873450":{"lat":49.2265665,"lon":13.9011318,"ts":"2024-06-04T03:05:36Z","tz":1,"tags":{"climbing":"route_bottom","climbing:grade:uiaa":"7","name":"Maturita","sport":"climbing","website":"https://www.horosvaz.cz/skaly-cesta-14025/"}},"11954873451":{"lat":49.2265805,"lon":13.9011297,"ts":"2024-06-04T03:05:36Z","tz":1,"tags":{"climbing":"route_bottom","climbing:grade:uiaa":"6-","name":"Aprílová","sport":"climbing","website":"https://www.horosvaz.cz/skaly-cesta-14026/"}},"11954873452":{"lat":49.2265945,"lon":13.9011275,"ts":"2024-06-04T03:05:36Z","tz":1,"tags":{"climbing":"route_bottom","climbing:grade:uiaa":"4+","name":"Čtyřka - varianta","sport":"climbing","website":"https://www.horosvaz.cz/skaly-cesta-14027/"}},"11954873453":{"lat":49.2266085,"lon":13.9011254,"ts":"2025-02-04T13:25:24Z","tz":1,"tags":{"climbing":"route_bottom","climbing:grade:uiaa":"4","name":"Čtyřka","sport":"climbing","website":"https://www.horosvaz.cz/skaly-cesta-14028/","wikimedia_commons":"File:Radošovice - Skalní masiv Sluneční stěna.jpg","wikimedia_commons:path":"0.751,0.726|0.732,0.603|0.727,0.464|0.704,0.339|0.703,0.263"}},"11954873454":{"lat":49.2266225,"lon":13.9011232,"ts":"2025-02-04T13:25:24Z","tz":1,"tags":{"climbing":"route_bottom","climbing:grade:uiaa":"7+","name":"Cesta klasiků","sport":"climbing","website":"https://www.horosvaz.cz/skaly-cesta-14029/","wikimedia_commons":"File:Radošovice - Skalní masiv Sluneční stěna.jpg","wikimedia_commons:path":"0.668,0.772|0.653,0.425|0.632,0.246|0.634,0.155"}},"11954873455":{"lat":49.2266365,"lon":13.9011211,"ts":"2025-02-04T13:25:24Z","tz":1,"tags":{"climbing":"route_bottom","climbing:grade:uiaa":"8-","name":"Cocain cornr","sport":"climbing","website":"https://www.horosvaz.cz/skaly-cesta-14031/","wikimedia_commons":"File:Radošovice - Skalní masiv Sluneční stěna.jpg","wikimedia_commons:path":"0.612,0.789|0.605,0.249|0.557,0.133"}},"11954873456":{"lat":49.2266505,"lon":13.9011189,"ts":"2025-02-04T13:25:24Z","tz":1,"tags":{"climbing":"route_bottom","climbing:grade:uiaa":"7","name":"SVATEBNÍ (Gotické okno)","sport":"climbing","website":"https://www.horosvaz.cz/skaly-cesta-14032/","wikimedia_commons":"File:Radošovice - Skalní masiv Sluneční stěna.jpg","wikimedia_commons:path":"0.534,0.785|0.557,0.133"}},"11954873457":{"lat":49.2266646,"lon":13.9011168,"ts":"2025-02-04T13:25:25Z","tz":1,"tags":{"climbing":"route_bottom","climbing:grade:uiaa":"7+","name":"Křížová","sport":"climbing","website":"https://www.horosvaz.cz/skaly-cesta-14030/","wikimedia_commons":"File:Radošovice - Skalní masiv Sluneční stěna.jpg","wikimedia_commons:path":"0.534,0.785|0.546,0.499|0.442,0.389|0.369,0.309|0.256,0.241|0.174,0.165|0.021,0.043"}},"11954873458":{"lat":49.2266786,"lon":13.9011146,"ts":"2025-02-04T13:25:24Z","tz":1,"tags":{"climbing":"route_bottom","climbing:grade:uiaa":"6-","name":"Šestka","sport":"climbing","website":"https://www.horosvaz.cz/skaly-cesta-14034/","wikimedia_commons":"File:Radošovice - Skalní masiv Sluneční stěna.jpg","wikimedia_commons:path":"0.375,0.771|0.368,0.508|0.493,0.277|0.557,0.133"}},"11954873459":{"lat":49.2266926,"lon":13.9011124,"ts":"2025-02-04T13:25:24Z","tz":1,"tags":{"climbing":"route_bottom","climbing:grade:uiaa":"8-","name":"V-komplex","sport":"climbing","website":"https://www.horosvaz.cz/skaly-cesta-14033/","wikimedia_commons":"File:Radošovice - Skalní masiv Sluneční stěna.jpg","wikimedia_commons:path":"0.375,0.771|0.368,0.508|0.366,0.268|0.376,0.098"}},"11954873460":{"lat":49.2267066,"lon":13.9011103,"ts":"2024-06-04T03:05:36Z","tz":1,"tags":{"climbing":"route_bottom","climbing:grade:uiaa":"7-","name":"Intenso","sport":"climbing","website":"https://www.horosvaz.cz/skaly-cesta-14022/"}},"11954873461":{"lat":49.2267206,"lon":13.9011081,"ts":"2025-02-04T13:25:24Z","tz":1,"tags":{"climbing":"route_bottom","climbing:grade:uiaa":"7","name":"Diretka","sport":"climbing","website":"https://www.horosvaz.cz/skaly-cesta-14035/","wikimedia_commons":"File:Radošovice - Skalní masiv Sluneční stěna.jpg","wikimedia_commons:path":"0.273,0.789|0.268,0.389|0.261,0.055"}},"11954873462":{"lat":49.2267346,"lon":13.901106,"ts":"2025-02-04T13:25:24Z","tz":1,"tags":{"climbing":"route_bottom","climbing:grade:uiaa":"9","name":"Individualita","sport":"climbing","website":"https://www.horosvaz.cz/skaly-cesta-14036/","wikimedia_commons":"File:Radošovice - Skalní masiv Sluneční stěna.jpg","wikimedia_commons:path":"0.192,0.771|0.206,0.412|0.174,0.165|0.167,0.031"}},"11954873463":{"lat":49.2267486,"lon":13.9011038,"ts":"2025-02-04T13:25:24Z","tz":1,"tags":{"climbing":"route_bottom","climbing:grade:uiaa":"7","name":"Black & white","sport":"climbing","website":"https://www.horosvaz.cz/skaly-cesta-14037/","wikimedia_commons":"File:Radošovice - Skalní masiv Sluneční stěna.jpg","wikimedia_commons:path":"0.098,0.79|0.101,0.193|0.021,0.043"}},"11954873464":{"lat":49.2267627,"lon":13.9011017,"ts":"2025-02-04T13:25:24Z","tz":1,"tags":{"climbing":"route_bottom","climbing:grade:uiaa":"8/8+","name":"France frites","sport":"climbing","website":"https://www.horosvaz.cz/skaly-cesta-14038/","wikimedia_commons":"File:Radošovice - Skalní masiv Sluneční stěna.jpg","wikimedia_commons:path":"0.021,0.799|0.021,0.043"}},"11954873465":{"lat":49.2267767,"lon":13.9010995,"ts":"2024-06-04T03:05:36Z","tz":1,"tags":{"climbing":"route_bottom","climbing:grade:uiaa":"7","name":"Ráďošovická","sport":"climbing","website":"https://www.horosvaz.cz/skaly-cesta-119667/"}},"11954873466":{"lat":49.2267907,"lon":13.9010974,"ts":"2024-06-04T03:05:36Z","tz":1,"tags":{"climbing":"route_bottom","climbing:grade:uiaa":"9","name":"Syndrom v.s","sport":"climbing","website":"https://www.horosvaz.cz/skaly-cesta-14039/"}},"11954873467":{"lat":49.2268047,"lon":13.9010952,"ts":"2024-06-04T03:05:36Z","tz":1,"tags":{"climbing":"route_bottom","climbing:grade:uiaa":"8-","name":"In memoriam","sport":"climbing","website":"https://www.horosvaz.cz/skaly-cesta-14040/"}},"11954873468":{"lat":49.2268187,"lon":13.901093,"ts":"2024-06-04T03:05:36Z","tz":1,"tags":{"climbing":"route_bottom","climbing:grade:uiaa":"8","name":"Veksl podkáslej","sport":"climbing","website":"https://www.horosvaz.cz/skaly-cesta-14041/"}},"11954907069":{"lat":49.2268327,"lon":13.9010909,"ts":"2024-06-04T03:05:36Z","tz":1,"tags":{"climbing":"route_bottom","climbing:grade:uiaa":"7","name":"Rozlámaná","sport":"climbing","website":"https://www.horosvaz.cz/skaly-cesta-14043/"}},"11954907070":{"lat":49.2268467,"lon":13.9010887,"ts":"2024-06-04T03:05:36Z","tz":1,"tags":{"climbing":"route_bottom","climbing:grade:uiaa":"8+","name":"Inkvizitor","sport":"climbing","website":"https://www.horosvaz.cz/skaly-cesta-14042/"}}}