{"18176949":{"lat":47.8731438,"lon":13.8455322,"ts":"2024-10-18T11:10:15Z","tz":1,"tags":{"climbing":"crag","name":"Traunstein-Ostgrat","site":"climbing","type":"site"}},"18177008":{"lat":47.8114676,"lon":13.8048914,"ts":"2024-10-18T11:23:18Z","tz":1,"tags":{"climbing":"crag","name":"Spitzlstein SW-Grat","site":"climbing","sport":"climbing","type":"site"}},"18181315":{"lat":47.8618365,"lon":13.8188881,"ts":"2024-10-19T17:41:53Z","tz":1,"tags":{"climbing":"crag","name":"Traunstein SW-Wand","site":"climbing","sport":"climbing","type":"site"}},"18181391":{"lat":47.8803148,"lon":13.8191708,"ts":"2024-10-19T17:47:49Z","tz":1,"tags":{"climbing":"crag","name":"Adlerhorst","site":"climbing","sport":"climbing","type":"site","website":"www.klettern-adlerhorst.com"}},"18199636":{"lat":47.8238159,"lon":13.8145449,"ts":"2024-10-23T08:43:50Z","tz":1,"tags":{"climbing":"crag","name":"Gasseltürme","site":"climbing","sport":"climbing","type":"site"}},"18199639":{"lat":47.8058047,"lon":13.8085794,"ts":"2024-10-23T08:46:14Z","tz":1,"tags":{"climbing":"crag","name":"Zeckenwand","site":"climbing","sport":"climbing","type":"site"}},"110878643":{"lat":47.8607803,"lon":13.8168944,"ts":"2024-07-30T15:03:00Z","tz":1,"tags":{"climbing":"route","climbing:bolted":"yes","climbing:grade:uiaa":"3","climbing:length":"100","climbing:pitches":"4","climbing:rock":"limestone","highway":"path","name":"Gmundnersteig","sac_scale":"demanding_alpine_hiking","surface":"ground","trail_visibility":"bad"}},"110884363":{"lat":47.8618094,"lon":13.8184356,"ts":"2024-07-30T15:05:07Z","tz":1,"tags":{"climbing":"route","climbing:bolted":"yes","climbing:grade:uiaa":"4","climbing:length":"400","climbing:pitches":"8","climbing:rock":"limestone","highway":"path","sac_scale":"demanding_alpine_hiking","surface":"rock","trail_visibility":"bad"}},"110884364":{"lat":47.8618365,"lon":13.8184356,"ts":"2024-10-19T17:28:48Z","tz":1,"tags":{"climbing":"route","climbing:bolted":"yes","climbing:grade:uiaa":"3","climbing:length":"400","climbing:pitches":"8","climbing:rock":"limestone","highway":"path","name":"Südwestgrat","sac_scale":"demanding_alpine_hiking","sport":"climbing","surface":"rock","trail_visibility":"bad"}},"117547268":{"lat":47.8942064,"lon":13.9696915,"ts":"2024-09-09T17:13:58Z","tz":1,"tags":{"climbing":"crag","climbing:rock":"limestone","name":"Bräumauer","natural":"cliff"}},"166751544":{"lat":47.8781423,"lon":13.8278336,"ts":"2024-08-16T16:34:48Z","tz":1,"tags":{"climbing":"yes","description":"II+, unmarkiert, nicht versichert, kaum Haken, freies Klettern erforderlich","highway":"path","name":"Zierlersteig","sac_scale":"demanding_alpine_hiking","trail_visibility":"horrible"}},"166751545":{"lat":47.8736929,"lon":13.841447,"ts":"2024-10-18T11:11:03Z","tz":1,"tags":{"climbing":"route","description":"II+, unmarkiert, nicht versichert","highway":"path","name":"Traunstein-Ostgrat","sac_scale":"difficult_alpine_hiking","surface":"ground","trail_visibility":"horrible"}},"421066334":{"lat":47.8811789,"lon":13.8196144,"ts":"2024-08-16T16:34:48Z","tz":1,"tags":{"climbing":"yes","description":"II+, unmarkiert, nicht versichert, kaum Haken, freies Klettern erforderlich","highway":"path","name":"Zierlersteig","sac_scale":"difficult_alpine_hiking","surface":"ground","trail_visibility":"horrible"}},"674398502":{"lat":47.8730886,"lon":13.8480117,"ts":"2024-10-18T11:10:15Z","tz":1,"tags":{"climbing":"route","description":"II+, unmarkiert, nicht versichert","highway":"path","name":"Traunstein-Ostgrat","sac_scale":"difficult_alpine_hiking","sport":"climbing","surface":"ground","trail_visibility":"horrible"}},"835868180":{"lat":47.8804018,"lon":13.8202684,"ts":"2023-04-22T17:42:27Z","tz":1,"tags":{"climbing":"yes","description":"II+, unmarkiert, nicht versichert, kaum Haken, freies Klettern erforderlich","highway":"path","name":"Zierlersteig","sac_scale":"difficult_alpine_hiking","surface":"ground","trail_visibility":"horrible"}},"911877804":{"lat":47.8803148,"lon":13.8191708,"ts":"2010-09-14T12:07:53Z","tz":1,"tags":{"climbing":"crag","climbing:bolted":"yes","climbing:rock":"limestone","name":"Adlerhorst","sport":"climbing"}},"1107993947":{"lat":47.8028118,"lon":13.7165879,"ts":"2022-10-29T15:52:15Z","tz":1,"tags":{"climbing":"route","climbing:bolted":"no","climbing:grade:uiaa":"3","climbing:trad":"yes","name":"Helmeskogel Südostkamm Schlüsselstelle (III)","sport":"climbing"}},"1184230120":{"lat":47.8114676,"lon":13.8048914,"ts":"2025-02-26T14:51:29Z","tz":1,"tags":{"climbing":"route","climbing:grade:uiaa":"2+","name":"Spitzlstein Normalweg (II+)","sac_scale":"demanding_alpine_hiking","sport":"climbing","trail_visibility":"bad"}},"1586286178":{"lat":47.985588,"lon":13.817521,"ts":"2012-01-11T21:52:35Z","tz":1,"tags":{"name":"Sportland","sport":"climbing"}},"6930647687":{"lat":47.8621526,"lon":13.820237,"ts":"2020-03-23T19:00:44Z","tz":1,"tags":{"climbing":"route_bottom","name":"Happy Feet","sport":"climbing"}},"6931058885":{"lat":47.8621045,"lon":13.8200308,"ts":"2020-03-23T19:00:44Z","tz":1,"tags":{"climbing":"route_bottom","name":"Wer putzet der findet","sport":"climbing"}},"7323423389":{"lat":47.8621197,"lon":13.8201477,"ts":"2020-03-23T19:00:44Z","tz":1,"tags":{"climbing":"route_bottom","name":"Seeluft","sport":"climbing"}},"7323423390":{"lat":47.8619982,"lon":13.8198513,"ts":"2020-03-23T19:00:44Z","tz":1,"tags":{"climbing":"route_bottom","name":"Paradiesvogel","sport":"climbing"}},"7323423391":{"lat":47.861911,"lon":13.8197051,"ts":"2020-03-23T19:00:44Z","tz":1,"tags":{"climbing":"route_bottom","name":"Botanika","sport":"climbing"}},"7323423392":{"lat":47.8618777,"lon":13.8196246,"ts":"2020-03-23T19:00:44Z","tz":1,"tags":{"climbing":"route_bottom","name":"Suela","sport":"climbing"}},"7323423393":{"lat":47.8618669,"lon":13.8190332,"ts":"2020-03-23T19:00:44Z","tz":1,"tags":{"climbing":"route_bottom","name":"Boomerang","sport":"climbing"}},"7323423394":{"lat":47.8619182,"lon":13.8190708,"ts":"2020-03-23T19:00:44Z","tz":1,"tags":{"climbing":"route_bottom","name":"Stubbüchsenpfeiler","sport":"climbing"}},"7323423395":{"lat":47.8619397,"lon":13.8191137,"ts":"2020-03-23T19:00:44Z","tz":1,"tags":{"climbing":"route_bottom","name":"Naturfreundekamin","sport":"climbing"}},"7323423396":{"lat":47.8618498,"lon":13.8195616,"ts":"2020-03-23T19:00:44Z","tz":1,"tags":{"climbing":"route_bottom","name":"Diplomarbeit","sport":"climbing"}},"7323423397":{"lat":47.8618408,"lon":13.8194463,"ts":"2024-10-19T17:32:16Z","tz":1,"tags":{"climbing":"route_bottom","climbing:grade:uiaa":"6","name":"Luftikus","sport":"climbing"}},"9799294436":{"lat":47.9278206,"lon":13.7982649,"ts":"2022-12-24T23:09:57Z","tz":1,"tags":{"addr:city":"Gmunden","addr:housenumber":"21","addr:postcode":"4810","addr:street":"Bräuhausstraße","climbing:boulder":"yes","fee":"yes","indoor":"yes","leisure":"sports_centre","name":"Boulderhalle Stoablock","opening_hours":"Mo-Su 09:00-22:00","sport":"climbing","website":"https://stoablock.com/"}},"12269469485":{"lat":47.8621782,"lon":13.8203289,"ts":"2024-10-19T17:39:01Z","tz":1,"tags":{"climbing":"route_bottom","climbing:grade:uiaa":"6/6+","name":"Rechts drausen","sport":"climbing"}},"12269469486":{"lat":47.8617154,"lon":13.8189373,"ts":"2024-10-19T17:39:01Z","tz":1,"tags":{"climbing":"route_bottom","climbing:grade:uiaa":"8-","name":"Seensucht","sport":"climbing"}},"12269469487":{"lat":47.861702,"lon":13.8187738,"ts":"2024-10-19T17:39:01Z","tz":1,"tags":{"climbing":"route_bottom","climbing:grade:uiaa":"5","fixme":"exact location","name":"Sanduhrenparadies","sport":"climbing"}},"12281357278":{"lat":47.8058047,"lon":13.8085794,"ts":"2025-03-22T17:25:39Z","tz":1,"tags":{"climbing":"route","name":"Zeckenwand","sport":"climbing"}}}