{"6334609":{"lat":47.4382308,"lon":13.7162399,"ts":"2024-09-17T21:15:03Z","tz":1,"tags":{"climbing":"route","name":"Klettersteig Hias","route":"via_ferrata","type":"route","via_ferrata_scale":"4"}},"7420206":{"lat":47.4576469,"lon":13.8243573,"ts":"2024-09-15T14:32:54Z","tz":1,"tags":{"climbing":"route","name":"Klettersteig Emil","route":"via_ferrata","type":"route","via_ferrata_scale":"2+"}},"14442607":{"lat":47.4385645,"lon":13.7144195,"ts":"2024-09-17T21:15:03Z","tz":1,"tags":{"climbing":"route","name":"Rosina - Klettersteig","route":"via_ferrata","type":"route","via_ferrata_scale":"4"}},"18048121":{"lat":47.4573229,"lon":13.8247791,"ts":"2024-09-15T14:32:54Z","tz":1,"tags":{"climbing":"route","name":"Klettersteig Franz","route":"via_ferrata","type":"route","via_ferrata_scale":"2+"}},"18048122":{"lat":47.4575979,"lon":13.8254677,"ts":"2024-09-15T14:32:54Z","tz":1,"tags":{"climbing":"route","name":"Klettersteig Peter","route":"via_ferrata","type":"route","via_ferrata_scale":"3"}},"18048123":{"lat":47.4569774,"lon":13.8277758,"ts":"2024-09-15T14:32:54Z","tz":1,"tags":{"climbing":"route","name":"Hilde-Klettersteig","route":"via_ferrata","type":"route","via_ferrata_scale":"3+"}},"338876532":{"lat":47.4468871,"lon":13.8585042,"ts":"2015-04-16T20:54:21Z","tz":1,"tags":{"leisure":"sports_centre","sport":"climbing","tourism":"attraction"}},"338876566":{"lat":47.4664657,"lon":13.8530969,"ts":"2024-08-18T09:57:50Z","tz":1,"tags":{"leisure":"sports_centre","name":"Hochseilgarten","sport":"climbing","tourism":"attraction"}},"5273231747":{"lat":47.4224083,"lon":13.8179818,"ts":"2021-02-28T00:33:17Z","tz":1,"tags":{"leisure":"pitch","man_made":"tower","sport":"climbing","tower:type":"climbing"}},"6795521446":{"lat":47.4573606,"lon":13.8210878,"ts":"2019-09-14T15:57:08Z","tz":1,"tags":{"climbing:sport":"yes","sport":"climbing"}},"6795563724":{"lat":47.4545559,"lon":13.8239591,"ts":"2019-09-14T15:57:08Z","tz":1,"tags":{"climbing:sport":"yes","sport":"climbing"}}}