{"48875358":{"lat":40.5644408,"lon":-111.8979523,"ts":"2020-01-31T16:32:13Z","tz":-7,"tags":{"addr:city":"Sandy","addr:housenumber":"220","addr:postcode":"84070","addr:state":"UT","addr:street":"W 10600 South","brand":"Momentum Climbing","building":"yes","leisure":"sports_centre","name":"Momentum Indoor Climbing Sandy","sport":"climbing"}},"427844887":{"lat":40.7011984,"lon":-111.8033915,"ts":"2020-01-31T16:32:13Z","tz":-7,"tags":{"brand":"Momentum Climbing","leisure":"sports_centre","name":"Momentum Indoor Climbing Millcreek","sport":"climbing"}},"9181476328":{"lat":40.6818226,"lon":-111.8915557,"ts":"2024-10-14T23:21:58Z","tz":-7,"tags":{"addr:housenumber":"4140","addr:postcode":"84107","addr:street":"Main Street","contact:facebook":"thefrontslc","contact:instagram":"thefrontclimbing","full_name":"The Front Climbing Club","internet_access":"wlan","leisure":"sports_centre","name":"The Front Climbing Club","opening_hours":"Mo-Fr 05:30-23:00; Sa-Su 08:00-22:00","phone":"+1 866-662-3529","sport":"climbing","website":"https://thefrontclimbingclub.com/"}},"11284949278":{"lat":40.7010315,"lon":-111.8529321,"ts":"2023-10-23T21:35:12Z","tz":-7,"tags":{"climbing:orientation":"NE","climbing:sport:outdoor":"yes","leisure":"sports_centre","note":"This climbing wall is not a standalone tower. It is built into the wall or facade of the building.","outdoor":"yes","sport":"climbing"}},"12654128662":{"lat":40.6204273,"lon":-111.8604943,"ts":"2025-03-12T00:30:54Z","tz":-7,"tags":{"check_date":"2025-03-11","leisure":"sports_centre","name":"Momentum","opening_hours":"Mo-Fr 06:00-23:00; Sa 10:00-22:00; Su 10:00-18:00","sport":"climbing"}}}