{"40726725":{"lat":54.4797347,"lon":-3.2211682,"ts":"2020-08-24T17:55:17Z","tz":0,"tags":{"name":"Great Napes","natural":"cliff","source":"NPE","sport":"climbing"}},"40726757":{"lat":54.4909467,"lon":-3.21033,"ts":"2017-01-20T14:00:49Z","tz":0,"tags":{"natural":"cliff","source":"NPE","sport":"climbing"}},"61161569":{"lat":54.4973296,"lon":-3.2784806,"ts":"2020-08-27T19:41:52Z","tz":0,"tags":{"name":"Pillar Rock","natural":"cliff","source":"NPE","sport":"climbing"}},"61161571":{"lat":54.5165237,"lon":-3.273556,"ts":"2022-11-15T08:28:42Z","tz":0,"tags":{"natural":"cliff","source":"NPE","sport":"climbing"}},"61161573":{"lat":54.4496258,"lon":-3.2202905,"ts":"2020-08-21T14:42:58Z","tz":0,"tags":{"name":"East Buttress","natural":"cliff","source":"NPE","sport":"climbing"}},"61161574":{"lat":54.4837576,"lon":-3.2178755,"ts":"2018-04-18T10:04:08Z","tz":0,"tags":{"name":"Gable Crag","natural":"cliff","source":"NPE","sport":"climbing"}},"396192820":{"lat":54.5028909,"lon":-3.2026832,"ts":"2017-05-10T09:48:40Z","tz":0,"tags":{"name":"Raven Crag","natural":"cliff","source":"NPE","sport":"climbing"}},"467454415":{"lat":54.4945852,"lon":-3.2108492,"ts":"2017-01-26T15:26:30Z","tz":0,"tags":{"natural":"cliff","source":"NPE","sport":"climbing"}},"467454416":{"lat":54.4993823,"lon":-3.2075063,"ts":"2017-01-20T14:00:48Z","tz":0,"tags":{"natural":"cliff","source":"NPE","sport":"climbing"}},"469082435":{"lat":54.496272,"lon":-3.2108492,"ts":"2017-01-26T15:26:29Z","tz":0,"tags":{"natural":"cliff","source":"NPE","sport":"climbing"}},"492326495":{"lat":54.5179951,"lon":-3.2787913,"ts":"2020-07-25T11:25:02Z","tz":0,"tags":{"name":"Comb Crag","natural":"cliff","source":"NPE","sport":"climbing"}},"495230018":{"lat":54.5220009,"lon":-3.2821321,"ts":"2020-07-25T11:25:02Z","tz":0,"tags":{"name":"Grey Crag","natural":"cliff","source":"NPE","sport":"climbing"}},"495230019":{"lat":54.5188201,"lon":-3.2807961,"ts":"2020-07-25T11:25:02Z","tz":0,"tags":{"name":"Eagle Crag","natural":"cliff","source":"NPE","sport":"climbing"}},"829981240":{"lat":54.5191643,"lon":-3.2820528,"ts":"2020-07-25T11:25:02Z","tz":0,"tags":{"name":"Comb Crag","natural":"cliff","source":"NPE","sport":"climbing"}},"838999999":{"lat":54.4504854,"lon":-3.2227982,"ts":"2021-04-20T14:51:37Z","tz":0,"tags":{"natural":"cliff","sport":"climbing"}},"839000000":{"lat":54.4507727,"lon":-3.2224037,"ts":"2020-08-21T14:42:58Z","tz":0,"tags":{"name":"Pisgah","natural":"cliff","sport":"climbing"}},"839000004":{"lat":54.4507803,"lon":-3.2216844,"ts":"2020-08-21T14:42:58Z","tz":0,"tags":{"name":"Central Buttress","natural":"cliff","sport":"climbing"}},"839038678":{"lat":54.4503846,"lon":-3.2236886,"ts":"2020-08-21T14:42:58Z","tz":0,"tags":{"name":"Deep Gill Buttress","natural":"cliff","sport":"climbing"}},"841349451":{"lat":54.5000784,"lon":-3.2807033,"ts":"2020-08-27T13:48:05Z","tz":0,"tags":{"area":"no","name":"Pillar Rock","natural":"cliff","source":"NPE","sport":"climbing"}},"841349452":{"lat":54.4998271,"lon":-3.283859,"ts":"2020-08-27T19:41:52Z","tz":0,"tags":{"name":"Pillar Rock","natural":"cliff","source":"NPE","sport":"climbing"}},"841390035":{"lat":54.4501256,"lon":-3.1655371,"ts":"2021-04-20T15:09:33Z","tz":0,"tags":{"name":"Bowfell Buttress","natural":"cliff","sport":"climbing"}},"841474960":{"lat":54.4981969,"lon":-3.2812187,"ts":"2020-08-27T19:41:52Z","tz":0,"tags":{"name":"Pillar Rock","natural":"cliff","source":"NPE","sport":"climbing"}},"841474961":{"lat":54.4990508,"lon":-3.280647,"ts":"2020-08-27T19:41:52Z","tz":0,"tags":{"name":"Pillar Rock","natural":"cliff","source":"NPE","sport":"climbing"}},"932913043":{"lat":54.4506547,"lon":-3.2230357,"ts":"2021-04-20T14:51:37Z","tz":0,"tags":{"name":"The Pinnacle","natural":"cliff","sport":"climbing"}},"932919376":{"lat":54.4488733,"lon":-3.1648308,"ts":"2021-04-20T15:09:33Z","tz":0,"tags":{"name":"Cambridge Crags","natural":"cliff","sport":"climbing"}}}