{"297705408":{"lat":51.7968779,"lon":10.7119235,"ts":"2024-10-16T10:45:35Z","tz":1,"tags":{"alt_name":"Ottofelsen","climbing:grade:saxon:max":"IX","climbing:grade:saxon:min":"I","climbing:rock":"granite","climbing:routes":"58","description":"Ursprüngl. eine der Hohnstein Klippen, vom Harzklub vor 1892 mit einer Eisentreppe besteigbar gemacht und nach dem Fürsten Otto zu Stolberg-Wenigerode benannt.","ele":"620","height":"36","name":"Ottofels","natural":"peak","source":"Geschichte der Stadt und Grafschaft Wernigerode in ihren Forst-, Flur- und Straßennamen von Amtsgerichtsrat Walter Grosse, Wernigerode 1929","sport":"climbing","summit:cross":"no","summit:register":"no","type":"cliff","wikidata":"Q2041387"}},"678887865":{"lat":51.8164622,"lon":10.7098897,"ts":"2022-07-02T17:04:29Z","tz":1,"tags":{"climbing:bolted":"yes","climbing:grade:uiaa:max":"7","climbing:grade:uiaa:min":"1","climbing:rock":"granite","name":"Untere Silberwand","natural":"cliff","sport":"climbing"}},"678887866":{"lat":51.8166108,"lon":10.7096838,"ts":"2022-07-02T19:16:57Z","tz":1,"tags":{"climbing:bolted":"yes","climbing:grade:uiaa:max":"7","climbing:grade:uiaa:min":"1","climbing:rock":"granite","height":"480","name":"Obere Silberwand","natural":"cliff","sport":"climbing"}},"925290350":{"lat":51.8159152,"lon":10.7036596,"ts":"2021-04-02T18:49:21Z","tz":1,"tags":{"climbing:bolted":"yes","climbing:grade:uiaa:max":"6","climbing:grade:uiaa:min":"1","climbing:rock":"granite","height":"17","name":"Sonnenwand","natural":"cliff","sport":"climbing"}},"1390786974":{"lat":51.8134149,"lon":10.7043579,"ts":"2021-03-21T16:07:02Z","tz":1,"tags":{"climbing:grade:saxon:max":"VIIa","climbing:grade:saxon:min":"III","climbing:rock":"limestone","climbing:routes":"3","height":"6","name":"Chausseeklippe","natural":"cliff","sport":"climbing","type":"cliff"}},"1390787002":{"lat":51.7969921,"lon":10.7119243,"ts":"2021-10-18T20:18:23Z","tz":1,"tags":{"climbing:grade:saxon:max":"VIIIc","climbing:grade:saxon:min":"V","climbing:rock":"granite","climbing:routes":"7","ele":"602","height":"18","name":"Ottonadel","natural":"peak","sport":"climbing","type":"cliff"}},"1954731797":{"lat":51.8164716,"lon":10.7098596,"ts":"2020-09-11T22:41:11Z","tz":1,"tags":{"climbing:bolted":"yes","climbing:grade:uiaa:max":"7","climbing:grade:uiaa:min":"1","climbing:rock":"granite","name":"Untere Silberwand","natural":"cliff","sport":"climbing"}},"1956184865":{"lat":51.8166009,"lon":10.7096634,"ts":"2022-07-02T19:16:57Z","tz":1,"tags":{"climbing:bolted":"yes","climbing:grade:uiaa:max":"7","climbing:grade:uiaa:min":"1","climbing:rock":"granite","height":"480","name":"Obere Silberwand","natural":"cliff","sport":"climbing"}},"8587320135":{"lat":51.8158701,"lon":10.7036745,"ts":"2021-04-02T18:55:05Z","tz":1,"tags":{"climbing:bolted":"yes","climbing:grade:uiaa:max":"6","climbing:grade:uiaa:min":"1","climbing:rock":"granite","height":"17","name":"Sonnenwand","natural":"cliff","sport":"climbing"}},"8764693656":{"lat":51.7998313,"lon":10.7084751,"ts":"2021-05-25T12:40:41Z","tz":1,"tags":{"climbing:grade:saxon:max":"VIIc","climbing:grade:saxon:min":"VI","climbing:rock":"limestone","climbing:routes":"4","height":"7","name":"Ruprechtsklippe","natural":"rock","sport":"climbing","surface":"grass","type":"cliff"}}}