{"11897477":{"lat":46.9948647,"lon":10.8066456,"ts":"2020-11-16T06:54:09Z","tz":1,"tags":{"climbing":"crag","climbing:sport":"yes","climbing:toprope":"yes","name":"Klettergarten Kaunergrathütte","sport":"climbing","type":"site"}},"17013048":{"lat":46.9582089,"lon":10.8696855,"ts":"2024-01-11T11:17:13Z","tz":1,"tags":{"climbing":"crag","climbing:ice":"yes","name":"Eisklettergarten Mittelberg / Taschachschlucht","sport":"climbing","type":"site"}},"842430472":{"lat":46.9980575,"lon":10.8215497,"ts":"2020-08-30T16:39:41Z","tz":1,"tags":{"climbing":"route","climbing:bolted":"yes"}},"842430473":{"lat":46.9981277,"lon":10.820917,"ts":"2020-08-30T16:39:41Z","tz":1,"tags":{"climbing":"route","climbing:bolted":"yes"}},"842430474":{"lat":46.9983573,"lon":10.8198712,"ts":"2020-08-30T16:39:41Z","tz":1,"tags":{"climbing":"route","climbing:bolted":"yes"}},"872162367":{"lat":46.994877,"lon":10.8068512,"ts":"2020-11-16T10:23:58Z","tz":1,"tags":{"climbing":"route","climbing:bolted":"3","climbing:grade:uiaa":"4+","climbing:length":"65","climbing:sport":"yes","ref":"14"}},"872162368":{"lat":46.9948729,"lon":10.8067744,"ts":"2020-11-16T10:23:58Z","tz":1,"tags":{"climbing":"route","climbing:bolted":"3","climbing:grade:uiaa":"4-","climbing:length":"65","climbing:sport":"yes","ref":"13"}},"872162369":{"lat":46.9948576,"lon":10.8066779,"ts":"2020-11-16T10:23:58Z","tz":1,"tags":{"climbing":"route","climbing:bolted":"3","climbing:grade:uiaa":"4+","climbing:length":"70","climbing:sport":"yes","ref":"12"}},"872162370":{"lat":46.9947653,"lon":10.8066816,"ts":"2020-11-16T10:23:58Z","tz":1,"tags":{"climbing":"route","climbing:bolted":"3","climbing:grade:uiaa":"4","climbing:length":"15","climbing:sport":"yes","climbing:toprope":"yes","ref":"11"}},"872162371":{"lat":46.9947598,"lon":10.8066474,"ts":"2020-11-16T10:23:58Z","tz":1,"tags":{"climbing":"route","climbing:bolted":"3","climbing:grade:uiaa":"4-","climbing:length":"15","climbing:sport":"yes","climbing:toprope":"yes","ref":"10"}},"872162372":{"lat":46.9947568,"lon":10.8066292,"ts":"2020-11-16T10:23:58Z","tz":1,"tags":{"climbing":"route","climbing:bolted":"3","climbing:grade:uiaa":"4+","climbing:length":"12","climbing:sport":"yes","climbing:toprope":"yes","ref":"9"}},"872162373":{"lat":46.9947551,"lon":10.8066029,"ts":"2020-11-16T10:23:58Z","tz":1,"tags":{"climbing":"route","climbing:bolted":"3","climbing:grade:uiaa":"4+","climbing:length":"10","climbing:sport":"yes","climbing:toprope":"yes","ref":"8"}},"872162374":{"lat":46.9947915,"lon":10.8065612,"ts":"2020-11-16T10:23:58Z","tz":1,"tags":{"climbing":"route","climbing:bolted":"3","climbing:grade:uiaa":"2+","climbing:length":"25","climbing:sport":"yes","climbing:toprope":"yes","ref":"7"}},"872162375":{"lat":46.9947483,"lon":10.806537,"ts":"2020-11-16T10:23:58Z","tz":1,"tags":{"climbing":"route","climbing:bolted":"3","climbing:grade:uiaa":"2","climbing:length":"8","climbing:sport":"yes","climbing:toprope":"yes","ref":"6"}},"872162376":{"lat":46.9947435,"lon":10.8065098,"ts":"2020-11-16T10:23:58Z","tz":1,"tags":{"climbing":"route","climbing:bolted":"3","climbing:grade:uiaa":"2+","climbing:length":"8","climbing:sport":"yes","climbing:toprope":"yes","ref":"5"}},"872162377":{"lat":46.9948431,"lon":10.8064637,"ts":"2020-11-16T10:23:58Z","tz":1,"tags":{"climbing":"route","climbing:bolted":"3","climbing:grade:uiaa":"3+","climbing:length":"65","climbing:sport":"yes","ref":"4"}},"872162378":{"lat":46.9948474,"lon":10.8064008,"ts":"2020-11-16T10:23:58Z","tz":1,"tags":{"climbing":"route","climbing:bolted":"3","climbing:grade:uiaa":"4+","climbing:length":"65","climbing:sport":"yes","ref":"3"}},"872162380":{"lat":46.9949674,"lon":10.8061953,"ts":"2025-03-11T11:17:19Z","tz":1,"tags":{"climbing":"route","climbing:bolted":"3","climbing:grade:uiaa":"2","climbing:length":"45","climbing:sport":"yes","ref":"1"}},"872162381":{"lat":46.9948025,"lon":10.8068881,"ts":"2020-11-16T10:23:58Z","tz":1,"tags":{"climbing":"route","climbing:bolted":"3","climbing:sport":"yes","ref":"15"}},"872162382":{"lat":46.9948747,"lon":10.8069791,"ts":"2020-11-16T10:23:58Z","tz":1,"tags":{"climbing":"route","climbing:bolted":"3","climbing:grade:uiaa:max":"7+","climbing:grade:uiaa:min":"7-","climbing:length":"60","climbing:sport":"yes","climbing:toprope":"yes","ref":"16"}},"872162383":{"lat":46.9948167,"lon":10.807006,"ts":"2020-11-16T10:23:58Z","tz":1,"tags":{"climbing":"route","climbing:bolted":"3","climbing:sport":"yes","climbing:toprope":"yes","ref":"17"}},"872162384":{"lat":46.9948524,"lon":10.8070839,"ts":"2020-11-16T10:23:58Z","tz":1,"tags":{"climbing":"route","climbing:bolted":"3","climbing:sport":"yes","climbing:toprope":"yes","ref":"18"}},"936197695":{"lat":47.0245296,"lon":10.6001103,"ts":"2021-04-28T05:50:32Z","tz":1,"tags":{"access":"yes","climbing:mixed":"yes","climbing:rock":"slate","climbing:routes":"18","landuse":"recreation_ground","name":"Familienklettergarten Rappenwand","opening_hours":"24/7","outdoor":"yes","sport":"climbing","website":"https://www.serfaus-fiss-ladis.at/de/Orte-Region/Von-A-Z/Familien-Klettergarten-Rappenwand_isd_134592"}},"1246884487":{"lat":47.0302174,"lon":10.745833,"ts":"2024-02-06T15:18:12Z","tz":1,"tags":{"access":"private","leisure":"pitch","man_made":"tower","name":"Kletterturm Bergrettung","sport":"climbing","tower:type":"climbing"}},"1704789976":{"lat":46.8921709,"lon":10.7358043,"ts":"2022-07-18T14:55:50Z","tz":1,"tags":{"leisure":"sports_centre","loc_name":"Fernergarten","name":"Klettergarten Fernergries","sport":"climbing"}},"7603682026":{"lat":47.0078407,"lon":10.7080918,"ts":"2020-06-08T20:25:48Z","tz":1,"tags":{"access":"yes","climbing:ice":"no","fee":"no","name":"Renkfälle","opening_hours":"24/7","place":"locality","sport":"climbing"}},"7857628268":{"lat":46.9976829,"lon":10.820609,"ts":"2020-09-15T20:30:27Z","tz":1,"tags":{"climbing":"route_bottom"}},"7859073703":{"lat":46.9984321,"lon":10.8224904,"ts":"2020-09-15T20:30:27Z","tz":1,"tags":{"climbing":"route_top"}},"9352403528":{"lat":46.9688982,"lon":10.7435882,"ts":"2021-12-20T10:52:05Z","tz":1,"tags":{"climbing":"route_bottom","climbing:ice":"yes","name":"Zehn Sterne Eisfall","sport":"climbing"}},"9352403529":{"lat":46.9680563,"lon":10.7435131,"ts":"2021-12-20T10:52:05Z","tz":1,"tags":{"climbing":"route_bottom","climbing:ice":"yes","name":"Verschneidung Eisfall","sport":"climbing"}},"9352403530":{"lat":46.9676353,"lon":10.7434595,"ts":"2021-12-20T10:52:05Z","tz":1,"tags":{"climbing":"route_bottom","climbing:ice":"yes","name":"Der gelbe Fluss Eisfall","sport":"climbing"}},"9905961206":{"lat":46.9377034,"lon":10.8927515,"ts":"2023-11-01T20:19:21Z","tz":1,"tags":{"name":"Gletscherstube, Sektor Wasserfall","sport":"climbing","website":"https://www.climbers-paradise.com/"}},"11508241967":{"lat":46.9573055,"lon":10.8692577,"ts":"2024-01-11T11:17:13Z","tz":1,"tags":{"climbing:ice":"yes","name":"Eisgully","sport":"climbing"}},"11508241968":{"lat":46.9580836,"lon":10.8699122,"ts":"2024-01-11T11:17:13Z","tz":1,"tags":{"climbing:ice":"yes","name":"Dynamitwandl","sport":"climbing"}},"11508309369":{"lat":46.9582941,"lon":10.8700758,"ts":"2024-01-11T11:17:13Z","tz":1,"tags":{"climbing:ice":"yes","name":"Icegate","sport":"climbing"}},"11508309370":{"lat":46.9591124,"lon":10.8701134,"ts":"2024-01-11T11:17:13Z","tz":1,"tags":{"climbing:ice":"yes","name":"Fichtlwandl","sport":"climbing"}},"11588959084":{"lat":47.0313299,"lon":10.7473674,"ts":"2024-02-05T19:17:13Z","tz":1,"tags":{"climbing:boulder":"yes","leisure":"sports_centre","operator":"Quellalpin","sport":"climbing","website":"https://www.quellalpin.at/"}},"11952149685":{"lat":47.0226593,"lon":10.7482174,"ts":"2024-06-02T16:37:43Z","tz":1,"tags":{"name":"Keilschrofen","sport":"climbing"}}}