{"16235633":{"lat":45.92561,"lon":10.7188707,"ts":"2023-08-23T15:54:31Z","tz":1,"tags":{"leisure":"sports_centre","name":"Val Concei","sport":"climbing","type":"site"}},"44030557":{"lat":45.8343751,"lon":10.5512826,"ts":"2016-06-13T07:10:31Z","tz":1,"tags":{"building":"yes","leisure":"sports_centre","name":"Centro polivalente di Darzo Carlo Maffei","sport":"climbing"}},"172383624":{"lat":45.9233389,"lon":10.8911839,"ts":"2020-10-19T17:04:20Z","tz":1,"tags":{"addr:city":"Arco","addr:country":"IT","addr:housenumber":"26/e","addr:postcode":"38062","addr:street":"Via Paolina Caproni Maini","landuse":"recreation_ground","name":"Parco Rockmaster","sport":"climbing"}},"172755401":{"lat":45.9272648,"lon":10.8915777,"ts":"2024-03-12T22:10:45Z","tz":1,"tags":{"building":"shed","club":"sport","sport":"climbing"}},"272274746":{"lat":45.9373405,"lon":10.8940111,"ts":"2025-01-31T16:18:02Z","tz":1,"tags":{"name":"San Paolo","sport":"climbing"}},"301205738":{"lat":45.8491894,"lon":10.8639515,"ts":"2023-07-19T08:07:26Z","tz":1,"tags":{"climbing:bolted":"yes","climbing:multipitch":"yes","climbing:orientation":"W","climbing:quality":"solid","climbing:sport":"yes","fee":"no","name":"Parete Corno di Bo","natural":"bare_rock","outdoor":"yes","sport":"climbing","tourism":"attraction"}},"340445470":{"lat":45.9265916,"lon":10.8841931,"ts":"2021-08-05T07:58:58Z","tz":1,"tags":{"climbing:bolted":"yes","name":"Falesia del Calvario","natural":"cliff","sport":"climbing"}},"340445472":{"lat":45.9313958,"lon":10.8787563,"ts":"2024-03-29T20:15:27Z","tz":1,"tags":{"name":"L'Orto","natural":"cliff","sport":"climbing"}},"353588924":{"lat":45.9756312,"lon":10.5493475,"ts":"2015-06-14T08:30:51Z","tz":1,"tags":{"leisure":"pitch","name":"Ice Stadium","sport":"climbing","website":"www.daoneicemaster.it"}},"496490065":{"lat":45.931549,"lon":10.8603779,"ts":"2022-10-16T19:51:06Z","tz":1,"tags":{"name":"Falesia Le Piazzole","natural":"cliff","sport":"climbing"}},"498294821":{"lat":45.8622833,"lon":10.6442422,"ts":"2020-09-26T00:50:49Z","tz":1,"tags":{"name":"Falesia Finale Ampola","natural":"cliff","sport":"climbing"}},"498495771":{"lat":45.8588111,"lon":10.6366096,"ts":"2020-09-25T21:47:22Z","tz":1,"tags":{"name":"Falesia FuturAmpola","natural":"cliff","sport":"climbing"}},"509418996":{"lat":45.8486355,"lon":10.8641338,"ts":"2024-12-02T18:54:38Z","tz":1,"tags":{"natural":"cliff","sport":"climbing"}},"638978639":{"lat":45.9233562,"lon":10.8906998,"ts":"2020-10-19T17:00:09Z","tz":1,"tags":{"building":"roof","climbing":"wall","climbing:bolted":"yes","climbing:speed":"yes","climbing:sport":"yes","climbing:toprope":"no","fee":"yes","leisure":"sports_centre","name":"Climbing Stadium Arco Rock","operator":"Mountime Arco Mountain Guide","outdoor":"roofed","sport":"climbing","website":"https://www.mountime.com/en/climbing-stadium-arco-rock-master.html"}},"711865889":{"lat":45.8379889,"lon":10.5691253,"ts":"2023-05-18T16:22:20Z","tz":1,"tags":{"leisure":"sports_centre","name":"Corna dal Vescov","sport":"climbing","website":"http://www.caisatstoro.it/index.php/strumenti/palestra-corna-del-vescov"}},"865160885":{"lat":45.8805674,"lon":10.8869872,"ts":"2025-03-25T21:13:23Z","tz":1,"tags":{"climbing:bolted":"1m","climbing:grade:french:max":"6a","climbing:grade:french:min":"3b","climbing:length":"20","climbing:orientation":"S","climbing:rock":"limestone","climbing:sport":"yes","name":"Falesia Belvedere Sector A","sport":"climbing"}},"865161982":{"lat":45.8807838,"lon":10.8879426,"ts":"2025-03-25T21:13:22Z","tz":1,"tags":{"climbing:bolted":"1m","climbing:grade:french:max":"7c","climbing:grade:french:min":"3b","climbing:length":"20","climbing:orientation":"S","climbing:quality":"solid","climbing:rock":"limestone","climbing:sport":"yes","name":"Falesia Belvedere Sector B","sport":"climbing"}},"944269702":{"lat":46.0461756,"lon":10.7504552,"ts":"2019-12-22T19:09:49Z","tz":1,"tags":{"name":"Falesia Croz de la niere","sport":"climbing"}},"944296572":{"lat":45.8679902,"lon":10.8972702,"ts":"2025-03-25T21:30:11Z","tz":1,"tags":{"name":"Falesia di Traole","sport":"climbing"}},"959231770":{"lat":45.8465357,"lon":10.8631198,"ts":"2010-10-21T10:17:29Z","tz":1,"tags":{"sport":"climbing"}},"959468944":{"lat":45.8451073,"lon":10.8636834,"ts":"2010-10-21T14:42:23Z","tz":1,"tags":{"sport":"climbing"}},"959468950":{"lat":45.8450436,"lon":10.862936,"ts":"2010-10-21T14:42:23Z","tz":1,"tags":{"sport":"climbing"}},"975586846":{"lat":46.0314142,"lon":10.7213896,"ts":"2023-09-07T20:03:09Z","tz":1,"tags":{"climbing:grade:french:max":"7a","climbing:grade:french:min":"5a","climbing:rock":"limestone","climbing:routes":"23","climbing:sport":"yes","name":"Falesia di Brevine","natural":"cliff","sport":"climbing","url":"https://www.thecrag.com/de/klettern/italy/northern-italy/arco-trento-area/area/3220447521"}},"1174005531":{"lat":45.9262923,"lon":10.7172857,"ts":"2023-06-07T15:11:07Z","tz":1,"tags":{"building":"no","leisure":"sports_centre","name":"Pizzocol","sport":"climbing"}},"1174005532":{"lat":45.9249721,"lon":10.7200735,"ts":"2023-06-07T15:11:07Z","tz":1,"tags":{"building":"no","leisure":"sports_centre","name":"Al Coel","sport":"climbing"}},"1174006704":{"lat":45.862352,"lon":10.645373,"ts":"2023-12-04T13:40:46Z","tz":1,"tags":{"building":"no","leisure":"sports_centre","name":"Finale Ampola","sport":"climbing"}},"1174007261":{"lat":45.8584729,"lon":10.63657,"ts":"2023-06-08T12:30:00Z","tz":1,"tags":{"leisure":"sports_centre","name":"Futur Ampola","sport":"climbing"}},"1174008006":{"lat":45.8380941,"lon":10.5693678,"ts":"2023-05-18T16:22:20Z","tz":1,"tags":{"building":"yes","leisure":"sports_centre","name":"Corna dal Vescof","sport":"climbing"}},"1177594092":{"lat":45.8613734,"lon":10.8903492,"ts":"2023-12-27T13:45:03Z","tz":1,"tags":{"name":"Parete Dos Casina - Catullo Detassis","sport":"climbing"}},"1308481759":{"lat":45.9446206,"lon":10.81969,"ts":"2024-08-17T17:41:06Z","tz":1,"tags":{"climbing:rock":"limestone","name":"Falesia di Tenno","natural":"cliff","sport":"climbing"}},"1355694338":{"lat":45.9374226,"lon":10.8943259,"ts":"2025-01-31T16:18:02Z","tz":1,"tags":{"natural":"cliff","sport":"climbing"}},"1493354852":{"lat":45.9724586,"lon":10.865473,"ts":"2021-04-12T16:13:57Z","tz":1,"tags":{"name":"Parco dell'Arrampicata Val Lomasone - Settore Roccia dei Folletti","sport":"climbing"}},"1524662825":{"lat":45.9377259,"lon":10.8942248,"ts":"2011-11-30T14:54:38Z","tz":1,"tags":{"name":"Via Calliope","sport":"climbing"}},"1576759993":{"lat":46.0578921,"lon":10.8548235,"ts":"2012-01-04T13:36:10Z","tz":1,"tags":{"sport":"climbing"}},"1760865591":{"lat":45.9729669,"lon":10.8652789,"ts":"2021-04-12T16:13:57Z","tz":1,"tags":{"climbing:bolted":"1m","climbing:orientation":"W","climbing:quality":"solid","climbing:rock":"limestone","climbing:sport":"yes","name":"Val Lomasone","sport":"climbing"}},"1992721143":{"lat":45.8695909,"lon":10.8947226,"ts":"2022-07-10T14:06:10Z","tz":1,"tags":{"leisure":"sports_centre","name":"Segrom - Settore Basso","sport":"climbing"}},"2823294379":{"lat":45.863738,"lon":10.8290251,"ts":"2022-01-16T10:43:01Z","tz":1,"tags":{"name":"Settore D, Piccolo Budda","sport":"climbing"}},"2823299116":{"lat":45.8641749,"lon":10.8272262,"ts":"2022-01-16T10:39:46Z","tz":1,"tags":{"description":"This is shown as 'Spirito Libero' in Osmand which is misleading. 'Spirito Libero' is only one Route in 'Settore C'","name":"Settore C","sport":"climbing"}},"2823299117":{"lat":45.8649316,"lon":10.8276422,"ts":"2016-06-13T07:10:49Z","tz":1,"tags":{"name":"Settore A","sport":"climbing"}},"2823309736":{"lat":45.8643023,"lon":10.8268721,"ts":"2016-06-13T07:10:49Z","tz":1,"tags":{"name":"Settore B","sport":"climbing"}},"2823428717":{"lat":45.8771238,"lon":10.8383197,"ts":"2021-08-07T06:56:50Z","tz":1,"tags":{"name":"La Ponta","sport":"climbing"}},"2945855811":{"lat":45.8610248,"lon":10.5789403,"ts":"2014-07-03T12:33:46Z","tz":1,"tags":{"sport":"climbing"}},"3469987860":{"lat":45.8635073,"lon":10.8264217,"ts":"2016-05-15T09:26:17Z","tz":1,"tags":{"sport":"climbing"}},"3469987880":{"lat":45.8639915,"lon":10.8256318,"ts":"2018-11-11T17:37:08Z","tz":1,"tags":{"climbing":"route_bottom","climbing:grade:french":"6a","climbing:multipitch":"6","name":"Caino e Abele"}},"3810570576":{"lat":45.9259193,"lon":10.7187694,"ts":"2023-05-18T16:01:16Z","tz":1,"tags":{"leisure":"sports_centre","name":"ex centrale","sport":"climbing"}},"3810570582":{"lat":45.8622226,"lon":10.6442281,"ts":"2015-10-30T22:49:22Z","tz":1,"tags":{"sport":"climbing"}},"4171979696":{"lat":45.9273102,"lon":10.8913022,"ts":"2024-03-09T04:14:02Z","tz":1,"tags":{"check_date":"2021-10-06","climbing":"yes","description":"Climbing map","information":"map","map_size":"site","map_type":"topo","name":"Massi Di Prabi","tourism":"information"}},"4171979697":{"lat":45.9274366,"lon":10.8902742,"ts":"2025-03-04T18:38:12Z","tz":1,"tags":{"access":"yes","climbing":"crag","climbing:bolted":"1 m","climbing:boulder":"yes","climbing:grade:french:max":"7c","climbing:grade:french:min":"4a","climbing:length":"12","climbing:rock":"limestone","climbing:sport":"yes","climbing:toprope":"yes","name":"Massi Di Prabi","sport":"climbing"}},"4171994112":{"lat":45.9282128,"lon":10.8904343,"ts":"2025-03-04T18:38:12Z","tz":1,"tags":{"access":"yes","climbing":"crag","climbing:bolted":"1 m","climbing:boulder":"yes","climbing:grade:french:max":"7c","climbing:grade:french:min":"4a","climbing:length":"12","climbing:rock":"limestone","climbing:sport":"yes","climbing:toprope":"yes","name":"Block A","sport":"climbing"}},"4171994113":{"lat":45.927693,"lon":10.8902526,"ts":"2025-03-04T18:38:12Z","tz":1,"tags":{"access":"yes","climbing":"crag","climbing:bolted":"1 m","climbing:boulder":"yes","climbing:grade:french:max":"7c","climbing:grade:french:min":"4a","climbing:length":"12","climbing:rock":"limestone","climbing:sport":"yes","climbing:toprope":"yes","name":"Block D;Block 2","sport":"climbing"}},"4175487127":{"lat":45.9276434,"lon":10.8908963,"ts":"2025-03-04T18:38:12Z","tz":1,"tags":{"access":"yes","climbing":"crag","climbing:boulder":"yes","climbing:rock":"limestone","climbing:sport":"yes","climbing:toprope":"yes","name":"Block 1","sport":"climbing"}},"4175487128":{"lat":45.9260277,"lon":10.8890455,"ts":"2025-03-04T18:38:12Z","tz":1,"tags":{"access":"yes","climbing":"crag","climbing:boulder":"yes","climbing:rock":"limestone","climbing:sport":"yes","climbing:toprope":"yes","name":"Block 11 - Passi falsi","sport":"climbing"}},"4175487129":{"lat":45.9282702,"lon":10.8891958,"ts":"2025-03-04T18:38:12Z","tz":1,"tags":{"access":"yes","climbing":"crag","climbing:boulder":"yes","climbing:rock":"limestone","climbing:sport":"yes","climbing:toprope":"yes","name":"Settore B","sport":"climbing"}},"4176959165":{"lat":45.8689985,"lon":10.8956205,"ts":"2022-07-10T14:06:10Z","tz":1,"tags":{"leisure":"sports_centre","name":"Segrom - Settore Centrale","sport":"climbing"}},"4187008997":{"lat":45.8634544,"lon":10.8267378,"ts":"2025-03-28T06:03:45Z","tz":1,"tags":{"name":"Babilonia","sport":"climbing"}},"4187008998":{"lat":45.8634693,"lon":10.8275009,"ts":"2025-03-28T06:03:45Z","tz":1,"tags":{"name":"Fiori di Primavera","sport":"climbing"}},"4187009046":{"lat":45.8633956,"lon":10.8269672,"ts":"2025-03-28T06:03:45Z","tz":1,"tags":{"name":"Sesto Senso","sport":"climbing","website":"http://www.gardaclimbing.it/settore/multipich-regina-del-lago/"}},"4189049310":{"lat":45.9370174,"lon":10.8935154,"ts":"2025-01-31T16:18:02Z","tz":1,"tags":{"name":"Via Caldo Inverno","sport":"climbing"}},"4294210350":{"lat":46.0277741,"lon":10.7607701,"ts":"2016-07-10T08:53:26Z","tz":1,"tags":{"name":"La Larga di Saone","sport":"climbing"}},"5140946526":{"lat":45.9300438,"lon":10.887371,"ts":"2023-01-11T23:20:19Z","tz":1,"tags":{"climbing:bolted":"yes","climbing:grade:french:max":"6a","climbing:grade:french:mean":"5b","climbing:grade:french:min":"4c","climbing:length":"9","climbing:length:max":"10","climbing:length:min":"8","climbing:orientation":"W","climbing:sport":"yes","leisure":"sports_centre","name":"Muro dell'Asino","outdoor":"yes","sport":"climbing","website":"https://maps.gardatrentino.it/de/tour/alpinklettern/muro-dell-asino-klettergarten--45-routen-von-4a-bis-6b-/7922669/","wikidata":"Q82992190"}},"5374871948":{"lat":46.0593346,"lon":10.8086575,"ts":"2021-03-02T08:01:02Z","tz":1,"tags":{"leisure":"sports_centre","name":"Falesia Coltura","sport":"climbing"}},"5590944670":{"lat":45.837863,"lon":10.5669863,"ts":"2018-05-01T19:29:38Z","tz":1,"tags":{"sport":"climbing"}},"5761846753":{"lat":45.8691666,"lon":10.8944809,"ts":"2022-07-10T14:06:10Z","tz":1,"tags":{"leisure":"sports_centre","name":"Massi delle Traole - Settore A-G","sport":"climbing","wheelchair":"no"}},"6053027504":{"lat":45.8640267,"lon":10.825747,"ts":"2018-11-11T17:37:08Z","tz":1,"tags":{"climbing":"route_bottom","climbing:grade:french":"5c","climbing:multipitch":"6","name":"Caino e Abele"}},"6467549651":{"lat":45.9269117,"lon":10.888745,"ts":"2025-03-04T18:38:12Z","tz":1,"tags":{"climbing":"crag","name":"Gaia","sport":"climbing"}},"6467555251":{"lat":45.9266038,"lon":10.888643,"ts":"2025-03-04T18:38:12Z","tz":1,"tags":{"climbing":"crag","name":"Aspettando Martino","sport":"climbing"}},"7035170140":{"lat":46.0579693,"lon":10.8549014,"ts":"2021-10-21T13:33:53Z","tz":1,"tags":{"leisure":"sports_centre","sport":"climbing"}},"7613218757":{"lat":45.8865197,"lon":10.6032,"ts":"2020-06-11T18:41:16Z","tz":1,"tags":{"climbing:rock":"limestone","sport":"climbing"}},"8151386648":{"lat":45.8669025,"lon":10.8945739,"ts":"2025-03-25T21:32:23Z","tz":1,"tags":{"name":"Massi delle Traole Settore H - Star Wars","sport":"climbing"}},"8897185202":{"lat":45.9261199,"lon":10.7174461,"ts":"2021-07-06T16:31:15Z","tz":1,"tags":{"leisure":"sports_centre","name":"Pizzocol","sport":"climbing"}},"9140322101":{"lat":45.8631272,"lon":10.8293656,"ts":"2025-03-28T06:03:45Z","tz":1,"tags":{"name":"Bella e cattiva","sport":"climbing"}},"9231737403":{"lat":45.9392061,"lon":10.8958267,"ts":"2021-11-07T08:04:41Z","tz":1,"tags":{"name":"Freiheit die ich meine","sport":"climbing"}},"9231773768":{"lat":45.9386465,"lon":10.8952387,"ts":"2021-11-07T08:07:31Z","tz":1,"tags":{"name":"7 Muri","sport":"climbing"}},"9231790101":{"lat":45.9393696,"lon":10.8959368,"ts":"2021-11-07T08:03:30Z","tz":1,"tags":{"name":"Selene","sport":"climbing"}},"9231827020":{"lat":45.9396379,"lon":10.8962171,"ts":"2021-11-07T08:02:16Z","tz":1,"tags":{"name":"I Moschetteri","sport":"climbing"}},"9231839145":{"lat":45.9397813,"lon":10.8964683,"ts":"2021-11-07T08:01:03Z","tz":1,"tags":{"name":"Weg durch das Gesicht","sport":"climbing"}},"9231840020":{"lat":45.9382935,"lon":10.8947746,"ts":"2021-11-07T08:09:18Z","tz":1,"tags":{"name":"Orfeo","sport":"climbing"}},"9231848896":{"lat":45.9388911,"lon":10.8954943,"ts":"2021-11-07T08:06:01Z","tz":1,"tags":{"name":"Via Roberto","sport":"climbing"}},"9627302145":{"lat":45.9539276,"lon":10.8926493,"ts":"2025-03-30T15:27:45Z","tz":1,"tags":{"name":"Via Anche le donne vogliono arrampicare","sport":"climbing"}},"9627333772":{"lat":45.953967,"lon":10.8926846,"ts":"2022-03-31T19:14:10Z","tz":1,"tags":{"leisure":"sports_centre","name":"Via Il luogo degli esseri brutti","sport":"climbing"}},"9627363458":{"lat":45.9538734,"lon":10.8926212,"ts":"2022-03-31T19:11:56Z","tz":1,"tags":{"leisure":"sports_centre","name":"Via Diedro Baldessarini","sport":"climbing"}},"9798618472":{"lat":45.86538,"lon":10.820485,"ts":"2022-06-06T12:34:22Z","tz":1,"tags":{"leisure":"sports_centre","name":"Falesia Regina del Lago","sport":"climbing"}},"9798707997":{"lat":45.8640793,"lon":10.8273829,"ts":"2025-03-28T06:03:45Z","tz":1,"tags":{"name":"Palestra Regina del Lago","sport":"climbing"}},"9798717408":{"lat":45.865177,"lon":10.8271435,"ts":"2025-03-28T21:16:26Z","tz":1,"tags":{"name":"Regina del Lago- settore A","sport":"climbing"}},"9798755346":{"lat":45.8643147,"lon":10.8268814,"ts":"2025-03-28T06:03:45Z","tz":1,"tags":{"name":"Regina del Lago- settore B","sport":"climbing"}},"9798755347":{"lat":45.8641895,"lon":10.8272341,"ts":"2025-03-28T06:03:45Z","tz":1,"tags":{"name":"Regina del Lago - settore C","sport":"climbing"}},"9798755348":{"lat":45.8637718,"lon":10.8290249,"ts":"2025-03-28T06:03:45Z","tz":1,"tags":{"name":"Regina del Lago- settore D Piccolo Budda","sport":"climbing"}},"9811232419":{"lat":45.9245328,"lon":10.8718396,"ts":"2025-03-18T12:43:15Z","tz":1,"tags":{"fee":"no","leisure":"sports_centre","name":"Falesia Placche di Baone","sport":"climbing","wikidata":"Q82992189"}},"9952851159":{"lat":45.8705094,"lon":10.8932368,"ts":"2022-08-14T14:47:35Z","tz":1,"tags":{"leisure":"sports_centre","name":"Falesia di Nago","sport":"climbing"}},"10115995774":{"lat":45.9367791,"lon":10.8933874,"ts":"2022-10-20T08:26:51Z","tz":1,"tags":{"name":"La Cengia Rossa","sport":"climbing"}},"10310735812":{"lat":45.8788847,"lon":10.8843189,"ts":"2023-01-06T11:46:53Z","tz":1,"tags":{"name":"Marmite dei Giganti","sport":"climbing"}},"11202410574":{"lat":45.9279152,"lon":10.8892711,"ts":"2025-03-04T18:38:12Z","tz":1,"tags":{"access":"yes","climbing":"crag","climbing:boulder":"yes","climbing:rock":"limestone","climbing:sport":"yes","climbing:toprope":"yes","name":"Settore i","operator":"https://www.youtube.com/watch?v=_7Q4FioRfec","sport":"climbing"}},"11202410575":{"lat":45.9274829,"lon":10.8899723,"ts":"2025-03-04T18:38:12Z","tz":1,"tags":{"access":"yes","climbing":"crag","climbing:boulder":"yes","climbing:rock":"limestone","climbing:sport":"yes","climbing:toprope":"yes","name":"Settore M","sport":"climbing"}},"11202410576":{"lat":45.9274777,"lon":10.8894657,"ts":"2025-03-04T18:38:12Z","tz":1,"tags":{"access":"yes","climbing":"crag","climbing:boulder":"yes","climbing:rock":"limestone","climbing:sport":"yes","climbing:toprope":"yes","name":"Settore N","sport":"climbing"}},"11276088258":{"lat":45.9180304,"lon":10.8786049,"ts":"2024-04-09T18:12:28Z","tz":1,"tags":{"access":"members","climbing:boulder":"yes","climbing:sport":"yes","indoor":"only","leisure":"sports_centre","name":"arco climbing","opening_hours":"Tu-Th 18:30-22:30; Sa 14:00-19:00; Su 10:00-19:00","price":"10 â‚¬","shower":"yes","sport":"climbing","website":"https://www.arcoclimbing.com/"}},"11307731634":{"lat":46.046103,"lon":10.7510751,"ts":"2023-11-02T15:13:30Z","tz":1,"tags":{"leisure":"sports_centre","sport":"climbing"}},"12415287770":{"lat":45.9395807,"lon":10.8930447,"ts":"2024-12-12T08:51:17Z","tz":1,"tags":{"climbing":"route_bottom","name":"Tredicesima Luna","sport":"climbing"}}}