{"27585642":{"lat":51.1951674,"lon":14.846168,"ts":"2023-06-06T13:53:01Z","tz":1,"tags":{"name":"Paradies-Westwand","natural":"cliff","sport":"climbing"}},"249447142":{"lat":51.1942971,"lon":14.8466733,"ts":"2023-06-06T08:08:58Z","tz":1,"tags":{"name":"Kolosseum","natural":"cliff","sport":"climbing"}},"249447143":{"lat":51.1959096,"lon":14.8457883,"ts":"2023-06-06T08:08:58Z","tz":1,"tags":{"name":"Paradies-Hauptwand","natural":"cliff","sport":"climbing"}},"302695889":{"lat":51.1985081,"lon":14.846898,"ts":"2023-04-26T13:10:43Z","tz":1,"tags":{"description":"Naturdenkmal: > Für Kletterer, keine neuen Bohrhaken und Routen erlaubt. Freistehender Fels mit Treppe als Aufstieg und Gedenktafel","ele":"373","name":"Totenstein","name:hsb":"Smjertny kamjeń","natural":"peak","sport":"climbing"}},"302699728":{"lat":51.1976829,"lon":14.8465191,"ts":"2023-04-26T13:10:43Z","tz":1,"tags":{"name":"Däumling","natural":"rock","sport":"climbing"}},"302699762":{"lat":51.197054,"lon":14.8463122,"ts":"2024-08-01T13:29:58Z","tz":1,"tags":{"name":"Kaffeekrug Hamannwand","natural":"rock","sport":"climbing","tourism":"attraction","wheelchair":"no","wikimedia_commons":"File:KHB-Kaffekrug 20220605 152903.jpg"}},"302916849":{"lat":51.1946638,"lon":14.8354956,"ts":"2024-10-22T20:03:45Z","tz":1,"tags":{"ele":"396","name":"Hochstein","name:hsb":"Wysočiny","natural":"peak","sport":"climbing","wikidata":"Q1622344","wikipedia":"de:Hochstein (Königshainer Berge)"}},"302932208":{"lat":51.1983632,"lon":14.8345975,"ts":"2023-07-28T08:25:45Z","tz":1,"tags":{"ele":"360","historic":"archaeological_site","image":"https://commons.wikimedia.org/wiki/File:Kuckuckstein_21.12.2007_13.15_Uhr.jpg","name":"Kuckucksstein;Kuckuckstein","name:hsb":"Kokulowy kamjeń","natural":"rock","sport":"climbing","wikipedia":"de:Kuckuckstein"}},"303370475":{"lat":51.1966513,"lon":14.8324762,"ts":"2023-07-18T10:07:41Z","tz":1,"tags":{"ele":"370","name":"Großer und Kleiner Teufelsstein","name:hsb":"Čertowy kamjeń","natural":"rock","sport":"climbing"}}}