{"18165265":{"lat":47.5935607,"lon":15.1139556,"ts":"2024-10-15T12:12:29Z","tz":1,"tags":{"climbing":"crag","name":"Hundswand","site":"climbing","sport":"climbing","type":"site"}},"18165266":{"lat":47.5894305,"lon":15.0982403,"ts":"2024-10-15T12:12:29Z","tz":1,"tags":{"climbing":"crag","name":"Dornröschen","site":"climbing","sport":"climbing","type":"site"}},"18165267":{"lat":47.589044,"lon":15.096901,"ts":"2024-10-15T12:12:29Z","tz":1,"tags":{"climbing":"crag","name":"Mata Hari","site":"climbing","sport":"climbing","type":"site"}},"18165268":{"lat":47.5888632,"lon":15.0957466,"ts":"2024-10-15T12:12:29Z","tz":1,"tags":{"climbing":"crag","name":"Verlorene Welt","site":"climbing","sport":"climbing","type":"site"}},"18165585":{"lat":47.6059441,"lon":15.116849,"ts":"2024-10-15T14:08:47Z","tz":1,"tags":{"climbing":"crag","name":"Stangenwand","site":"climbing","sport":"climbing","type":"site"}},"18165705":{"lat":47.6015082,"lon":15.1134515,"ts":"2024-10-15T14:46:56Z","tz":1,"tags":{"climbing":"crag","name":"Beilstein Ostkante","site":"climbing","sport":"climbing","type":"site"}},"18166773":{"lat":47.5891122,"lon":15.0972092,"ts":"2024-10-15T20:14:39Z","tz":1,"tags":{"climbing":"crag","name":"Zinkenbasis","site":"climbing","sport":"climbing","type":"site"}},"18166774":{"lat":47.5960119,"lon":15.0967576,"ts":"2024-10-15T20:14:39Z","tz":1,"tags":{"climbing":"crag","name":"Zinken","site":"climbing","sport":"climbing","type":"site"}},"18199697":{"lat":47.5426492,"lon":14.9772673,"ts":"2024-10-23T09:08:09Z","tz":1,"tags":{"climbing":"crag","name":"Vordernberger Griesmauer","site":"climbing","sport":"climbing","type":"site"}},"18232561":{"lat":47.5487373,"lon":15.0426111,"ts":"2024-10-31T08:51:30Z","tz":1,"tags":{"climbing":"crag","name":"Fenstergucker Baseclimbs","site":"climbing","sport":"climbing","type":"site"}},"18232562":{"lat":47.6225437,"lon":15.0685236,"ts":"2024-10-31T08:53:24Z","tz":1,"tags":{"climbing":"crag","name":"Turm","site":"climbing","sport":"climbing","type":"site"}},"18232681":{"lat":47.5774851,"lon":14.848629,"ts":"2024-10-31T09:34:52Z","tz":1,"tags":{"climbing":"crag","name":"Klettergarten Seeblick","site":"climbing","sport":"climbing","type":"site"}},"18232682":{"lat":47.5781827,"lon":14.8503462,"ts":"2024-10-31T09:34:52Z","tz":1,"tags":{"climbing":"crag","name":"Franz-Joseph-Klettersteig","site":"climbing","sport":"climbing","type":"site"}},"18232707":{"lat":47.5333534,"lon":15.0073598,"ts":"2024-10-31T09:45:27Z","tz":1,"tags":{"climbing":"crag","name":"Hochturm","site":"climbing","sport":"climbing","type":"site"}},"18232708":{"lat":47.5522253,"lon":15.0370128,"ts":"2024-10-31T09:45:27Z","tz":1,"tags":{"climbing":"crag","name":"Klettergarten Stockerwand","site":"climbing","sport":"climbing","type":"site"}},"18232714":{"lat":47.5597532,"lon":14.9094569,"ts":"2024-10-31T09:47:22Z","tz":1,"tags":{"climbing":"crag","name":"Pfaffenstein","site":"climbing","sport":"climbing","type":"site"}},"18243413":{"lat":47.6315607,"lon":15.0740931,"ts":"2024-11-02T21:48:15Z","tz":1,"tags":{"climbing":"crag","name":"Nördlicher Hochschwab","site":"climbing","sport":"climbing","type":"site"}},"18916862":{"lat":47.5338371,"lon":14.8244942,"ts":"2025-03-30T22:23:11Z","tz":1,"tags":{"climbing":"crag","name":"Kaiserschild-Klettersteig","site":"climbing","sport":"climbing","type":"site"}},"128750312":{"lat":47.5586816,"lon":14.9075337,"ts":"2024-07-30T15:05:07Z","tz":1,"tags":{"climbing":"route","climbing:grade:uiaa":"5","climbing:pitches":"12","climbing:rock":"limestone","name":"Pfaffenstein SW-Kante","source":"geoimage.at, survey","sport":"climbing"}},"128750491":{"lat":47.5578755,"lon":14.9065718,"ts":"2012-03-13T18:07:50Z","tz":1,"tags":{"climbing":"route","climbing:pitches":"5","fixme":"geschätzt - habe nur den Aussteig gefunden","name":"Direkter SW-Kantensockel","source":"geoimage.at, survey"}},"293895051":{"lat":47.6016659,"lon":15.0143273,"ts":"2024-10-18T11:05:39Z","tz":1,"tags":{"climbing":"route","highway":"path","lit":"no","sac_scale":"demanding_alpine_hiking","sport":"climbing","surface":"ground","trail_visibility":"bad"}},"436200968":{"lat":47.5891122,"lon":15.0972092,"ts":"2024-10-15T20:14:39Z","tz":1,"tags":{"natural":"cliff","sport":"climbing"}},"498107486":{"lat":47.5848891,"lon":14.8179281,"ts":"2022-12-24T14:40:54Z","tz":1,"tags":{"climbing":"crag","climbing:grade:uiaa:max":"8+","climbing:grade:uiaa:min":"6","climbing:sport":"13","name":"Klettergarten Jassingau","natural":"cliff","sport":"climbing"}},"598907099":{"lat":47.6225437,"lon":15.0685236,"ts":"2024-10-31T08:53:24Z","tz":1,"tags":{"climbing":"route","climbing:grade:uiaa":"3+","name":"Turm-Normalweg","sport":"climbing","website":"https://www.bergsteigen.com/klettern/steiermark/hochschwab-gruppe/turm"}},"598907101":{"lat":47.6273379,"lon":15.0663234,"ts":"2023-05-23T14:50:10Z","tz":1,"tags":{"abandoned:highway":"path","climbing":"route","climbing:grade:uiaa":"3","description:de":"Uralter Jägersteig, Sicherungen bis auf eine Eisenleiter und einige Stifte verfallen.","sac_scale":"demanding_alpine_hiking","trail_visibility":"horrible"}},"625728809":{"lat":47.7192423,"lon":14.920308,"ts":"2022-02-11T16:32:21Z","tz":1,"tags":{"access":"private","leisure":"playground","name":"Hochseilgarten","sport":"climbing"}},"1082108793":{"lat":47.659793,"lon":14.9849154,"ts":"2022-07-28T14:45:34Z","tz":1,"tags":{"alt_name":"Mühler Mauer","climbing":"crag","climbing:rock":"limestone","climbing:sport":"yes","name":"Klettergarten ÖBRD Wildalpen","natural":"cliff"}},"1082125205":{"lat":47.5774851,"lon":14.848629,"ts":"2022-07-28T15:49:35Z","tz":1,"tags":{"alt_name":"Klettergarten Seeblick","climbing":"crag","climbing:rock":"limestone","climbing:sport":"yes","name":"Klettergarten Seemauer","natural":"cliff","url":"https://www.thecrag.com/349840260"}},"1082125206":{"lat":47.714591,"lon":14.9129391,"ts":"2022-07-28T15:49:35Z","tz":1,"tags":{"climbing":"crag","climbing:rock":"limestone","climbing:sport":"yes","name":"Klettergarten Hochkar","natural":"cliff","url":"https://www.thecrag.com/6355484364"}},"1270231888":{"lat":47.5475842,"lon":15.0437378,"ts":"2024-10-31T08:51:30Z","tz":1,"tags":{"climbing":"route","climbing:grade:uiaa":"4+","name":"Fenstergucker","sport":"climbing","website":"https://www.bergsteigen.com/touren/klettern/fenstergucker/"}},"1285959022":{"lat":47.549069,"lon":15.0564804,"ts":"2024-05-23T13:44:17Z","tz":1,"tags":{"climbing":"route","climbing:grade:uiaa":"2","name":"Weg Prodinger"}},"1305942442":{"lat":47.6056222,"lon":15.0316313,"ts":"2024-10-18T11:04:41Z","tz":1,"tags":{"climbing":"route","grades":"I-II","highway":"path","lit":"no","sac_scale":"demanding_alpine_hiking","sport":"climbing","trail_visibility":"no"}},"1307134950":{"lat":47.597605,"lon":15.0987841,"ts":"2024-08-11T21:58:12Z","tz":1,"tags":{"climbing":"route","climbing:grade:uiaa":"II+","name":"Dippelkar"}},"1344393667":{"lat":47.5591948,"lon":15.0734232,"ts":"2024-12-20T18:56:15Z","tz":1,"tags":{"climbing":"route","climbing:grade:uiaa":"3","climbing:trad":"yes","name":"Normalweg Felsenfenster","website":"https://www.bergsteigen.com/touren/klettern/felsenfenster-normalweg-messnerin/"}},"1421921142":{"lat":47.5580925,"lon":14.9067002,"ts":"2012-03-13T18:08:42Z","tz":1,"tags":{"climbing":"route_bottom","climbing:bolted":"yes","name":"Einstieg SW-Kante","sport":"climbing"}},"3772163039":{"lat":47.5522253,"lon":15.0370128,"ts":"2024-04-05T21:43:20Z","tz":1,"tags":{"climbing":"crag","climbing:grade:uiaa:max":"9","climbing:grade:uiaa:min":"6","climbing:sport":"19","name":"Klettergarten Stockerwand","sport":"climbing"}},"4296308785":{"lat":47.6222083,"lon":15.0688166,"ts":"2018-09-10T20:56:35Z","tz":1,"tags":{"climbing":"route_bottom"}},"5699475689":{"lat":47.6228791,"lon":15.0679824,"ts":"2024-12-20T15:38:41Z","tz":1,"tags":{"climbing":"route_top","ele":"1661","name":"Turm","natural":"peak","summit:cross":"yes","summit:register":"yes"}},"6181473958":{"lat":47.5394395,"lon":14.9733589,"ts":"2019-01-03T17:15:06Z","tz":1,"tags":{"climbing":"route_bottom","climbing:bolted":"mixed","climbing:multipitch":"yes","name":"Fledermausgrat","natural":"rock","sport":"climbing"}},"11794165669":{"lat":47.5476325,"lon":15.04297,"ts":"2024-04-05T21:43:20Z","tz":1,"tags":{"climbing":"crag","climbing:grade:uiaa:max":"7+","climbing:grade:uiaa:min":"6+","climbing:sport":"6","name":"Fenstergucker Baseclimbs","sport":"climbing"}},"11794165783":{"lat":47.547514,"lon":15.0441543,"ts":"2024-04-05T21:43:20Z","tz":1,"tags":{"climbing":"route_top"}},"11794165793":{"lat":47.5474513,"lon":15.0433213,"ts":"2024-10-31T08:51:30Z","tz":1,"tags":{"climbing":"route_bottom","sport":"climbing"}},"12105231931":{"lat":47.589044,"lon":15.096901,"ts":"2024-08-11T21:58:12Z","tz":1,"tags":{"climbing":"crag","climbing:grade:uiaa:max":"8-","climbing:grade:uiaa:min":"7-","climbing:sport":"7","name":"Mata Hari","website":"https://www.thecrag.com/de/klettern/austria/hochschwab/area/3801875409"}},"12105231932":{"lat":47.5888632,"lon":15.0957466,"ts":"2024-08-11T21:58:12Z","tz":1,"tags":{"climbing":"crag","climbing:grade:uiaa:max":"8-","climbing:grade:uiaa:min":"6","climbing:sport":"5","name":"Verlorene Welt","website":"https://www.thecrag.com/de/klettern/austria/hochschwab/area/3801875409"}},"12105231950":{"lat":47.5894305,"lon":15.0982403,"ts":"2024-08-11T21:58:12Z","tz":1,"tags":{"climbing":"crag","climbing:grade:uiaa:max":"8-","climbing:grade:uiaa:min":"5-","climbing:sport":"23","name":"Dornröschen","website":"https://www.thecrag.com/de/klettern/austria/hochschwab/area/3801875409"}},"12253163750":{"lat":47.6041832,"lon":15.1135845,"ts":"2024-10-15T14:46:56Z","tz":1,"tags":{"climbing":"route_bottom","name":"Beilstein Ostkante","sport":"climbing","website":"https://www.bergsteigen.com/touren/klettern/beilstein-ostkante/"}},"12301286144":{"lat":47.5333534,"lon":15.0073598,"ts":"2024-10-31T09:45:27Z","tz":1,"tags":{"name":"Hochturm","sport":"climbing"}},"12301313948":{"lat":47.561414,"lon":14.914043,"ts":"2024-10-31T09:47:22Z","tz":1,"tags":{"name":"Pfaffenstein","sport":"climbing"}},"12308238430":{"lat":47.6315607,"lon":15.0740931,"ts":"2024-11-02T21:48:15Z","tz":1,"tags":{"name":"Nördlicher Hochschwab","sport":"climbing"}}}