{"18478281":{"lat":37.141477,"lon":15.0301415,"ts":"2025-01-03T16:21:03Z","tz":1,"tags":{"climbing":"crag","name":"Grotta dei pipistrelli","site":"climbing","type":"site","wikimedia_commons":"File:Pantalica - Grotta del pipistrelli.jpg"}},"273239560":{"lat":37.0635647,"lon":15.0717472,"ts":"2022-02-16T16:19:56Z","tz":1,"tags":{"name":"Antro dell'Eco","natural":"cliff","sport":"climbing"}},"1032049252":{"lat":37.0588093,"lon":15.0836609,"ts":"2022-02-16T16:19:56Z","tz":1,"tags":{"name":"Paradox wall","natural":"cliff","sport":"climbing"}},"1032049253":{"lat":37.0584589,"lon":15.083308,"ts":"2022-02-16T16:19:56Z","tz":1,"tags":{"name":"Sottalfano","natural":"cliff","sport":"climbing"}},"1032049254":{"lat":37.0583351,"lon":15.0827731,"ts":"2022-02-16T16:19:56Z","tz":1,"tags":{"name":"Pisciotta","natural":"cliff","sport":"climbing"}},"1032049255":{"lat":37.0584872,"lon":15.0817343,"ts":"2022-02-16T16:19:56Z","tz":1,"tags":{"name":"Contralfano","natural":"cliff","sport":"climbing"}},"1032049256":{"lat":37.066605,"lon":15.0847909,"ts":"2022-02-16T16:19:56Z","tz":1,"tags":{"name":"Grottone del Re Lucertola","natural":"cliff","sport":"climbing"}},"1032049259":{"lat":37.0600419,"lon":15.0756137,"ts":"2025-01-05T19:02:58Z","tz":1,"tags":{"height":"20","name":"Nome e Cognome (4b<8a)","natural":"cliff","sport":"climbing"}},"1032049263":{"lat":37.0330219,"lon":15.0783647,"ts":"2022-02-16T16:19:56Z","tz":1,"tags":{"name":"The Bridge","natural":"cliff","sport":"climbing"}},"1032049264":{"lat":37.0371473,"lon":15.0749936,"ts":"2022-02-16T16:19:56Z","tz":1,"tags":{"name":"Powerbank","natural":"cliff","sport":"climbing"}},"1032049272":{"lat":36.9708236,"lon":15.0903239,"ts":"2022-02-16T16:19:56Z","tz":1,"tags":{"name":"Lo Specchio - Cava Grande","natural":"cliff","sport":"climbing"}},"1032049273":{"lat":36.9866153,"lon":15.1051967,"ts":"2022-02-16T16:19:56Z","tz":1,"tags":{"name":"La Prua - Cava Sture","natural":"cliff","sport":"climbing"}},"1032049274":{"lat":37.0136666,"lon":15.0621105,"ts":"2022-02-16T16:19:56Z","tz":1,"tags":{"name":"Cava Campana","natural":"cliff","sport":"climbing"}},"1032049275":{"lat":37.0099157,"lon":15.1029694,"ts":"2022-02-16T16:19:56Z","tz":1,"tags":{"name":"Cugno Lupo","natural":"cliff","sport":"climbing"}},"1032049281":{"lat":37.0288502,"lon":15.1066852,"ts":"2022-02-16T16:19:56Z","tz":1,"tags":{"name":"Workaholic","natural":"cliff","sport":"climbing"}},"1032049282":{"lat":37.0277931,"lon":15.1140527,"ts":"2022-02-16T16:19:56Z","tz":1,"tags":{"name":"Lost Place","natural":"cliff","sport":"climbing"}},"1032049284":{"lat":37.0394724,"lon":15.0752565,"ts":"2022-02-16T16:19:56Z","tz":1,"tags":{"name":"Glashaus","natural":"cliff","sport":"climbing"}},"1032049285":{"lat":37.0414313,"lon":15.0755355,"ts":"2022-02-16T16:19:56Z","tz":1,"tags":{"name":"Jungle Book","natural":"cliff","sport":"climbing"}},"1032049286":{"lat":37.0389178,"lon":15.073902,"ts":"2022-02-16T16:19:56Z","tz":1,"tags":{"name":"Schwarzenegger","natural":"cliff","sport":"climbing"}},"1032049287":{"lat":37.0404894,"lon":15.0749132,"ts":"2022-02-16T16:19:56Z","tz":1,"tags":{"name":"Fuchsberger","natural":"cliff","sport":"climbing"}},"1032049288":{"lat":37.0595011,"lon":15.0839513,"ts":"2022-02-16T16:19:56Z","tz":1,"tags":{"name":"Contralfano","natural":"cliff","sport":"climbing"}},"1032049294":{"lat":37.0908988,"lon":14.9508208,"ts":"2022-02-16T16:19:56Z","tz":1,"tags":{"name":"Anapo","natural":"cliff","sport":"climbing"}},"1032049295":{"lat":37.0898974,"lon":14.9641917,"ts":"2022-02-16T16:19:56Z","tz":1,"tags":{"name":"Cassaro","natural":"cliff","sport":"climbing"}},"1032049296":{"lat":37.1399063,"lon":15.0293988,"ts":"2022-02-16T16:19:56Z","tz":1,"tags":{"name":"Pantalica - Metamorfosi","natural":"cliff","sport":"climbing"}},"1032049297":{"lat":37.1406875,"lon":15.0299386,"ts":"2022-02-16T16:19:56Z","tz":1,"tags":{"name":"Pantalica - Grotta dei Pipistrelli","natural":"cliff","sport":"climbing"}},"1036856569":{"lat":37.1582944,"lon":14.8801821,"ts":"2022-03-03T15:41:43Z","tz":1,"tags":{"name":"Gole della Stretta","natural":"cliff","sport":"climbing"}},"12460708789":{"lat":37.1414241,"lon":15.0301469,"ts":"2024-12-29T12:04:07Z","tz":1,"tags":{"climbing":"route_bottom","climbing:grade:french":"6a","name":"Mastro ciliegia","site_name":"climbing","type":"site","wikimedia_commons:2":"File:Pantalica - Grotta del pipistrelli.jpg","wikimedia_commons:2:path":"0.043,0.549|0.305,0.193"}},"12460708790":{"lat":37.1414396,"lon":15.0301384,"ts":"2025-01-03T16:24:22Z","tz":1,"tags":{"climbing":"route_bottom","climbing:grade:french":"6a","name":"La sporca","site_name":"climbing","type":"site","wikimedia_commons:2":"File:Pantalica - Grotta del pipistrelli.jpg","wikimedia_commons:2:path":"0.158,0.763|0.351,0.23"}},"12471587775":{"lat":37.1414498,"lon":15.0301365,"ts":"2025-01-03T23:05:38Z","tz":1,"tags":{"climbing":"route_bottom","climbing:grade:french":"6a","name":"Grazie pierino","site_name":"climbing","type":"site","wikimedia_commons:2":"File:Pantalica - Grotta del pipistrelli.jpg","wikimedia_commons:2:path":"0.266,0.822|0.38,0.418|0.381,0.195"}},"12471587776":{"lat":37.1414595,"lon":15.0301374,"ts":"2025-01-03T23:05:38Z","tz":1,"tags":{"climbing":"route_bottom","climbing:grade:french":"7a","name":"La straniera","site_name":"climbing","type":"site","wikimedia_commons:2":"File:Pantalica - Grotta del pipistrelli.jpg","wikimedia_commons:2:path":"0.266,0.822|0.38,0.418|0.407,0.315|0.411,0.194"}},"12471587777":{"lat":37.1414663,"lon":15.0301396,"ts":"2025-01-03T23:05:38Z","tz":1,"tags":{"climbing":"route_bottom","climbing:grade:french":"7a+","name":"Ravioli alla Piero","site_name":"climbing","type":"site","wikimedia_commons:2":"File:Pantalica - Grotta del pipistrelli.jpg","wikimedia_commons:2:path":"0.331,0.773|0.434,0.501|0.44,0.192"}},"12471587778":{"lat":37.1414758,"lon":15.0301438,"ts":"2025-01-03T23:05:38Z","tz":1,"tags":{"climbing":"route_bottom","climbing:grade:french":"6c","name":"Crisi di vocazione","site_name":"climbing","type":"site","wikimedia_commons:2":"File:Pantalica - Grotta del pipistrelli.jpg","wikimedia_commons:2:path":"0.455,0.792|0.522,0.488|0.468,0.204"}},"12471587779":{"lat":37.1414849,"lon":15.0301444,"ts":"2025-01-03T23:05:38Z","tz":1,"tags":{"climbing":"route_bottom","climbing:grade:french":"6c+","name":"Camarillo brillo","site_name":"climbing","type":"site","wikimedia_commons:2":"File:Pantalica - Grotta del pipistrelli.jpg","wikimedia_commons:2:path":"0.587,0.831|0.556,0.373|0.506,0.188"}},"12471587780":{"lat":37.1414928,"lon":15.0301438,"ts":"2025-01-03T23:05:38Z","tz":1,"tags":{"climbing":"route_bottom","climbing:grade:french":"7a","name":"Mortizia","site_name":"climbing","type":"site","wikimedia_commons:2":"File:Pantalica - Grotta del pipistrelli.jpg","wikimedia_commons:2:path":"0.684,0.834|0.608,0.359|0.549,0.176"}},"12471587781":{"lat":37.1415009,"lon":15.0301421,"ts":"2025-01-03T23:05:38Z","tz":1,"tags":{"climbing":"route_bottom","climbing:grade:french":"7b","name":"Thomas Figaro","site_name":"climbing","type":"site","wikimedia_commons:2":"File:Pantalica - Grotta del pipistrelli.jpg","wikimedia_commons:2:path":"0.807,0.845|0.582,0.175"}},"12471587782":{"lat":37.1415087,"lon":15.0301388,"ts":"2025-01-03T23:05:38Z","tz":1,"tags":{"climbing":"route_bottom","climbing:grade:french":"6b+","name":"Don Nicola","site_name":"climbing","type":"site","wikimedia_commons:2":"File:Pantalica - Grotta del pipistrelli.jpg","wikimedia_commons:2:path":"0.923,0.734|0.645,0.192"}},"12471587783":{"lat":37.1415162,"lon":15.0301356,"ts":"2025-01-03T16:21:03Z","tz":1,"tags":{"climbing":"route_bottom","climbing:grade:french":"7b+","name":"Segreti perduti","site_name":"climbing","type":"site"}},"12471587784":{"lat":37.1415229,"lon":15.0301308,"ts":"2025-01-03T16:21:03Z","tz":1,"tags":{"climbing":"route_bottom","name":"Sexy zombie","site_name":"climbing","type":"site"}},"12471587785":{"lat":37.141531,"lon":15.0301246,"ts":"2025-01-03T16:21:03Z","tz":1,"tags":{"climbing":"route_bottom","climbing:grade:french":"7b+","name":"Via dei pipistrelli","site_name":"climbing","type":"site"}},"12471587786":{"lat":37.1415401,"lon":15.0301226,"ts":"2025-01-03T16:21:03Z","tz":1,"tags":{"climbing":"route_bottom","climbing:grade:french":"7c","name":"La bella sconosciuta","site_name":"climbing","type":"site"}},"12471587787":{"lat":37.141548,"lon":15.030118,"ts":"2025-01-03T16:21:03Z","tz":1,"tags":{"climbing":"route_bottom","climbing:grade:french":"7c+","name":"Variante Ramon","site_name":"climbing","type":"site"}},"12471587788":{"lat":37.1415572,"lon":15.030121,"ts":"2025-01-03T16:21:03Z","tz":1,"tags":{"climbing":"route_bottom","climbing:grade:french":"7c","name":"Nikita","site_name":"climbing","type":"site"}},"12471587789":{"lat":37.1415665,"lon":15.0301255,"ts":"2025-01-03T16:21:03Z","tz":1,"tags":{"climbing":"route_bottom","climbing:grade:french":"7a","name":"Mister lampo","site_name":"climbing","type":"site"}},"12471587790":{"lat":37.1413875,"lon":15.030162,"ts":"2025-01-03T16:21:03Z","tz":1,"tags":{"climbing":"route_bottom","climbing:grade:french":"6b","name":"Allasamata","site_name":"climbing","type":"site"}},"12471587791":{"lat":37.141396,"lon":15.0301638,"ts":"2025-01-03T16:21:03Z","tz":1,"tags":{"climbing":"route_bottom","climbing:grade:french":"7b","name":"Delirium","site_name":"climbing","type":"site"}},"12471587792":{"lat":37.1414054,"lon":15.030165,"ts":"2025-01-03T16:21:03Z","tz":1,"tags":{"climbing":"route_bottom","climbing:grade:french":"6c+","name":"Mamboloa","site_name":"climbing","type":"site"}},"12471587793":{"lat":37.1414136,"lon":15.0301625,"ts":"2025-01-03T16:21:03Z","tz":1,"tags":{"climbing":"route_bottom","climbing:grade:french":"6b+","name":"Viziami e seviziami","site_name":"climbing","type":"site"}},"12471587794":{"lat":37.14142,"lon":15.0301565,"ts":"2025-01-03T16:21:03Z","tz":1,"tags":{"climbing":"route_bottom","climbing:grade:french":"6a","name":"Omero","site_name":"climbing","type":"site"}}}