{"18273207":{"lat":47.639945,"lon":11.8023782,"ts":"2024-11-10T22:12:36Z","tz":1,"tags":{"climbing":"crag","name":"Südwand","type":"site"}},"254181978":{"lat":47.6711489,"lon":11.8506224,"ts":"2023-02-09T09:36:44Z","tz":1,"tags":{"climbing:rock":"limestone","height":"40","natural":"cliff","sport":"climbing"}},"260686440":{"lat":47.6401852,"lon":11.8027794,"ts":"2024-06-22T07:14:03Z","tz":1,"tags":{"alt_name":"Plankenstein","ele":"1768","name":"Blankenstein","natural":"peak","sport":"climbing","summit:cross":"yes","wikidata":"Q316937","wikimedia_commons":"Category:Plankenstein (Berg)","wikipedia":"de:Plankenstein (Berg)"}},"285584101":{"lat":47.6317672,"lon":11.6765979,"ts":"2025-03-21T18:03:34Z","tz":1,"tags":{"climbing:bolted":"yes","climbing:grade:uiaa:max":"9-","climbing:grade:uiaa:min":"3","climbing:length":"30","climbing:quality":"fragile","climbing:rock":"limestone","climbing:sport":"18","name":"Roßsteinnadel","natural":"bare_rock","sport":"climbing"}},"285593017":{"lat":47.6320844,"lon":11.6771631,"ts":"2020-10-16T17:24:45Z","tz":1,"tags":{"climbing:grade:uiaa:max":"7-","climbing:grade:uiaa:min":"4","climbing:length:max":"70","climbing:length:min":"10","climbing:orientation":"S","climbing:quality":"solid","climbing:rock":"limestone","climbing:routes":"10","climbing:sport":"yes","name":"Roßstein Südwand","natural":"cliff","sport":"climbing"}},"285593019":{"lat":47.6323981,"lon":11.6756647,"ts":"2020-12-09T09:46:24Z","tz":1,"tags":{"alt_name":"Sonnenplatte","climbing:bolted":"yes","climbing:grade:uiaa:min":"4-","climbing:length":"50","climbing:multipitch":"yes","climbing:quality":"solid","climbing:rock":"limestone","climbing:sport":"yes","name":"Roßstein Südwestwand","natural":"bare_rock","sport":"climbing"}},"311793203":{"lat":47.6324089,"lon":11.6788596,"ts":"2020-10-16T17:24:45Z","tz":1,"tags":{"climbing:multipitch":"yes","climbing:orientation":"S","climbing:quality":"solid","climbing:rock":"limestone","climbing:sport":"yes","name":"Buchstein Südwand","natural":"cliff","sport":"climbing"}},"922811821":{"lat":47.7028251,"lon":11.9233578,"ts":"2025-03-28T23:40:07Z","tz":1,"tags":{"addr:city":"Fischbachau","addr:housenumber":"8","addr:postcode":"83730","addr:street":"Alpenstraße","building":"yes","climbing:boulder":"yes","climbing:toprope":"yes","name":"Kletterstadl Aurach","operator":"DAV Sektion Leitzachtal","sport":"climbing","website":"https://www.dav-leitzachtal.de/kletterstadl.html","wikidata":"Q107392198"}},"1283763498":{"lat":47.6479241,"lon":11.9473389,"ts":"2024-05-16T22:15:53Z","tz":1,"tags":{"climbing":"route","name":"Dülferriss"}},"1306373674":{"lat":47.5467908,"lon":11.7780553,"ts":"2024-08-08T14:29:48Z","tz":1,"tags":{"climbing":"route","climbing:grade:uiaa":"3","fixme":"skizzierter Verlauf"}},"1307433674":{"lat":47.6412297,"lon":11.8034828,"ts":"2024-08-13T08:54:45Z","tz":1,"tags":{"name":"Nordwandfuss","natural":"cliff","sport":"climbing"}},"1307433675":{"lat":47.6415049,"lon":11.8025492,"ts":"2024-08-13T08:54:45Z","tz":1,"tags":{"name":"Glasperlenspiel","natural":"cliff","sport":"climbing"}},"1307433676":{"lat":47.641165,"lon":11.8014882,"ts":"2024-08-13T08:54:45Z","tz":1,"tags":{"name":"Herbszeitlose","natural":"cliff","sport":"climbing"}},"1325467163":{"lat":47.5393619,"lon":11.7378102,"ts":"2024-10-18T18:04:59Z","tz":1,"tags":{"climbing":"route","climbing:grade:uiaa":"2","fixme":"skizzierter Verlauf","name":"Hinterunnutz-Nordgrat"}},"1470722107":{"lat":47.6424542,"lon":11.7806027,"ts":"2019-02-05T19:17:26Z","tz":1,"tags":{"ele":"1546","name":"Daffenstein","natural":"peak","sport":"climbing","summit:cross":"yes","wikidata":"Q31558128"}},"1699496391":{"lat":47.6422591,"lon":11.8120433,"ts":"2022-09-01T20:33:56Z","tz":1,"tags":{"ele":"1594","name":"Schreistein","natural":"peak","source":"survey","sport":"climbing","wikidata":"Q30134209","wikimedia_commons":"File:Schreistein, Gipfel.jpg","wikipedia":"de:Schreistein"}},"2408659961":{"lat":47.5404912,"lon":11.7944509,"ts":"2013-08-06T09:16:04Z","tz":1,"tags":{"climbing:bolted":"yes","climbing:orientation":"E","sport":"climbing"}},"4860472175":{"lat":47.6397213,"lon":11.8020146,"ts":"2017-05-17T19:20:37Z","tz":1,"tags":{"name":"Plankensteinnadel","natural":"peak","sport":"climbing"}},"7856895002":{"lat":47.6362433,"lon":11.71578,"ts":"2020-08-29T16:04:37Z","tz":1,"tags":{"name":"Flora Bohra","sport":"climbing"}},"8984116202":{"lat":47.6478307,"lon":11.8907402,"ts":"2021-08-05T19:46:37Z","tz":1,"tags":{"climbing":"boulder","playground":"climbingwall"}},"9461647620":{"lat":47.5438735,"lon":11.788374,"ts":"2022-03-30T14:32:58Z","tz":1,"tags":{"climbing":"route","climbing:grade:uiaa":"5+","climbing:rock":"limestone","fixme":"Start, uiaa, lenght, path","name":"Südgrat","sport":"climbing"}},"9461647621":{"lat":47.5461303,"lon":11.7728446,"ts":"2022-03-30T14:32:58Z","tz":1,"tags":{"climbing":"route","climbing:grade:uiaa":"3","climbing:rock":"limestone","description":"Westgrat Guffert UIAA 3","fixme":"route, path","name":"Westgrat","sport":"climbing"}},"10007265837":{"lat":47.6360324,"lon":11.7158157,"ts":"2022-09-07T19:46:01Z","tz":1,"tags":{"leisure":"sports_centre","name":"Drei-Platten-Weg (6+)","sport":"climbing"}},"10916715183":{"lat":47.635898,"lon":11.7147258,"ts":"2023-05-21T20:18:48Z","tz":1,"tags":{"fee":"no","leisure":"sports_centre","name":"Hey Leonie (6)","sport":"climbing","website":"https://www.bergsteigen.com/touren/klettern/hey-leoni-leonhardstein/"}},"11910879590":{"lat":47.6477651,"lon":11.9473869,"ts":"2024-05-16T22:15:53Z","tz":1,"tags":{"climbing":"route_bottom"}},"11910879592":{"lat":47.6480832,"lon":11.947291,"ts":"2024-05-16T22:15:53Z","tz":1,"tags":{"climbing":"route_top"}},"12079983329":{"lat":47.6728983,"lon":11.8360619,"ts":"2024-07-29T11:26:45Z","tz":1,"tags":{"name":"Klettergarten Bodenschneid","sport":"climbing"}},"12329565903":{"lat":47.6399807,"lon":11.8024131,"ts":"2024-11-10T22:12:36Z","tz":1,"tags":{"climbing":"route_bottom","climbing:grade:uiaa":"6","climbing:length":"55","climbing:multipitch":"yes","climbing:orientation":"S","name":"Jennerwein"}},"12329565904":{"lat":47.6399094,"lon":11.8023433,"ts":"2024-11-10T22:12:36Z","tz":1,"tags":{"climbing":"route_bottom","climbing:grade:uiaa":"5","climbing:length":"20","climbing:multipitch":"no","climbing:orientation":"S","name":"Via Alpina"}},"12329565905":{"lat":47.6399151,"lon":11.8023729,"ts":"2024-11-10T22:12:36Z","tz":1,"tags":{"climbing":"route_bottom","climbing:grade:uiaa":"8+","climbing:length":"25","climbing:multipitch":"no","climbing:orientation":"S","name":"Pyromania"}}}