{"275894380":{"lat":50.8295011,"lon":19.2911024,"ts":"2024-04-09T12:04:15Z","tz":1,"tags":{"climbing:bolted":"yes","climbing:grade:polish:max":"VI.3+","climbing:grade:polish:min":"V+","climbing:length":"15","climbing:quality":"solid","climbing:rock":"limestone","climbing:routes":"6","climbing:sport":"yes","height":"16","name":"Skała Miłości","name:pl":"Skała Miłości","name:ru":"Скала Любви","natural":"bare_rock","rock":"limestone","source":"knowledge","sport":"climbing","tourism":"attraction","url":"https://topo.wspinka.org/przelom-warty/skala-milosci"}},"402895404":{"lat":50.7471778,"lon":19.2822443,"ts":"2019-03-16T20:09:26Z","tz":1,"tags":{"height":"14","leisure":"climbing","name":"Biblioteka","natural":"cliff","rock":"limestone","source":"knowledge","sport":"climbing"}},"402895405":{"lat":50.7471778,"lon":19.2822454,"ts":"2019-03-16T20:09:26Z","tz":1,"tags":{"climbing:bolted":"yes","climbing:grade:polish:max":"VI.1+","climbing:grade:polish:min":"VI+","climbing:length":"14","climbing:quality":"solid","climbing:rock":"limestone","climbing:routes":"17","climbing:sport":"yes","height":"15","name":"Biblioteka","natural":"bare_rock","rock":"limestone","source":"knowledge","sport":"climbing","url":"https://topo.wspinka.org/rejon-dziewicy/biblioteka"}},"402895407":{"lat":50.7477829,"lon":19.2836528,"ts":"2019-03-16T20:09:27Z","tz":1,"tags":{"height":"20","leisure":"climbing","name":"Dziewica","natural":"cliff","rock":"limestone","source":"knowledge","sport":"climbing"}},"402895408":{"lat":50.7477222,"lon":19.2836268,"ts":"2019-03-16T20:09:27Z","tz":1,"tags":{"climbing:bolted":"yes","climbing:grade:polish:max":"VI.4+","climbing:grade:polish:min":"III","climbing:length":"20","climbing:quality":"solid","climbing:rock":"limestone","climbing:routes":"32","climbing:sport":"yes","height":"20","name":"Dziewica","natural":"bare_rock","rock":"limestone","source":"knowledge","sport":"climbing","url":"https://topo.wspinka.org/rejon-dziewicy/dziewica"}},"402895411":{"lat":50.7479203,"lon":19.2841565,"ts":"2019-03-16T20:09:27Z","tz":1,"tags":{"height":"15","leisure":"climbing","name":"Owczy Grzbiet","natural":"cliff","rock":"limestone","source":"knowledge","sport":"climbing"}},"402895412":{"lat":50.7479616,"lon":19.2842755,"ts":"2019-03-16T20:09:27Z","tz":1,"tags":{"climbing:bolted":"yes","climbing:grade:polish:max":"VI.1+","climbing:grade:polish:min":"III","climbing:length":"15","climbing:quality":"solid","climbing:rock":"limestone","climbing:routes":"15","climbing:sport":"yes","height":"16","name":"Owczy Grzbiet","natural":"bare_rock","rock":"limestone","source":"knowledge","sport":"climbing","url":"https://topo.wspinka.org/rejon-dziewicy/owczy-grzbiet"}},"402895413":{"lat":50.7467997,"lon":19.2821912,"ts":"2019-03-16T20:09:28Z","tz":1,"tags":{"height":"15","leisure":"climbing","name":"Szafa","natural":"cliff","rock":"limestone","source":"knowledge","sport":"climbing"}},"402895414":{"lat":50.7467997,"lon":19.2821912,"ts":"2019-03-16T20:09:28Z","tz":1,"tags":{"climbing:bolted":"yes","climbing:grade:polish:max":"VI.4+","climbing:grade:polish:min":"III","climbing:length":"15","climbing:quality":"solid","climbing:rock":"limestone","climbing:routes":"19","climbing:sport":"yes","height":"15","name":"Szafa","natural":"bare_rock","rock":"limestone","source":"knowledge","sport":"climbing","url":"https://topo.wspinka.org/rejon-dziewicy/szafa"}},"485391656":{"lat":50.7494264,"lon":19.2744546,"ts":"2019-03-16T11:28:04Z","tz":1,"tags":{"climbing:grade:polish:max":"VI.3","climbing:grade:polish:min":"V","climbing:length":"17","climbing:routes":"13","climbing:trad":"yes","height":"17","name":"Grzyb","natural":"bare_rock","rock":"limestone","sport":"climbing"}},"485391669":{"lat":50.7494525,"lon":19.274508,"ts":"2019-03-16T11:28:04Z","tz":1,"tags":{"barrier":"wall","height":"17","leisure":"climbing","name":"Grzyb","natural":"cliff","rock":"limestone","ruins":"yes","source":"knowledge","sport":"climbing","wall":"castle_wall"}},"487218791":{"lat":50.749052,"lon":19.2753118,"ts":"2019-03-16T11:28:04Z","tz":1,"tags":{"climbing:bolted":"yes","climbing:grade:polish:max":"VI.2+","climbing:grade:polish:min":"III","climbing:length":"14","climbing:quality":"solid","climbing:rock":"limestone","climbing:routes":"10","climbing:sport":"yes","climbing:trad":"yes","height":"15","name":"Żółty Filar","natural":"bare_rock","rock":"limestone","source":"knowledge","sport":"climbing"}},"676877983":{"lat":50.822391,"lon":19.2090088,"ts":"2019-03-14T19:10:24Z","tz":1,"tags":{"height":"15","leisure":"climbing","name":"Jaś i Magosia","natural":"cliff","rock":"limestone","source":"knowledge","sport":"climbing"}},"676877984":{"lat":50.8223835,"lon":19.2090254,"ts":"2019-03-14T19:10:24Z","tz":1,"tags":{"climbing:bolted":"yes","climbing:grade:polish:max":"VI.2","climbing:grade:polish:min":"V","climbing:length":"15","climbing:quality":"solid","climbing:rock":"limestone","climbing:routes":"11","climbing:sport":"yes","height":"15","name":"Jaś i Magosia","natural":"bare_rock","rock":"limestone","source":"knowledge","sport":"climbing"}},"676877989":{"lat":50.8241823,"lon":19.2073177,"ts":"2021-12-21T21:15:56Z","tz":1,"tags":{"height":"18","leisure":"climbing","name":"Skała w Mirowie","natural":"cliff","rock":"limestone","source":"knowledge","sport":"climbing"}},"676877990":{"lat":50.8242104,"lon":19.2072559,"ts":"2019-03-27T14:23:55Z","tz":1,"tags":{"climbing:bolted":"yes","climbing:grade:polish:max":"VI.5","climbing:grade:polish:min":"V+","climbing:length":"18","climbing:quality":"solid","climbing:rock":"limestone","climbing:routes":"19","climbing:sport":"yes","height":"18","name":"Skała Balika","natural":"bare_rock","rock":"limestone","source":"knowledge","sport":"climbing"}},"676887532":{"lat":50.8295011,"lon":19.2910546,"ts":"2019-03-14T19:56:33Z","tz":1,"tags":{"height":"15","leisure":"climbing","name":"Miłosna","natural":"cliff","rock":"limestone","source":"knowledge","sport":"climbing"}},"676892204":{"lat":50.7782469,"lon":19.2323863,"ts":"2019-03-14T20:28:32Z","tz":1,"tags":{"height":"7","leisure":"climbing","name":"Podkowadle","natural":"cliff","rock":"limestone","source":"knowledge","sport":"climbing"}},"676892205":{"lat":50.7781827,"lon":19.2324743,"ts":"2019-03-14T20:28:32Z","tz":1,"tags":{"height":"8","leisure":"climbing","name":"Kowadło","natural":"cliff","rock":"limestone","source":"knowledge","sport":"climbing"}},"676892206":{"lat":50.7782347,"lon":19.2324089,"ts":"2019-03-14T20:28:32Z","tz":1,"tags":{"climbing:bolted":"yes","climbing:grade:polish:max":"VI.2+","climbing:grade:polish:min":"V","climbing:length":"7","climbing:quality":"fragile","climbing:rock":"limestone","climbing:routes":"4","climbing:sport":"yes","height":"8","name":"Podkowadle","natural":"bare_rock","rock":"limestone","source":"knowledge","sport":"climbing"}},"676892207":{"lat":50.7781824,"lon":19.2324743,"ts":"2019-03-14T20:28:32Z","tz":1,"tags":{"climbing:bolted":"yes","climbing:grade:polish:max":"VI.2+","climbing:grade:polish:min":"V+","climbing:length":"8","climbing:quality":"solid","climbing:rock":"limestone","climbing:routes":"4","climbing:sport":"yes","height":"8","name":"Kowadło","natural":"bare_rock","rock":"limestone","source":"knowledge","sport":"climbing"}},"676892208":{"lat":50.7783632,"lon":19.233138,"ts":"2019-03-14T20:28:33Z","tz":1,"tags":{"height":"10","leisure":"climbing","name":"Płetwa","natural":"cliff","rock":"limestone","source":"knowledge","sport":"climbing"}},"676892209":{"lat":50.7783632,"lon":19.233138,"ts":"2019-03-14T20:28:33Z","tz":1,"tags":{"climbing:bolted":"yes","climbing:grade:polish:max":"VI.3","climbing:grade:polish:min":"IV","climbing:length":"10","climbing:quality":"solid","climbing:rock":"limestone","climbing:routes":"10","climbing:sport":"yes","height":"10","name":"Płetwa","natural":"bare_rock","rock":"limestone","source":"knowledge","sport":"climbing"}},"676892210":{"lat":50.7781993,"lon":19.2331422,"ts":"2019-03-14T20:28:33Z","tz":1,"tags":{"height":"20","leisure":"climbing","name":"Główna Ściana","natural":"cliff","rock":"limestone","source":"knowledge","sport":"climbing"}},"676892211":{"lat":50.7781993,"lon":19.2332429,"ts":"2020-11-08T23:22:06Z","tz":1,"tags":{"climbing:bolted":"yes","climbing:grade:polish:max":"VI.5","climbing:grade:polish:min":"III","climbing:length":"20","climbing:quality":"fragile","climbing:rock":"limestone","climbing:routes":"25","climbing:sport":"yes","climbing:trad":"yes","height":"20","name":"Główny Masyw","natural":"bare_rock","rock":"limestone","source":"knowledge","sport":"climbing"}},"677010897":{"lat":50.7755171,"lon":19.2711679,"ts":"2019-03-15T10:32:36Z","tz":1,"tags":{"height":"8","leisure":"climbing","name":"Lisia Skała","natural":"cliff","rock":"limestone","source":"knowledge","sport":"climbing"}},"677010898":{"lat":50.7755084,"lon":19.2712449,"ts":"2019-03-15T10:32:37Z","tz":1,"tags":{"climbing:bolted":"yes","climbing:grade:polish:max":"VI.1+","climbing:grade:polish:min":"V+","climbing:length":"8","climbing:quality":"solid","climbing:rock":"limestone","climbing:routes":"4","climbing:sport":"yes","height":"8","name":"Lisia Skała","natural":"bare_rock","rock":"limestone","source":"knowledge","sport":"climbing"}},"677010914":{"lat":50.7727233,"lon":19.2597302,"ts":"2019-03-15T10:32:37Z","tz":1,"tags":{"height":"10","leisure":"climbing","name":"Kuropatwa","natural":"cliff","rock":"limestone","source":"knowledge","sport":"climbing"}},"677010919":{"lat":50.7726756,"lon":19.2597303,"ts":"2019-03-15T10:32:37Z","tz":1,"tags":{"climbing:bolted":"yes","climbing:grade:polish:max":"VI.6","climbing:grade:polish:min":"VI.1","climbing:length":"10","climbing:quality":"solid","climbing:rock":"limestone","climbing:routes":"14","climbing:sport":"yes","height":"10","name":"Kuropatwa","natural":"bare_rock","rock":"limestone","source":"knowledge","sport":"climbing"}},"677130434":{"lat":50.7665362,"lon":19.270244,"ts":"2019-03-15T19:06:21Z","tz":1,"tags":{"height":"7","leisure":"climbing","name":"Bałwanek","natural":"cliff","rock":"limestone","source":"knowledge","sport":"climbing"}},"677130435":{"lat":50.766552,"lon":19.2702921,"ts":"2019-03-15T19:06:21Z","tz":1,"tags":{"climbing:bolted":"yes","climbing:boulder":"yes","climbing:grade:polish:max":"VI.2+","climbing:grade:polish:min":"IV","climbing:length":"7","climbing:quality":"solid","climbing:rock":"limestone","climbing:routes":"10","climbing:sport":"yes","height":"8","name":"Bałwanek","natural":"bare_rock","rock":"limestone","source":"knowledge","sport":"climbing"}},"677130436":{"lat":50.7666313,"lon":19.2702764,"ts":"2019-03-15T19:06:22Z","tz":1,"tags":{"height":"8","leisure":"climbing","name":"Kogutek","natural":"cliff","rock":"limestone","source":"knowledge","sport":"climbing"}},"677130437":{"lat":50.7666369,"lon":19.2702654,"ts":"2019-03-15T19:06:22Z","tz":1,"tags":{"climbing:bolted":"yes","climbing:grade:polish:max":"VI.2","climbing:grade:polish:min":"III","climbing:length":"8","climbing:quality":"solid","climbing:rock":"limestone","climbing:routes":"4","climbing:sport":"yes","height":"8","name":"Kogutek","natural":"bare_rock","rock":"limestone","source":"knowledge","sport":"climbing"}},"677130438":{"lat":50.7667211,"lon":19.2701305,"ts":"2019-03-15T19:06:22Z","tz":1,"tags":{"height":"10","leisure":"climbing","name":"Przekładaniec","natural":"cliff","rock":"limestone","source":"knowledge","sport":"climbing"}},"677130440":{"lat":50.766707,"lon":19.2701798,"ts":"2019-03-15T19:06:22Z","tz":1,"tags":{"climbing:bolted":"yes","climbing:grade:polish:max":"VI.2","climbing:grade:polish:min":"IV","climbing:length":"10","climbing:quality":"solid","climbing:rock":"limestone","climbing:routes":"11","climbing:sport":"yes","climbing:trad":"yes","height":"10","name":"Przekładaniec","natural":"bare_rock","rock":"limestone","source":"knowledge","sport":"climbing"}},"677130443":{"lat":50.7684303,"lon":19.2706843,"ts":"2019-03-15T19:06:22Z","tz":1,"tags":{"height":"8","leisure":"climbing","name":"Towarek","natural":"cliff","rock":"limestone","source":"knowledge","sport":"climbing"}},"677130444":{"lat":50.7684416,"lon":19.2707966,"ts":"2019-03-15T19:06:23Z","tz":1,"tags":{"climbing:grade:polish:max":"V","climbing:grade:polish:min":"IV","climbing:length":"8","climbing:quality":"solid","climbing:rock":"limestone","climbing:routes":"2","climbing:trad":"yes","height":"8","name":"Towarek","natural":"bare_rock","rock":"limestone","source":"knowledge","sport":"climbing"}},"677130445":{"lat":50.7684528,"lon":19.2711377,"ts":"2019-03-15T19:06:23Z","tz":1,"tags":{"height":"15","leisure":"climbing","name":"Groty","natural":"cliff","rock":"limestone","source":"knowledge","sport":"climbing"}},"677130446":{"lat":50.7684205,"lon":19.2711519,"ts":"2019-03-15T19:06:23Z","tz":1,"tags":{"climbing:bolted":"yes","climbing:grade:polish:max":"VI.3","climbing:grade:polish:min":"IV","climbing:length":"15","climbing:quality":"solid","climbing:rock":"limestone","climbing:routes":"17","climbing:sport":"yes","height":"15","name":"Groty","natural":"bare_rock","rock":"limestone","source":"knowledge","sport":"climbing"}},"677130447":{"lat":50.7686573,"lon":19.271619,"ts":"2021-12-24T15:47:21Z","tz":1,"tags":{"height":"10","leisure":"climbing","name":"Płyty","natural":"cliff","rock":"limestone","source":"knowledge","sport":"climbing"}},"677130448":{"lat":50.7686298,"lon":19.271619,"ts":"2021-12-24T15:47:21Z","tz":1,"tags":{"climbing:bolted":"yes","climbing:grade:polish:max":"VI.3","climbing:grade:polish:min":"III","climbing:length":"10","climbing:quality":"solid","climbing:rock":"limestone","climbing:routes":"13","climbing:sport":"yes","height":"10","name":"Płyty","natural":"bare_rock","rock":"limestone","source":"knowledge","sport":"climbing"}},"677225816":{"lat":50.7473715,"lon":19.2709333,"ts":"2019-03-16T11:27:55Z","tz":1,"tags":{"height":"15","leisure":"climbing","name":"Słoneczne Dolne","natural":"cliff","rock":"limestone","source":"knowledge","sport":"climbing"}},"677225817":{"lat":50.747453,"lon":19.2709155,"ts":"2019-03-16T11:27:56Z","tz":1,"tags":{"climbing:bolted":"yes","climbing:grade:polish:max":"VI.3+","climbing:grade:polish:min":"IV","climbing:length":"15","climbing:quality":"solid","climbing:rock":"limestone","climbing:routes":"14","climbing:sport":"yes","climbing:trad":"yes","height":"15","name":"Słoneczne Dolne","natural":"bare_rock","rock":"limestone","source":"knowledge","sport":"climbing"}},"677225818":{"lat":50.747806,"lon":19.271242,"ts":"2019-03-16T11:27:56Z","tz":1,"tags":{"height":"7","leisure":"climbing","name":"Słoneczne Górne","natural":"cliff","rock":"limestone","source":"knowledge","sport":"climbing"}},"677225819":{"lat":50.7478304,"lon":19.2712565,"ts":"2019-03-16T11:27:56Z","tz":1,"tags":{"climbing:bolted":"yes","climbing:grade:polish:max":"VI.1","climbing:grade:polish:min":"III","climbing:length":"7","climbing:quality":"solid","climbing:rock":"limestone","climbing:routes":"7","climbing:sport":"yes","height":"8","name":"Słoneczne Górne","natural":"bare_rock","rock":"limestone","source":"knowledge","sport":"climbing"}},"677225826":{"lat":50.748059,"lon":19.2716747,"ts":"2019-03-16T11:27:57Z","tz":1,"tags":{"height":"12","leisure":"climbing","name":"Mur Pod Basztą","natural":"cliff","rock":"limestone","source":"knowledge","sport":"climbing"}},"677225828":{"lat":50.7479019,"lon":19.2709927,"ts":"2019-03-16T11:27:57Z","tz":1,"tags":{"height":"12","leisure":"climbing","name":"Sołtysówka","natural":"cliff","rock":"limestone","source":"knowledge","sport":"climbing"}},"677225829":{"lat":50.7478865,"lon":19.2710741,"ts":"2019-03-16T11:27:57Z","tz":1,"tags":{"climbing:bolted":"yes","climbing:grade:polish:max":"V","climbing:grade:polish:min":"V","climbing:length":"12","climbing:quality":"solid","climbing:rock":"limestone","climbing:routes":"1","climbing:sport":"yes","height":"12","name":"Sołtysówka","natural":"bare_rock","rock":"limestone","source":"knowledge","sport":"climbing"}},"677225830":{"lat":50.74822,"lon":19.2720293,"ts":"2019-03-16T11:27:57Z","tz":1,"tags":{"height":"15","leisure":"climbing","name":"Mur Pod Basztą","natural":"cliff","rock":"limestone","source":"knowledge","sport":"climbing"}},"677225831":{"lat":50.7481393,"lon":19.2719451,"ts":"2024-10-31T21:34:38Z","tz":1,"tags":{"climbing:bolted":"yes","climbing:grade:polish:max":"VI.3","climbing:grade:polish:min":"V","climbing:length":"15","climbing:quality":"solid","climbing:rock":"limestone","climbing:routes":"6","climbing:sport":"yes","height":"16","name":"Mur Pod Basztą","natural":"bare_rock","rock":"limestone","source":"knowledge","sport":"climbing"}},"677225833":{"lat":50.7489053,"lon":19.2750517,"ts":"2019-03-16T11:27:57Z","tz":1,"tags":{"height":"10","leisure":"climbing","name":"Przekładaniec","natural":"cliff","rock":"limestone","source":"knowledge","sport":"climbing"}},"677225835":{"lat":50.7488917,"lon":19.2750285,"ts":"2019-03-16T11:27:58Z","tz":1,"tags":{"climbing:bolted":"yes","climbing:grade:polish:max":"VI.2+","climbing:grade:polish:min":"V","climbing:length":"10","climbing:quality":"solid","climbing:rock":"limestone","climbing:routes":"5","climbing:sport":"yes","height":"12","name":"Przekładaniec","natural":"bare_rock","rock":"limestone","source":"knowledge","sport":"climbing"}},"677225837":{"lat":50.749154,"lon":19.2753118,"ts":"2019-03-16T11:27:58Z","tz":1,"tags":{"height":"14","leisure":"climbing","name":"Żółty Filar","natural":"cliff","rock":"limestone","source":"knowledge","sport":"climbing"}},"677225840":{"lat":50.7488654,"lon":19.276615,"ts":"2019-03-16T11:27:58Z","tz":1,"tags":{"height":"18","leisure":"climbing","name":"Ganek Ewy","natural":"cliff","rock":"limestone","source":"knowledge","sport":"climbing"}},"677225841":{"lat":50.7487874,"lon":19.276577,"ts":"2019-03-16T11:27:58Z","tz":1,"tags":{"climbing:bolted":"yes","climbing:grade:polish:max":"VI.2+","climbing:grade:polish:min":"III","climbing:length":"18","climbing:quality":"solid","climbing:rock":"limestone","climbing:routes":"13","climbing:sport":"yes","climbing:trad":"yes","height":"20","name":"Ganek Ewy","natural":"bare_rock","rock":"limestone","source":"knowledge","sport":"climbing"}},"677225843":{"lat":50.7491024,"lon":19.2772389,"ts":"2019-03-16T11:27:59Z","tz":1,"tags":{"height":"13","leisure":"climbing","name":"Skrajny Filarek","natural":"cliff","rock":"limestone","source":"knowledge","sport":"climbing"}},"677225844":{"lat":50.7490742,"lon":19.2772259,"ts":"2019-03-16T11:27:59Z","tz":1,"tags":{"climbing:bolted":"yes","climbing:grade:polish:max":"VI.3","climbing:grade:polish:min":"III","climbing:length":"13","climbing:quality":"solid","climbing:rock":"limestone","climbing:routes":"12","climbing:sport":"yes","climbing:trad":"yes","height":"14","name":"Skrajny Filarek","natural":"bare_rock","rock":"limestone","source":"knowledge","sport":"climbing"}},"677225845":{"lat":50.7488644,"lon":19.2768049,"ts":"2019-03-16T11:27:59Z","tz":1,"tags":{"height":"18","leisure":"climbing","name":"Pusta Turnia","natural":"cliff","rock":"limestone","source":"knowledge","sport":"climbing"}},"677225846":{"lat":50.7488054,"lon":19.2768782,"ts":"2019-03-16T11:27:59Z","tz":1,"tags":{"climbing:bolted":"yes","climbing:grade:polish:max":"VI.4+","climbing:grade:polish:min":"III","climbing:length":"18","climbing:quality":"solid","climbing:rock":"limestone","climbing:routes":"15","climbing:sport":"yes","climbing:trad":"yes","height":"18","name":"Pusta Turnia","natural":"bare_rock","rock":"limestone","source":"knowledge","sport":"climbing"}},"677225851":{"lat":50.7483733,"lon":19.2773301,"ts":"2019-03-16T11:28:00Z","tz":1,"tags":{"height":"6","leisure":"climbing","name":"Kazalniczka","natural":"cliff","rock":"limestone","source":"knowledge","sport":"climbing"}},"677225852":{"lat":50.74834,"lon":19.2772992,"ts":"2019-03-16T11:28:00Z","tz":1,"tags":{"height":"7","leisure":"climbing","name":"Kazalniczka","natural":"cliff","rock":"limestone","source":"knowledge","sport":"climbing"}},"677225853":{"lat":50.7483593,"lon":19.2772721,"ts":"2019-03-16T11:28:00Z","tz":1,"tags":{"climbing:grade:polish:max":"VI.2","climbing:grade:polish:min":"III","climbing:length":"7","climbing:quality":"solid","climbing:rock":"limestone","climbing:routes":"3","climbing:trad":"yes","height":"7","name":"Kazalniczka","natural":"bare_rock","rock":"limestone","source":"knowledge","sport":"climbing"}},"677518994":{"lat":50.7371737,"lon":19.271359,"ts":"2019-03-17T22:26:54Z","tz":1,"tags":{"height":"8","leisure":"climbing","name":"Blin","natural":"cliff","rock":"limestone","source":"knowledge","sport":"climbing"}},"677518995":{"lat":50.7371965,"lon":19.2713608,"ts":"2019-03-17T22:26:54Z","tz":1,"tags":{"climbing:bolted":"yes","climbing:grade:polish:max":"VI.2+","climbing:grade:polish:min":"IV","climbing:length":"8","climbing:quality":"solid","climbing:rock":"limestone","climbing:routes":"5","climbing:sport":"yes","climbing:trad":"yes","height":"8","name":"Blin","natural":"bare_rock","rock":"limestone","source":"knowledge","sport":"climbing"}},"677518996":{"lat":50.7373689,"lon":19.270896,"ts":"2019-03-17T22:26:55Z","tz":1,"tags":{"height":"10","leisure":"climbing","name":"Z Jałowcem","natural":"cliff","rock":"limestone","source":"knowledge","sport":"climbing"}},"677518997":{"lat":50.7373549,"lon":19.2709012,"ts":"2019-03-17T22:26:55Z","tz":1,"tags":{"climbing:bolted":"yes","climbing:grade:polish:max":"VI.3","climbing:grade:polish:min":"V+","climbing:length":"10","climbing:quality":"solid","climbing:rock":"limestone","climbing:routes":"7","climbing:sport":"yes","climbing:trad":"yes","height":"10","name":"Z Jałowcem","natural":"bare_rock","rock":"limestone","source":"knowledge","sport":"climbing"}},"677518998":{"lat":50.737623,"lon":19.2708171,"ts":"2019-03-17T22:26:55Z","tz":1,"tags":{"height":"8","leisure":"climbing","name":"Okręt","natural":"cliff","rock":"limestone","source":"knowledge","sport":"climbing"}},"677518999":{"lat":50.7376478,"lon":19.2708055,"ts":"2019-03-17T22:26:55Z","tz":1,"tags":{"climbing:bolted":"yes","climbing:grade:polish:max":"VI.3","climbing:grade:polish:min":"IV","climbing:length":"8","climbing:quality":"solid","climbing:rock":"limestone","climbing:routes":"6","climbing:sport":"yes","climbing:trad":"yes","height":"8","name":"Okręt","natural":"bare_rock","rock":"limestone","source":"knowledge","sport":"climbing"}},"677519000":{"lat":50.737747,"lon":19.2714568,"ts":"2019-03-17T22:26:56Z","tz":1,"tags":{"height":"20","leisure":"climbing","name":"Sfinks","natural":"cliff","rock":"limestone","source":"knowledge","sport":"climbing"}},"677519001":{"lat":50.7377282,"lon":19.2715305,"ts":"2019-03-17T22:26:56Z","tz":1,"tags":{"climbing:bolted":"yes","climbing:grade:polish:max":"VI.4+","climbing:grade:polish:min":"IV","climbing:length":"20","climbing:quality":"solid","climbing:rock":"limestone","climbing:routes":"11","climbing:sport":"yes","climbing:trad":"yes","height":"20","name":"Sfinks","natural":"bare_rock","rock":"limestone","source":"knowledge","sport":"climbing"}},"677519002":{"lat":50.7379915,"lon":19.2715543,"ts":"2019-03-17T22:26:56Z","tz":1,"tags":{"height":"20","leisure":"climbing","name":"Biakło","natural":"cliff","rock":"limestone","source":"knowledge","sport":"climbing"}},"677519003":{"lat":50.7379907,"lon":19.2715928,"ts":"2019-03-17T22:26:56Z","tz":1,"tags":{"climbing:bolted":"yes","climbing:grade:polish:max":"VI.3+","climbing:grade:polish:min":"III","climbing:length":"20","climbing:quality":"solid","climbing:rock":"limestone","climbing:routes":"23","climbing:sport":"yes","climbing:trad":"yes","height":"20","name":"Biakło","natural":"bare_rock","rock":"limestone","source":"knowledge","sport":"climbing"}},"677519004":{"lat":50.7382675,"lon":19.2722815,"ts":"2019-03-17T22:26:56Z","tz":1,"tags":{"height":"8","leisure":"climbing","name":"Mnich","natural":"cliff","rock":"limestone","source":"knowledge","sport":"climbing"}},"677519005":{"lat":50.7382678,"lon":19.2723219,"ts":"2019-03-17T22:26:57Z","tz":1,"tags":{"climbing:bolted":"yes","climbing:grade:polish:max":"VI.1","climbing:grade:polish:min":"IV","climbing:length":"8","climbing:quality":"solid","climbing:rock":"limestone","climbing:routes":"8","climbing:sport":"yes","climbing:trad":"yes","height":"8","name":"Mnich","natural":"bare_rock","rock":"limestone","source":"knowledge","sport":"climbing"}},"677519006":{"lat":50.7384506,"lon":19.2712342,"ts":"2019-03-17T22:26:57Z","tz":1,"tags":{"height":"10","leisure":"climbing","name":"Grab","natural":"cliff","rock":"limestone","source":"knowledge","sport":"climbing"}},"677519007":{"lat":50.7384356,"lon":19.2712987,"ts":"2019-03-17T22:26:57Z","tz":1,"tags":{"climbing:bolted":"yes","climbing:grade:polish:max":"VI+","climbing:grade:polish:min":"III","climbing:length":"10","climbing:quality":"solid","climbing:rock":"limestone","climbing:routes":"5","climbing:sport":"yes","climbing:trad":"yes","height":"10","name":"Grab","natural":"bare_rock","rock":"limestone","source":"knowledge","sport":"climbing"}},"677519013":{"lat":50.7415023,"lon":19.2706276,"ts":"2019-03-17T22:26:58Z","tz":1,"tags":{"height":"8","leisure":"climbing","name":"Grzybki","natural":"cliff","rock":"limestone","source":"knowledge","sport":"climbing"}},"677519014":{"lat":50.7414993,"lon":19.2706427,"ts":"2019-03-17T22:26:58Z","tz":1,"tags":{"climbing:grade:polish:max":"VI.2","climbing:grade:polish:min":"IV","climbing:length":"8","climbing:quality":"solid","climbing:rock":"limestone","climbing:routes":"11","climbing:trad":"yes","height":"8","name":"Grzybki","natural":"bare_rock","rock":"limestone","source":"knowledge","sport":"climbing"}},"677519016":{"lat":50.7416587,"lon":19.2715117,"ts":"2019-03-17T22:26:58Z","tz":1,"tags":{"height":"10","leisure":"climbing","name":"Płetwa","natural":"cliff","rock":"limestone","source":"knowledge","sport":"climbing"}},"677519017":{"lat":50.7416441,"lon":19.2715117,"ts":"2019-03-17T22:26:58Z","tz":1,"tags":{"climbing:bolted":"yes","climbing:grade:polish:max":"VI.4","climbing:grade:polish:min":"IV","climbing:length":"10","climbing:quality":"solid","climbing:rock":"limestone","climbing:routes":"13","climbing:sport":"yes","height":"10","name":"Płetwa","natural":"bare_rock","rock":"limestone","source":"knowledge","sport":"climbing"}},"677519018":{"lat":50.7416074,"lon":19.2718184,"ts":"2019-03-17T22:26:58Z","tz":1,"tags":{"height":"8","leisure":"climbing","name":"Deska","natural":"cliff","rock":"limestone","source":"knowledge","sport":"climbing"}},"677519019":{"lat":50.7415603,"lon":19.2719535,"ts":"2019-03-17T22:26:58Z","tz":1,"tags":{"climbing:bolted":"yes","climbing:grade:polish:max":"VI+","climbing:grade:polish:min":"VI+","climbing:length":"8","climbing:quality":"fragile","climbing:rock":"limestone","climbing:routes":"1","climbing:sport":"yes","height":"8","name":"Deska","natural":"bare_rock","rock":"limestone","source":"knowledge","sport":"climbing"}},"677519021":{"lat":50.7417831,"lon":19.2723909,"ts":"2019-03-17T22:26:59Z","tz":1,"tags":{"height":"18","leisure":"climbing","name":"Urwista Turnia","natural":"cliff","rock":"limestone","source":"knowledge","sport":"climbing"}},"677519022":{"lat":50.7417819,"lon":19.2724328,"ts":"2022-09-08T16:13:51Z","tz":1,"tags":{"climbing:bolted":"yes","climbing:grade:polish:max":"VI.2+","climbing:grade:polish:min":"IV","climbing:length":"18","climbing:quality":"solid","climbing:rock":"limestone","climbing:routes":"14","climbing:sport":"yes","height":"18","name":"Urwista Turnia","natural":"bare_rock","rock":"limestone","source":"knowledge","sport":"climbing","wikimedia_commons":"File:Olsztyn castle & Urwista Turnia 2021.jpg"}},"677519024":{"lat":50.7420571,"lon":19.2729356,"ts":"2019-03-17T22:26:59Z","tz":1,"tags":{"height":"10","leisure":"climbing","name":"Podcięta Turnia","natural":"cliff","rock":"limestone","source":"knowledge","sport":"climbing"}},"677519025":{"lat":50.7420387,"lon":19.2730089,"ts":"2019-03-17T22:26:59Z","tz":1,"tags":{"climbing:bolted":"yes","climbing:grade:polish:max":"VI.3+","climbing:grade:polish:min":"VI","climbing:length":"10","climbing:quality":"solid","climbing:rock":"limestone","climbing:routes":"9","climbing:sport":"yes","height":"12","name":"Podcięta Turnia","natural":"bare_rock","rock":"limestone","source":"knowledge","sport":"climbing"}},"825437439":{"lat":50.7424403,"lon":19.2668857,"ts":"2020-08-31T04:27:19Z","tz":1,"tags":{"addr:city":"Olsztyn","addr:housenumber":"45","addr:postcode":"42-256","addr:street":"Kazimierza Kühna","landuse":"recreation_ground","leisure":"sports_centre","name":"Park Linowy Jura","phone":"+48 501 490 203","sport":"climbing","website":"http://parklinowyjura.pl/"}},"2183443040":{"lat":50.8203633,"lon":19.143512,"ts":"2015-06-25T20:45:47Z","tz":1,"tags":{"addr:city":"Częstochowa","addr:housenumber":"12","addr:postcode":"42-202","addr:street":"Drogowców","leisure":"sports_centre","name":"Scout Centrum sportowo - rekreacyjne","source":"e.czestochowa.pl","sport":"climbing"}}}