{"1588392462":{"lat":-32.1620403,"lon":19.0272067,"ts":"2018-10-19T18:14:37Z","tz":2,"tags":{"climbing":"crag","climbing:boulder":"yes","name":"Cedar Spine","natural":"stone","sport":"climbing"}},"1593479339":{"lat":-32.1209888,"lon":19.0710183,"ts":"2012-01-16T19:39:57Z","tz":2,"tags":{"name":"Kiesel","natural":"stone","sport":"climbing","tourism":"attraction"}},"1593479370":{"lat":-32.1213695,"lon":19.0714384,"ts":"2012-05-02T18:49:48Z","tz":2,"tags":{"name":"Dirty Lies","natural":"stone","sport":"climbing","tourism":"attraction"}},"1601477712":{"lat":-32.057754,"lon":19.024673,"ts":"2012-05-02T14:37:39Z","tz":2,"tags":{"name":"Sassies Bouldering","sport":"climbing","tourism":"attraction"}},"1602196144":{"lat":-32.154268,"lon":19.0321183,"ts":"2018-10-19T17:57:44Z","tz":2,"tags":{"climbing":"crag","climbing:boulder":"yes","name":"Wild West Wall","natural":"stone","sport":"climbing"}},"1738294058":{"lat":-32.1116089,"lon":19.0686107,"ts":"2017-09-10T16:23:30Z","tz":2,"tags":{"name":"Slash & Burn","natural":"stone","sport":"climbing","tourism":"attraction"}},"1738295046":{"lat":-32.1099119,"lon":19.0679368,"ts":"2012-05-02T14:11:00Z","tz":2,"tags":{"name":"Human Energy","natural":"stone","sport":"climbing","tourism":"attraction"}},"1738295052":{"lat":-32.1100254,"lon":19.0691728,"ts":"2012-05-02T13:54:52Z","tz":2,"tags":{"name":"Arch","natural":"stone","sport":"climbing","tourism":"attraction"}},"1738295053":{"lat":-32.1128398,"lon":19.0691209,"ts":"2012-05-02T13:54:52Z","tz":2,"tags":{"name":"Castle","natural":"stone","sport":"climbing","tourism":"attraction"}},"1738324356":{"lat":-32.1084257,"lon":19.069139,"ts":"2012-05-02T14:14:15Z","tz":2,"tags":{"name":"Orange","natural":"stone","sport":"climbing","tourism":"attraction"}},"1738324360":{"lat":-32.108921,"lon":19.0679803,"ts":"2012-05-02T14:14:16Z","tz":2,"tags":{"name":"Girl on Our Mind","natural":"stone","sport":"climbing","tourism":"attraction"}},"1738324363":{"lat":-32.109071,"lon":19.0704855,"ts":"2012-05-02T14:14:16Z","tz":2,"tags":{"name":"Minki","natural":"stone","sport":"climbing","tourism":"attraction"}},"1738324369":{"lat":-32.1085745,"lon":19.0691446,"ts":"2012-05-02T14:14:16Z","tz":2,"tags":{"name":"Whopper","natural":"stone","sport":"climbing","tourism":"attraction"}},"1738347930":{"lat":-32.1408679,"lon":18.9880416,"ts":"2018-10-19T17:53:53Z","tz":2,"tags":{"climbing":"crag","climbing:boulder":"yes","name":"Wailing Wall","natural":"stone","sport":"climbing"}},"1738347931":{"lat":-32.1408497,"lon":18.987135,"ts":"2018-10-19T17:53:53Z","tz":2,"tags":{"climbing":"crag","climbing:boulder":"yes","name":"Mazda Clan","natural":"stone","sport":"climbing"}},"1738347932":{"lat":-32.1407223,"lon":18.9889321,"ts":"2018-10-19T17:53:53Z","tz":2,"tags":{"climbing":"crag","climbing:boulder":"yes","name":"Baboon Roof","natural":"stone","sport":"climbing"}},"1738347933":{"lat":-32.1383144,"lon":18.9874202,"ts":"2018-10-19T17:53:53Z","tz":2,"tags":{"climbing":"crag","climbing:boulder":"yes","name":"Dragonfly Traverse","natural":"stone","sport":"climbing"}},"1743453527":{"lat":-32.0805841,"lon":19.0572928,"ts":"2012-05-06T19:40:21Z","tz":2,"tags":{"name":"Vanity","natural":"stone","sport":"climbing","tourism":"attraction"}},"1743453551":{"lat":-32.0814011,"lon":19.0544636,"ts":"2012-05-06T19:40:22Z","tz":2,"tags":{"name":"Snake","natural":"stone","sport":"climbing","tourism":"attraction"}},"1743453558":{"lat":-32.0810886,"lon":19.0564508,"ts":"2012-09-17T08:39:50Z","tz":2,"tags":{"name":"AG","natural":"stone","sport":"climbing","tourism":"attraction"}},"1743453559":{"lat":-32.0817977,"lon":19.0563537,"ts":"2012-05-06T19:40:22Z","tz":2,"tags":{"name":"Finders Keepers","natural":"stone","sport":"climbing","tourism":"attraction"}},"1761228247":{"lat":-32.1383799,"lon":19.0073805,"ts":"2018-10-19T17:57:44Z","tz":2,"tags":{"climbing":"crag","climbing:boulder":"yes","name":"Sproing","natural":"stone","sport":"climbing"}},"1761228248":{"lat":-32.1377171,"lon":19.0056854,"ts":"2018-10-19T17:57:44Z","tz":2,"tags":{"climbing":"crag","climbing:boulder":"yes","name":"Pale Rider","natural":"stone","sport":"climbing"}},"1761228273":{"lat":-32.1396063,"lon":19.0078204,"ts":"2018-10-19T17:57:44Z","tz":2,"tags":{"climbing":"crag","climbing:boulder":"yes","name":"The Woody","natural":"stone","sport":"climbing"}},"1775853253":{"lat":-32.1371901,"lon":18.9973954,"ts":"2018-10-19T17:53:54Z","tz":2,"tags":{"climbing":"crag","climbing:boulder":"yes","name":"Kingdom","natural":"stone","sport":"climbing"}},"1775854499":{"lat":-32.1365226,"lon":18.9977461,"ts":"2018-10-19T17:53:53Z","tz":2,"tags":{"climbing":"crag","climbing:boulder":"yes","name":"Egg Files","natural":"stone","sport":"climbing"}},"1775854500":{"lat":-32.1364273,"lon":18.9973331,"ts":"2018-10-19T17:53:53Z","tz":2,"tags":{"climbing":"crag","climbing:boulder":"yes","name":"Schanntall","natural":"stone","sport":"climbing"}},"1845655922":{"lat":-32.0791522,"lon":19.0531647,"ts":"2012-07-31T16:49:52Z","tz":2,"tags":{"name":"Silky Natural","natural":"stone","sport":"climbing","tourism":"attraction"}},"1849949555":{"lat":-32.0782112,"lon":19.0227862,"ts":"2018-10-19T18:03:47Z","tz":2,"tags":{"climbing":"crag","climbing:boulder":"yes","name":"Champagne","natural":"stone","sport":"climbing"}},"1849949974":{"lat":-32.0900826,"lon":19.050378,"ts":"2018-10-19T18:03:11Z","tz":2,"tags":{"climbing":"crag","climbing:boulder":"yes","name":"Sky","natural":"stone","sport":"climbing"}},"1849950310":{"lat":-32.0923136,"lon":19.0529849,"ts":"2018-10-19T18:03:10Z","tz":2,"tags":{"climbing":"crag","climbing:boulder":"yes","name":"Hatchling","natural":"stone","sport":"climbing"}},"1849951950":{"lat":-32.0907834,"lon":19.0500986,"ts":"2018-10-19T18:03:11Z","tz":2,"tags":{"climbing":"crag","climbing:boulder":"yes","name":"Fin","natural":"stone","sport":"climbing"}},"1849951960":{"lat":-32.0906602,"lon":19.0502555,"ts":"2018-10-19T18:03:11Z","tz":2,"tags":{"climbing":"crag","climbing:boulder":"yes","name":"Self-Shadow","natural":"stone","sport":"climbing"}},"1849954817":{"lat":-32.15694,"lon":19.0357419,"ts":"2018-10-19T17:57:44Z","tz":2,"tags":{"climbing":"crag","climbing:boulder":"yes","name":"Rhino","natural":"stone","sport":"climbing"}},"1849955230":{"lat":-32.1493436,"lon":19.0213217,"ts":"2018-10-19T17:57:44Z","tz":2,"tags":{"climbing":"crag","climbing:boulder":"yes","name":"Frenchside","natural":"stone","sport":"climbing"}},"1849955432":{"lat":-32.1503991,"lon":19.0113503,"ts":"2018-10-19T17:57:44Z","tz":2,"tags":{"climbing":"crag","climbing:boulder":"yes","name":"Otherside","natural":"stone","sport":"climbing"}},"1849956818":{"lat":-32.1158566,"lon":19.0682635,"ts":"2018-10-19T18:03:10Z","tz":2,"tags":{"climbing":"crag","climbing:boulder":"yes","name":"Roadkill Cafe","natural":"stone","sport":"climbing"}},"1855638416":{"lat":-32.0796198,"lon":19.0500995,"ts":"2012-08-07T14:22:26Z","tz":2,"tags":{"name":"Ian's Roof","natural":"stone","sport":"climbing","tourism":"attraction"}},"1855648567":{"lat":-32.0830153,"lon":19.053498,"ts":"2012-08-07T14:33:28Z","tz":2,"tags":{"name":"Maneater","natural":"stone","sport":"climbing","tourism":"attraction"}},"1914125877":{"lat":-32.1487024,"lon":19.0212549,"ts":"2018-10-19T17:57:44Z","tz":2,"tags":{"climbing":"crag","climbing:boulder":"yes","name":"French Side Roof","natural":"stone","sport":"climbing"}},"1914125878":{"lat":-32.1487864,"lon":19.0209209,"ts":"2018-10-19T17:57:44Z","tz":2,"tags":{"climbing":"crag","climbing:boulder":"yes","name":"Scorpion Cave","natural":"stone","sport":"climbing"}},"1918260751":{"lat":-32.0833091,"lon":19.0554175,"ts":"2012-09-17T07:30:47Z","tz":2,"tags":{"name":"A","natural":"stone","sport":"climbing","tourism":"attraction"}},"1918260757":{"lat":-32.0833296,"lon":19.0547925,"ts":"2012-09-17T07:30:48Z","tz":2,"tags":{"name":"C","natural":"stone","sport":"climbing","tourism":"attraction"}},"1918381171":{"lat":-32.0791399,"lon":19.0552554,"ts":"2012-09-17T08:42:40Z","tz":2,"tags":{"name":"The Cap","natural":"stone","sport":"climbing","tourism":"attraction"}},"1918381172":{"lat":-32.0783622,"lon":19.0570546,"ts":"2012-09-17T08:42:40Z","tz":2,"tags":{"name":"Solitude","natural":"stone","sport":"climbing","tourism":"attraction"}},"1918381174":{"lat":-32.0792548,"lon":19.0554319,"ts":"2012-09-17T08:42:40Z","tz":2,"tags":{"name":"All In","natural":"stone","sport":"climbing","tourism":"attraction"}},"1918381178":{"lat":-32.0794708,"lon":19.056132,"ts":"2012-09-17T08:42:40Z","tz":2,"tags":{"name":"Megalo","natural":"stone","sport":"climbing","tourism":"attraction"}},"1931846897":{"lat":-32.1647893,"lon":19.0369197,"ts":"2018-10-19T17:59:27Z","tz":2,"tags":{"climbing":"crag","climbing:boulder":"yes","name":"Cedar Rouge","natural":"stone","sport":"climbing"}},"1931846924":{"lat":-32.1645408,"lon":19.0369895,"ts":"2018-10-19T17:59:27Z","tz":2,"tags":{"climbing":"crag","climbing:boulder":"yes","name":"Black Spider","natural":"stone","sport":"climbing"}},"1931846933":{"lat":-32.1646304,"lon":19.0367387,"ts":"2018-10-19T17:59:27Z","tz":2,"tags":{"climbing":"crag","climbing:boulder":"yes","name":"Black Eagle","natural":"stone","sport":"climbing"}},"1931846939":{"lat":-32.1648859,"lon":19.0365529,"ts":"2018-10-19T17:59:27Z","tz":2,"tags":{"climbing":"crag","climbing:boulder":"yes","name":"Black Labour","natural":"stone","sport":"climbing"}},"1931846940":{"lat":-32.1647825,"lon":19.0355303,"ts":"2018-10-19T17:59:27Z","tz":2,"tags":{"climbing":"crag","climbing:boulder":"yes","name":"Plasma Wall","natural":"stone","sport":"climbing"}},"1931846942":{"lat":-32.1647114,"lon":19.0352107,"ts":"2018-10-19T17:59:28Z","tz":2,"tags":{"climbing":"crag","climbing:boulder":"yes","name":"Sun Block","natural":"stone","sport":"climbing"}},"1931853360":{"lat":-32.1636336,"lon":19.0364416,"ts":"2018-10-19T17:59:27Z","tz":2,"tags":{"climbing":"crag","climbing:boulder":"yes","name":"Sunset Traverse","natural":"stone","sport":"climbing"}},"1931899227":{"lat":-32.0925184,"lon":19.0519718,"ts":"2018-10-19T18:03:11Z","tz":2,"tags":{"climbing":"crag","climbing:boulder":"yes","name":"Red Castle","natural":"stone","sport":"climbing"}},"1931903870":{"lat":-32.1568607,"lon":19.0361106,"ts":"2018-10-19T17:57:45Z","tz":2,"tags":{"climbing":"crag","climbing:boulder":"yes","name":"B","natural":"stone","sport":"climbing"}},"1931903873":{"lat":-32.1568199,"lon":19.03612,"ts":"2018-10-19T17:57:45Z","tz":2,"tags":{"climbing":"crag","climbing:boulder":"yes","name":"C","natural":"stone","sport":"climbing"}},"1931903875":{"lat":-32.1570241,"lon":19.0376421,"ts":"2018-10-19T18:00:32Z","tz":2,"tags":{"climbing":"crag","climbing:boulder":"yes","name":"D","natural":"stone","sport":"climbing"}},"4344044366":{"lat":-32.1361547,"lon":18.9962672,"ts":"2018-10-19T17:53:53Z","tz":2,"tags":{"climbing":"crag","climbing:boulder":"yes","name":"Mr Pink Boulder","natural":"stone","sport":"climbing"}},"5709045025":{"lat":-32.0831308,"lon":19.0550231,"ts":"2018-06-21T14:59:34Z","tz":2,"tags":{"name":"Derailed","sport":"climbing"}},"5709046567":{"lat":-32.1417606,"lon":18.9870414,"ts":"2018-10-19T17:53:53Z","tz":2,"tags":{"climbing":"crag","climbing:boulder":"yes","name":"Riverside Arch","sport":"climbing"}},"5731766589":{"lat":-32.1204447,"lon":19.0711107,"ts":"2018-07-01T08:32:38Z","tz":2,"tags":{"name":"Maniac","sport":"climbing"}},"5760275095":{"lat":-32.100857,"lon":19.0643661,"ts":"2018-07-14T13:25:42Z","tz":2,"tags":{"name":"Paddington Bear","sport":"climbing"}},"5760275930":{"lat":-32.1010394,"lon":19.0645033,"ts":"2018-07-14T13:25:41Z","tz":2,"tags":{"name":"South African Railways","sport":"climbing"}},"5760275931":{"lat":-32.1006478,"lon":19.0639162,"ts":"2018-07-14T13:25:43Z","tz":2,"tags":{"name":"Finnish Line","sport":"climbing"}},"5760276172":{"lat":-32.1009356,"lon":19.0645056,"ts":"2018-07-14T13:25:42Z","tz":2,"tags":{"name":"Distance","sport":"climbing"}},"5998689225":{"lat":-32.1376769,"lon":19.0023716,"ts":"2018-10-19T17:57:44Z","tz":2,"tags":{"climbing":"crag","climbing:boulder":"yes","name":"Teapot Rock","natural":"stone","sport":"climbing"}},"5998689226":{"lat":-32.1380122,"lon":19.0034866,"ts":"2018-10-19T17:57:44Z","tz":2,"tags":{"climbing":"crag","climbing:boulder":"yes","name":"Jon Denver","natural":"stone","sport":"climbing"}},"7823289322":{"lat":-32.0799362,"lon":19.0987322,"ts":"2020-08-18T13:45:39Z","tz":2,"tags":{"name":"Danger Zone Bouldering","sport":"climbing","tourism":"attraction"}},"9953363185":{"lat":-32.1612398,"lon":19.0360335,"ts":"2022-08-14T20:12:17Z","tz":2,"tags":{"climbing":"crag","climbing:boulder":"yes","name":"The Island","natural":"stone","sport":"climbing"}}}