{"216440815":{"lat":-33.2283797,"lon":19.3072899,"ts":"2020-02-25T08:32:01Z","tz":2,"tags":{"climbing":"bouldering","name":"2L Bottle","natural":"rock","sport":"climbing","tourism":"attraction"}},"2229037898":{"lat":-33.2286385,"lon":19.3077978,"ts":"2013-04-03T14:50:05Z","tz":2,"tags":{"climbing":"bouldering","name":"Goldfish","sport":"climbing","tourism":"attraction"}},"2229043711":{"lat":-33.2288452,"lon":19.3078306,"ts":"2013-04-02T14:11:26Z","tz":2,"tags":{"climbing":"bouldering","name":"Coke","sport":"climbing","tourism":"attraction"}},"2229046174":{"lat":-33.2299356,"lon":19.3069948,"ts":"2013-04-02T14:11:26Z","tz":2,"tags":{"climbing":"bouldering","name":"Midnight Monkey","sport":"climbing","tourism":"attraction"}},"2229046574":{"lat":-33.2307949,"lon":19.3071102,"ts":"2013-04-02T14:11:26Z","tz":2,"tags":{"climbing":"bouldering","name":"Ginger Ninja","sport":"climbing","tourism":"attraction"}},"2244945881":{"lat":-33.230306,"lon":19.3054616,"ts":"2013-04-02T14:11:25Z","tz":2,"tags":{"climbing":"bouldering","name":"Jericho","sport":"climbing","tourism":"attraction"}},"2246700420":{"lat":-33.2285644,"lon":19.306041,"ts":"2013-04-03T14:50:04Z","tz":2,"tags":{"climbing":"bouldering","name":"Jaffle","sport":"climbing","tourism":"attraction"}},"2246700423":{"lat":-33.2288309,"lon":19.3065368,"ts":"2013-04-03T14:50:04Z","tz":2,"tags":{"climbing":"bouldering","name":"Sugarman","sport":"climbing","tourism":"attraction"}},"2246700429":{"lat":-33.2286765,"lon":19.3070468,"ts":"2013-04-03T14:50:04Z","tz":2,"tags":{"climbing":"bouldering","name":"Tomorrow","sport":"climbing","tourism":"attraction"}},"2246700435":{"lat":-33.2288493,"lon":19.3075749,"ts":"2013-04-03T14:50:05Z","tz":2,"tags":{"climbing":"bouldering","name":"Titan","sport":"climbing","tourism":"attraction"}},"2246700441":{"lat":-33.2299423,"lon":19.305403,"ts":"2013-04-03T14:50:05Z","tz":2,"tags":{"climbing":"bouldering","name":"Jacket Pocket","sport":"climbing","tourism":"attraction"}},"2246700442":{"lat":-33.2282798,"lon":19.3056499,"ts":"2013-04-03T14:50:05Z","tz":2,"tags":{"climbing":"bouldering","name":"Klap","sport":"climbing","tourism":"attraction"}},"2257854062":{"lat":-33.2286152,"lon":19.3048162,"ts":"2013-04-08T10:23:36Z","tz":2,"tags":{"climbing":"bouldering","name":"The Four","sport":"climbing","tourism":"attraction"}}}