{"1273166170":{"lat":41.8034758,"lon":-77.5472683,"ts":"2024-04-16T18:50:58Z","tz":-5,"tags":{"name":"The John Boulder","natural":"stone","sport":"climbing"}},"1273166171":{"lat":41.8035591,"lon":-77.5473676,"ts":"2024-04-16T18:50:58Z","tz":-5,"tags":{"name":"Campfire Boulder","natural":"stone","sport":"climbing"}},"1273166172":{"lat":41.8036707,"lon":-77.5474291,"ts":"2024-04-16T18:50:58Z","tz":-5,"tags":{"area":"yes","name":"The Main Attraction","natural":"cliff","sport":"climbing"}},"1273166173":{"lat":41.8040885,"lon":-77.5474486,"ts":"2024-04-16T18:50:58Z","tz":-5,"tags":{"area":"yes","name":"Aider's Rock","natural":"cliff","sport":"climbing"}},"1273166174":{"lat":41.8038397,"lon":-77.5472405,"ts":"2024-04-16T18:50:58Z","tz":-5,"tags":{"natural":"cliff","sport":"climbing"}},"1273166175":{"lat":41.8042564,"lon":-77.5474613,"ts":"2024-04-16T18:50:58Z","tz":-5,"tags":{"name":"The Vila Boulder","natural":"stone","sport":"climbing"}},"1273166176":{"lat":41.8038468,"lon":-77.5474232,"ts":"2024-04-16T18:50:58Z","tz":-5,"tags":{"name":"Ship Rock","natural":"stone","sport":"climbing"}},"10224678355":{"lat":41.8038806,"lon":-77.5475312,"ts":"2024-04-16T19:04:38Z","tz":-5,"tags":{"climbing:boulder":"yes","climbing:sport":"yes","climbing:toprope":"yes","climbing:traditional":"yes","climbing:url:mountainproject":"https://www.mountainproject.com/area/107902808/blue-run-rocks","climbing:url:openbeta":"https://openbeta.io/area/092b0b3e-698e-5dac-b414-3b602ef18134/blue-run-rocks","climbing:url:thecrag":"https://www.thecrag.com/en/climbing/united-states/blue-ridge-run-rocks","name":"Blue Run Rocks","sport":"climbing","url":"https://web.archive.org/web/20160306234922/http%3A//nathanheston.com/bluerunrocks/bluerunrocks.html"}}}