{"45243108":{"lat":48.5048768,"lon":9.2035627,"ts":"2023-12-03T23:11:58Z","tz":1,"tags":{"addr:city":"Reutlingen","addr:country":"DE","addr:housenumber":"65","addr:postcode":"72760","addr:street":"Rommelsbacher Straße","building":"sports_hall","charge":"14,50 EUR","check_date":"2023-12-04","climbing:boulder":"yes","climbing:length":"15","climbing:sport":"yes","email":"info@kletterzentrum-reutlingen.de","fee":"yes","is_in":"Reutlingen","leisure":"sports_centre","name":"DAV Kletterzentrum","opening_hours":"Mo-Tu,Th-Fr 13:00-23:00; We 09:30-23:00; Sa-Su 10:00-22:00","payment:cash":"yes","payment:girocard":"yes","payment:mastercard":"yes","payment:visa":"yes","phone":"+49 7121 9885564","sport":"climbing","survey:date":"2020-09-16","website":"https://www.kletterzentrum-reutlingen.de/","wheelchair":"no"}},"198133856":{"lat":48.5457809,"lon":9.2814671,"ts":"2024-12-28T09:30:44Z","tz":1,"tags":{"addr:city":"Metzingen","addr:country":"DE","addr:housenumber":"49","addr:postcode":"72555","addr:street":"Max-Eyth-Straße","building":"church","building:use":"sport","climbing:boulder":"no","climbing:sport":"yes","climbing:toprope":"yes","contact:website":"http://www.h3metzingen.de","email":"info@h3metzingen.de","indoor":"yes","leisure":"sports_centre","name":"H3 Kletteranlage Metzingen","note:building":"umgebaute Kirche","opening_hours":"Mo-We 18:00-22:00; Su 15:00-21:00","operator":"H3 Kletteranlage Metzingen e.V.","operator:type":"religious","operator:website":"https://emk-metzingen.de","outdoor":"no","phone":"+49 7123 3078634","roof:material":"roof_tiles","roof:shape":"pyramidal","sport":"climbing","strapline":"Hochklettern,\nHerunterkommen,\nHalt finden"}},"213451875":{"lat":48.4696024,"lon":9.4232899,"ts":"2018-03-07T12:20:58Z","tz":1,"tags":{"climbing:bolted":"yes","climbing:sport":"yes","name":"Rechte Wittlinger Felsen","natural":"cliff","sport":"climbing"}},"235999304":{"lat":48.4726382,"lon":9.425765,"ts":"2014-12-28T11:15:59Z","tz":1,"tags":{"access":"destination","climbing:multipitch":"yes","climbing:rock":"limestone","climbing:sport":"yes","name":"Linke Wittlinger Felsen","natural":"cliff","sport":"climbing"}},"263459019":{"lat":48.5526757,"lon":9.4025144,"ts":"2022-08-17T13:09:21Z","tz":1,"tags":{"climbing":"area","fee":"no","name":"Neuffener Parkplatzfelsen","natural":"cliff","sport":"climbing"}},"287891362":{"lat":48.488966,"lon":9.3900118,"ts":"2021-05-29T20:31:14Z","tz":1,"tags":{"climbing:sport":"yes","natural":"cliff","sport":"climbing"}},"288937933":{"lat":48.568664,"lon":9.423749,"ts":"2020-11-19T00:53:02Z","tz":1,"tags":{"name":"Schlupffels","natural":"cliff","sport":"climbing"}},"290002586":{"lat":48.5105008,"lon":9.3240248,"ts":"2020-07-20T09:37:41Z","tz":1,"tags":{"climbing:bolted":"2","climbing:length:max":"30","climbing:length:min":"15","climbing:multipitch":"no","climbing:orientation":"W","climbing:sport":"yes","climbing:toprope":"yes","name":"Rossfels","natural":"cliff","sport":"climbing","wikidata":"Q31525194"}},"290002588":{"lat":48.503243,"lon":9.3227545,"ts":"2021-12-19T17:48:18Z","tz":1,"tags":{"climbing:bolted":"1.5","climbing:length:max":"20","climbing:length:min":"8","climbing:multipitch":"no","climbing:orientation":"W","climbing:rock":"limestone","climbing:sport":"yes","climbing:toprope":"yes","name":"Wiesfels","natural":"cliff","sport":"climbing"}},"293672813":{"lat":48.55449,"lon":9.488704,"ts":"2025-03-10T20:26:09Z","tz":1,"tags":{"name":"Tobelfelsen","natural":"cliff","sport":"climbing"}},"300027485":{"lat":48.4808166,"lon":9.4095478,"ts":"2014-12-28T11:14:35Z","tz":1,"tags":{"climbing:rock":"limestone","climbing:sport":"yes","name":"Kunstmühlefels","natural":"cliff","sport":"climbing"}},"300835295":{"lat":48.5305608,"lon":9.4214869,"ts":"2008-09-29T12:23:38Z","tz":1,"tags":{"name":"Römerstein","sport":"climbing"}},"304228095":{"lat":48.4691208,"lon":9.4105733,"ts":"2014-03-17T10:30:11Z","tz":1,"tags":{"name":"Sirchinger Nadeln","natural":"cliff","sport":"climbing"}},"309690787":{"lat":48.4937673,"lon":9.1962148,"ts":"2024-04-30T22:53:46Z","tz":1,"tags":{"climbing:bolted":"no","climbing:boulder":"yes","climbing:sport":"no","fee":"no","name":"Boulderturm Bösmannsäcker","opening_hours":"24/7","playground":"climbingframe","sport":"climbing","tower:type":"climbing"}},"428758394":{"lat":48.4663689,"lon":9.4168079,"ts":"2021-05-29T20:30:09Z","tz":1,"tags":{"climbing:sport":"yes","name":"Felsen im Hagenstich","natural":"cliff","sport":"climbing"}},"790709670":{"lat":48.5048098,"lon":9.2037209,"ts":"2010-06-26T05:41:31Z","tz":1,"tags":{"sport":"climbing"}},"1366067332":{"lat":48.5427671,"lon":9.4650347,"ts":"2025-03-10T20:45:00Z","tz":1,"tags":{"name":"Tückewand","natural":"cliff","sport":"climbing"}},"2783007590":{"lat":48.5424922,"lon":9.4647049,"ts":"2025-03-10T20:45:00Z","tz":1,"tags":{"name":"Listnadel","natural":"cliff","sport":"climbing"}},"2932912571":{"lat":48.5477008,"lon":9.4852738,"ts":"2014-06-25T14:13:20Z","tz":1,"tags":{"name":"kleiner Wielandstein","natural":"cliff","sport":"climbing"}},"8715267954":{"lat":48.4831401,"lon":9.3929342,"ts":"2022-05-29T17:49:30Z","tz":1,"tags":{"climbing:bolted":"yes","climbing:rock":"limestone","climbing:sport":"yes","name":"Südlicher Hanner Fels","sport":"climbing"}},"8833471880":{"lat":48.5311871,"lon":9.1510286,"ts":"2021-06-14T20:27:49Z","tz":1,"tags":{"access":"permissive","leisure":"sports_centre","name":"Kletterwand Graf-Eberhard-Schule","sport":"climbing"}},"9779703428":{"lat":48.5132807,"lon":9.3500498,"ts":"2022-05-29T17:52:58Z","tz":1,"tags":{"climbing":"boulder","climbing:bolted":"no","climbing:boulder":"yes","climbing:rock":"limestone","climbing:sport":"no","name":"Bänkles-Boulder","natural":"rock","sport":"climbing"}},"10649408463":{"lat":48.4989362,"lon":9.1995626,"ts":"2023-12-03T23:11:58Z","tz":1,"tags":{"addr:city":"Reutlingen","addr:housenumber":"8","addr:postcode":"72760","addr:street":"Schieferstraße","charge":"13 EUR","check_date":"2023-12-04","climbing:boulder":"yes","email":"reutlingen@boulderhaus.com","fee":"yes","indoor":"yes","leisure":"sports_centre","level":"1","name":"Boulderhaus Reutlingen","opening_hours":"09:00-23:00","operator":"boulderhaus GmbH","payment:cash":"yes","payment:girocard":"yes","payment:mastercard":"yes","payment:visa":"yes","sport":"climbing","start_date":"2023-04-03","website":"https://www.boulderhaus.net/","wheelchair":"no"}},"12065296436":{"lat":48.4962035,"lon":9.1542989,"ts":"2024-07-20T21:07:49Z","tz":1,"tags":{"leisure":"sports_hall","name":"Jump Area","operator":"Cabriolo","sport":"climbing"}},"12065296443":{"lat":48.4963176,"lon":9.153838,"ts":"2024-07-20T21:07:49Z","tz":1,"tags":{"leisure":"sports_hall","name":"Clip'n'Climb","operator":"Cabriolo","sport":"climbing"}}}