{"158479179":{"lat":48.3570696,"lon":9.4590193,"ts":"2018-05-07T06:57:08Z","tz":1,"tags":{"leisure":"sports_centre","man_made":"tower","sport":"climbing","tower:type":"climbing"}},"158479182":{"lat":48.3583342,"lon":9.4598748,"ts":"2018-05-07T06:57:08Z","tz":1,"tags":{"leisure":"sports_centre","man_made":"tower","sport":"climbing","tower:type":"climbing"}},"165885981":{"lat":48.3539141,"lon":9.176359,"ts":"2020-07-13T08:20:12Z","tz":1,"tags":{"description":"Hochseilgarten","leisure":"pitch","sport":"climbing"}},"281275407":{"lat":48.458238,"lon":9.4280684,"ts":"2024-08-25T10:18:12Z","tz":1,"tags":{"climbing:bolted":"2","climbing:length:max":"30","climbing:length:min":"10","climbing:multipitch":"yes","climbing:orientation":"W","climbing:quality":"solid","climbing:rock":"limestone","climbing:sport":"yes","climbing:toprope":"no","name":"Geschlitzer Fels","natural":"cliff","sport":"climbing"}},"281297858":{"lat":48.454013,"lon":9.4367459,"ts":"2020-09-11T22:41:11Z","tz":1,"tags":{"climbing:grade:uiaa:max":"8+","climbing:grade:uiaa:mean":"7","climbing:grade:uiaa:min":"5","climbing:rock":"limestone","climbing:sport":"yes","name":"Talsteigefels","natural":"cliff","sport":"climbing"}},"294046156":{"lat":48.4452464,"lon":9.4575227,"ts":"2025-04-04T19:56:20Z","tz":1,"tags":{"climbing:bolted":"yes","climbing:rock":"limestone","climbing:sport":"yes","name":"Burgbergfels","natural":"cliff","sport":"climbing","wikimedia_commons":"File:Burgbergfels.jpg"}},"319227859":{"lat":48.4485736,"lon":9.4443516,"ts":"2020-09-11T22:41:11Z","tz":1,"tags":{"access":"destination","climbing:boulder":"yes","climbing:grade:uiaa:max":"9","climbing:grade:uiaa:mean":"8","climbing:grade:uiaa:min":"5+","climbing:orientation":"NE","climbing:rock":"limestone","climbing:sport":"yes","name":"Spielplatzfels","natural":"cliff","sport":"climbing"}},"319228146":{"lat":48.4467518,"lon":9.4617821,"ts":"2020-09-11T22:41:11Z","tz":1,"tags":{"climbing:grade:uiaa:max":"8","climbing:grade:uiaa:mean":"7+","climbing:grade:uiaa:min":"6-","climbing:rock":"limestone","climbing:sport":"yes","name":"Hofsteigefels","natural":"cliff","sport":"climbing"}},"616257501":{"lat":48.455509,"lon":9.4713273,"ts":"2024-08-14T19:19:23Z","tz":1,"tags":{"ele":"504","name":"Schwanbergfelsen","natural":"cliff","sport":"climbing"}},"806559957":{"lat":48.4489579,"lon":9.2919753,"ts":"2020-05-20T21:32:46Z","tz":1,"tags":{"climbing":"no","natural":"cliff"}},"2273731237":{"lat":48.4559866,"lon":9.428443,"ts":"2014-05-12T10:45:25Z","tz":1,"tags":{"name":"Baldecknadeln","natural":"cliff","sport":"climbing"}},"2273731239":{"lat":48.4572488,"lon":9.4279737,"ts":"2024-08-25T10:18:12Z","tz":1,"tags":{"climbing:bolted":"2","climbing:length:max":"15","climbing:length:min":"8","climbing:multipitch":"no","climbing:orientation":"SW","climbing:quality":"solid","climbing:rock":"limestone","climbing:sport":"yes","climbing:toprope":"no","name":"Hockenlochfels","natural":"cliff","sport":"climbing"}},"2976172023":{"lat":48.4464621,"lon":9.4617568,"ts":"2014-12-28T11:27:49Z","tz":1,"tags":{"climbing:sport":"yes","name":"Schwabenpfeiler","natural":"cliff","sport":"climbing"}},"5826802247":{"lat":48.4558243,"lon":9.4717811,"ts":"2018-08-12T10:38:03Z","tz":1,"tags":{"height":"504","name":"Schwanbergfelsen","natural":"cliff","sport":"climbing"}},"8779567169":{"lat":48.4438509,"lon":9.4430784,"ts":"2021-05-29T20:28:31Z","tz":1,"tags":{"climbing":"boulder","climbing:boulder":"yes","climbing:sport":"no","name":"Feuerwalze","natural":"stone"}}}