{"569238099":{"lat":-37.9427087,"lon":144.4204746,"ts":"2019-04-26T11:00:33Z","tz":10,"tags":{"climbing:length:max":"24","climbing:length:min":"12","climbing:rock":"granite","climbing:sport":"7","climbing:trad":"8","name":"Urinal Wall","natural":"cliff","outdoor":"yes","sport":"climbing","website":"https://www.thecrag.com/climbing/australia/the-you-yangs/area/12831925"}},"569238104":{"lat":-37.9405119,"lon":144.42201,"ts":"2018-03-13T07:46:43Z","tz":10,"tags":{"climbing:rock":"granite","name":"Royalty Walls","natural":"cliff","sport":"climbing","website":"https://www.thecrag.com/climbing/australia/the-you-yangs/area/12832045"}},"686086182":{"lat":-37.9526325,"lon":144.4281378,"ts":"2019-04-26T11:00:32Z","tz":10,"tags":{"climbing:length:max":"32","climbing:length:min":"23","climbing:rock":"granite","name":"Wave Wall","natural":"cliff","outdoor":"yes","sport":"climbing","website":"https://www.thecrag.com/climbing/australia/the-you-yangs/area/2343311802"}},"686086183":{"lat":-37.952821,"lon":144.4280514,"ts":"2019-04-26T11:00:32Z","tz":10,"tags":{"climbing:length:max":"30","climbing:length:min":"18","climbing:rock":"granite","name":"Flinders Peak Slabs","natural":"cliff","outdoor":"yes","sport":"climbing","website":"https://www.thecrag.com/climbing/australia/the-you-yangs/area/2343311802"}},"1313707258":{"lat":-37.8462728,"lon":144.2697483,"ts":"2024-01-28T05:41:59Z","tz":10,"tags":{"name":"Staughton Vale Cliff Face","sport":"climbing","tourism":"viewpoint"}},"4213602380":{"lat":-37.95491,"lon":144.422662,"ts":"2016-05-29T11:15:16Z","tz":10,"tags":{"natural":"cliff","sport":"climbing"}},"8979614248":{"lat":-37.9556272,"lon":144.4123295,"ts":"2021-08-04T10:29:03Z","tz":10,"tags":{"leisure":"sports_centre","sport":"climbing"}},"8979614249":{"lat":-37.9555271,"lon":144.4121063,"ts":"2021-08-04T10:29:03Z","tz":10,"tags":{"leisure":"sports_centre","sport":"climbing"}}}