{"18913935":{"lat":49.1114521,"lon":17.3353603,"ts":"2025-03-30T10:11:06Z","tz":1,"tags":{"climbing":"crag","climbing:restriction":"yes","climbing:restriction:time_description":"Lezení zakázáno 1.1.-31.3.","name":"Hlavní kámen","site":"climbing","sport":"climbing","type":"site","website":"https://www.horosvaz.cz/skaly-skala-425/"}},"18913951":{"lat":49.1114048,"lon":17.3357395,"ts":"2025-03-30T10:14:01Z","tz":1,"tags":{"climbing":"crag","climbing:restriction":"yes","climbing:restriction:time_description":"Lezení zakázáno 1.1.-31.3.","name":"Plotna","site":"climbing","sport":"climbing","type":"site","website":"https://www.horosvaz.cz/skaly-skala-914/"}},"18913955":{"lat":49.1114289,"lon":17.3360197,"ts":"2025-03-30T10:14:33Z","tz":1,"tags":{"climbing":"crag","climbing:restriction":"yes","climbing:restriction:time_description":"Lezení zakázáno 1.1.-31.3.","name":"Východní věžka","site":"climbing","sport":"climbing","type":"site","website":"https://www.horosvaz.cz/skaly-skala-12879/"}},"164110488":{"lat":49.136201,"lon":17.3004755,"ts":"2020-05-09T17:26:48Z","tz":1,"tags":{"climbing":"crag","climbing:bolted":"yes","climbing:boulder":"yes","climbing:rock":"sandstone","climbing:sport":"yes","name":"Buchlovský kámen","natural":"rock","sport":"climbing"}},"186864824":{"lat":49.111465,"lon":17.3355765,"ts":"2019-09-23T14:27:06Z","tz":1,"tags":{"climbing:bolted":"yes","climbing:sport":"yes","height":"15","name":"Břestecká skála","natural":"cliff","source":"uhul:ortofoto","sport":"climbing"}},"805472960":{"lat":49.0432382,"lon":17.4646555,"ts":"2020-05-18T16:21:20Z","tz":1,"tags":{"sport":"climbing"}},"805473057":{"lat":49.043196,"lon":17.4653083,"ts":"2020-05-18T16:21:59Z","tz":1,"tags":{"sport":"climbing"}},"7267292831":{"lat":49.0610894,"lon":17.5171705,"ts":"2020-03-05T19:44:40Z","tz":1,"tags":{"leisure":"sports_centre","name":"lanové centrum","sport":"climbing"}},"12712845019":{"lat":49.1113881,"lon":17.3358938,"ts":"2025-03-30T10:14:01Z","tz":1,"tags":{"author":"V. Rosůlek, M. Janec, A. Komárek, J. Zach, 1954","climbing":"route_bottom","climbing:grade:uiaa":"3","name":"Jižní hrana","sport":"climbing","website":"https://www.horosvaz.cz/skaly-cesta-64949/"}},"12712845020":{"lat":49.1113907,"lon":17.3358701,"ts":"2025-03-30T10:14:01Z","tz":1,"tags":{"author":"V. Rosůlek, M. Janec, A. Komárek, J. Zach, 1954","climbing":"route_bottom","climbing:grade:uiaa":"3","name":"Kout","sport":"climbing","website":"https://www.horosvaz.cz/skaly-cesta-64948/"}},"12712845021":{"lat":49.1113933,"lon":17.3358463,"ts":"2025-03-30T10:14:01Z","tz":1,"tags":{"author":"Spodní část – M. Mendřec, F. Hustáková, 1954 Horní část – M. Janec, V. Rosůlek, 1958","climbing":"route_bottom","climbing:grade:uiaa":"5","name":"Žebírko","sport":"climbing","website":"https://www.horosvaz.cz/skaly-cesta-64947/"}},"12712845022":{"lat":49.1113959,"lon":17.3358226,"ts":"2025-03-30T10:14:01Z","tz":1,"tags":{"author":"M. Janec, 1954","climbing":"route_bottom","climbing:grade:uiaa":"5","name":"Střed plotny","sport":"climbing","website":"https://www.horosvaz.cz/skaly-cesta-64946/"}},"12712845023":{"lat":49.1113984,"lon":17.3357989,"ts":"2025-03-30T10:14:01Z","tz":1,"tags":{"author":"M. Zavřel, M. Rožek, 2002","climbing":"route_bottom","climbing:grade:uiaa":"5+","name":"Varianta","sport":"climbing","website":"https://www.horosvaz.cz/skaly-cesta-64945/"}},"12712845024":{"lat":49.111401,"lon":17.3357751,"ts":"2025-03-30T10:14:01Z","tz":1,"tags":{"author":"M. Zavřel, M. Rožek, 2002","climbing":"route_bottom","climbing:grade:uiaa":"5+","name":"Kokodáč","sport":"climbing","website":"https://www.horosvaz.cz/skaly-cesta-12254/"}},"12712845025":{"lat":49.1114036,"lon":17.3357514,"ts":"2025-03-30T10:14:01Z","tz":1,"tags":{"author":"M. Rožek, 2002","climbing":"route_bottom","climbing:grade:uiaa":"5+","name":"Převisová","sport":"climbing","website":"https://www.horosvaz.cz/skaly-cesta-12255/"}},"12712845026":{"lat":49.1114061,"lon":17.3357276,"ts":"2025-03-30T10:14:01Z","tz":1,"tags":{"author":"A. Hančík, D. Hančíková, 1958","climbing":"route_bottom","climbing:grade:uiaa":"4-","name":"Lámavý žleb","sport":"climbing","website":"https://www.horosvaz.cz/skaly-cesta-64944/"}},"12712845027":{"lat":49.1114087,"lon":17.3357039,"ts":"2025-03-30T10:14:01Z","tz":1,"tags":{"author":"M. Rožek, 2002","climbing":"route_bottom","climbing:grade:uiaa":"6+","name":"Jebková","sport":"climbing","website":"https://www.horosvaz.cz/skaly-cesta-12256/"}},"12712845028":{"lat":49.1114113,"lon":17.3356801,"ts":"2025-03-30T10:14:01Z","tz":1,"tags":{"author":"M. Rožek, 2002","climbing":"route_bottom","climbing:grade:uiaa":"7-","name":"Srpnová kulminace","sport":"climbing","website":"https://www.horosvaz.cz/skaly-cesta-12258/"}},"12712845029":{"lat":49.1114139,"lon":17.3356564,"ts":"2025-03-30T10:14:01Z","tz":1,"tags":{"author":"M. Rožek, 2002","climbing":"route_bottom","climbing:grade:uiaa":"6+","name":"Pšeničná groteska","sport":"climbing","website":"https://www.horosvaz.cz/skaly-cesta-12257/"}},"12712845030":{"lat":49.1114164,"lon":17.3356326,"ts":"2025-03-30T10:14:01Z","tz":1,"tags":{"author":"Autoři neznámí","climbing":"route_bottom","climbing:grade:uiaa":"4","name":"Břestecká","sport":"climbing","website":"https://www.horosvaz.cz/skaly-cesta-12253/"}},"12712845031":{"lat":49.111419,"lon":17.3356089,"ts":"2025-03-30T10:14:01Z","tz":1,"tags":{"author":"Autoři neznámí","climbing":"route_bottom","climbing:grade:uiaa":"4","name":"Přímá","sport":"climbing","website":"https://www.horosvaz.cz/skaly-cesta-12252/"}},"12712845032":{"lat":49.1114216,"lon":17.3355852,"ts":"2025-03-30T10:14:01Z","tz":1,"tags":{"author":"M. Rožek, R. Mikoláš, 2002","climbing":"route_bottom","climbing:grade:uiaa":"5","name":"Mapa Novověku","sport":"climbing","website":"https://www.horosvaz.cz/skaly-cesta-12251/"}},"12712850583":{"lat":49.1114608,"lon":17.335478,"ts":"2025-03-30T10:11:06Z","tz":1,"tags":{"author":"Autoři neznámí","climbing":"route_bottom","climbing:grade:uiaa":"4+","name":"Sokolík","sport":"climbing","website":"https://www.horosvaz.cz/skaly-cesta-6283/"}},"12712850584":{"lat":49.1114589,"lon":17.3354519,"ts":"2025-03-30T10:11:06Z","tz":1,"tags":{"author":"Autoři neznámí","climbing":"route_bottom","climbing:grade:uiaa":"7-","name":"Skotská","sport":"climbing","website":"https://www.horosvaz.cz/skaly-cesta-6282/"}},"12712850585":{"lat":49.111457,"lon":17.3354257,"ts":"2025-03-30T10:11:06Z","tz":1,"tags":{"author":"Autoři neznámí","climbing":"route_bottom","climbing:grade:uiaa":"6","name":"Přepadová","sport":"climbing","website":"https://www.horosvaz.cz/skaly-cesta-6281/"}},"12712850586":{"lat":49.111455,"lon":17.3353996,"ts":"2025-03-30T10:11:06Z","tz":1,"tags":{"author":"Autoři neznámí","climbing":"route_bottom","climbing:grade:uiaa":"6","name":"Vojenská","sport":"climbing","website":"https://www.horosvaz.cz/skaly-cesta-6280/"}},"12712850587":{"lat":49.1114531,"lon":17.3353734,"ts":"2025-03-30T10:11:06Z","tz":1,"tags":{"author":"Autoři neznámí","climbing":"route_bottom","climbing:grade:uiaa":"9-","name":"Síla rozhodnutí","sport":"climbing","website":"https://www.horosvaz.cz/skaly-cesta-6279/"}},"12712850588":{"lat":49.1114512,"lon":17.3353473,"ts":"2025-03-30T10:11:06Z","tz":1,"tags":{"author":"Autoři neznámí","climbing":"route_bottom","climbing:grade:uiaa":"5+","name":"Údolní","sport":"climbing","website":"https://www.horosvaz.cz/skaly-cesta-6278/"}},"12712850589":{"lat":49.1114492,"lon":17.3353211,"ts":"2025-03-30T10:11:06Z","tz":1,"tags":{"author":"Autoři neznámí","climbing":"route_bottom","climbing:grade:uiaa":"7+","name":"Katmai","sport":"climbing","website":"https://www.horosvaz.cz/skaly-cesta-6277/"}},"12712850590":{"lat":49.1114473,"lon":17.335295,"ts":"2025-03-30T10:11:06Z","tz":1,"tags":{"author":"Autoři neznámí","climbing":"route_bottom","climbing:grade:uiaa":"9-","name":"Greenboys","sport":"climbing","website":"https://www.horosvaz.cz/skaly-cesta-6276/"}},"12712850591":{"lat":49.1114454,"lon":17.3352688,"ts":"2025-03-30T10:11:06Z","tz":1,"tags":{"author":"Autoři neznámí","climbing":"route_bottom","climbing:grade:uiaa":"9+","name":"Lednová neděle","sport":"climbing","website":"https://www.horosvaz.cz/skaly-cesta-6275/"}},"12712850592":{"lat":49.1114434,"lon":17.3352427,"ts":"2025-03-30T10:11:06Z","tz":1,"tags":{"author":"Autoři neznámí","climbing":"route_bottom","climbing:grade:uiaa":"8-","name":"Wolfův revír","sport":"climbing","website":"https://www.horosvaz.cz/skaly-cesta-6274/"}},"12712855769":{"lat":49.1114567,"lon":17.3360756,"ts":"2025-03-30T10:14:33Z","tz":1,"tags":{"author":"Autoři neznámí","climbing":"route_bottom","climbing:grade:uiaa":"4","name":"Východní stěnka","sport":"climbing","website":"https://www.horosvaz.cz/skaly-cesta-64955/"}},"12712855770":{"lat":49.1114444,"lon":17.3360536,"ts":"2025-03-30T10:14:33Z","tz":1,"tags":{"author":"Autoři neznámí","climbing":"route_bottom","climbing:grade:uiaa":"4","name":"Jihovýchodní hrana","sport":"climbing","website":"https://www.horosvaz.cz/skaly-cesta-64954/"}},"12712855771":{"lat":49.111431,"lon":17.336036,"ts":"2025-03-30T10:14:33Z","tz":1,"tags":{"author":"V. Wolf, 2002","climbing":"route_bottom","climbing:grade:uiaa":"8-","name":"Wolfův revír","sport":"climbing","website":"https://www.horosvaz.cz/skaly-cesta-64953/"}},"12712855772":{"lat":49.1114176,"lon":17.3360157,"ts":"2025-03-30T10:14:33Z","tz":1,"tags":{"author":"M. Janec, V. Rosůlek, 1957","climbing":"route_bottom","climbing:grade:uiaa":"5","name":"Žlutá plotna","sport":"climbing","website":"https://www.horosvaz.cz/skaly-cesta-64952/"}},"12712855773":{"lat":49.1114076,"lon":17.3359928,"ts":"2025-03-30T10:14:33Z","tz":1,"tags":{"author":"Autoři neznámí","climbing":"route_bottom","climbing:grade:uiaa":"4","name":"Varianta po hraně","sport":"climbing","website":"https://www.horosvaz.cz/skaly-cesta-64951/"}},"12712855774":{"lat":49.1114011,"lon":17.3359639,"ts":"2025-03-30T10:14:33Z","tz":1,"tags":{"author":"Autoři neznámí","climbing":"route_bottom","climbing:grade:uiaa":"3","name":"Západní stěnka","sport":"climbing","website":"https://www.horosvaz.cz/skaly-cesta-64950/"}}}