{"11998221":{"lat":36.1312356,"lon":-96.0757583,"ts":"2020-12-09T19:04:18Z","tz":-6,"tags":{"climbing":"area","name":"Upper Chandler Park","type":"site"}},"680783675":{"lat":36.1215491,"lon":-96.1023549,"ts":"2019-04-21T03:45:49Z","tz":-6,"tags":{"climbing":"crag","height":"10","name":"John's Wall","natural":"cliff","sport":"climbing"}},"882839845":{"lat":36.1312807,"lon":-96.0757042,"ts":"2020-12-09T19:04:18Z","tz":-6,"tags":{"climbing":"crag","name":"Disease Wall","natural":"cliff","sport":"climbing"}},"882839848":{"lat":36.130904,"lon":-96.0762618,"ts":"2020-12-09T19:04:18Z","tz":-6,"tags":{"climbing":"crag","name":"Little to Nothing Wall","natural":"cliff","sport":"climbing"}},"882897373":{"lat":36.1310255,"lon":-96.0760432,"ts":"2020-12-09T19:04:18Z","tz":-6,"tags":{"climbing":"crag","name":"Crux Wall","natural":"cliff","sport":"climbing"}},"882897375":{"lat":36.1311727,"lon":-96.0759467,"ts":"2020-12-09T19:04:18Z","tz":-6,"tags":{"climbing":"crag","name":"Picnic Wall","natural":"cliff","sport":"climbing"}},"882897376":{"lat":36.1310973,"lon":-96.0761731,"ts":"2020-12-09T19:04:18Z","tz":-6,"tags":{"climbing":"boulder","name":"Super Mantle Boulder","natural":"cliff","sport":"climbing"}},"882897378":{"lat":36.131557,"lon":-96.0752182,"ts":"2020-12-09T19:04:18Z","tz":-6,"tags":{"climbing":"crag","name":"Forgotten Wall","natural":"cliff","sport":"climbing"}},"882897379":{"lat":36.1315545,"lon":-96.0754774,"ts":"2020-12-09T19:04:18Z","tz":-6,"tags":{"climbing":"crag","name":"Stump Wall","natural":"cliff","sport":"climbing"}},"882897380":{"lat":36.1314753,"lon":-96.0756362,"ts":"2020-12-09T19:04:18Z","tz":-6,"tags":{"climbing":"crag","name":"Cub Scout Wall","natural":"cliff","sport":"climbing"}},"882897381":{"lat":36.1313877,"lon":-96.0758788,"ts":"2020-12-09T19:04:18Z","tz":-6,"tags":{"climbing":"crag","name":"Troop Wall","natural":"cliff","sport":"climbing"}},"882897382":{"lat":36.131291,"lon":-96.0761157,"ts":"2020-12-09T19:04:18Z","tz":-6,"tags":{"climbing":"crag","name":"Pepsi Wall","natural":"cliff","sport":"climbing"}},"2929593925":{"lat":36.0622802,"lon":-96.0545674,"ts":"2022-11-17T20:45:05Z","tz":-6,"tags":{"access":"private","leisure":"sports_centre","sport":"climbing"}},"6418708133":{"lat":36.1213044,"lon":-96.1025546,"ts":"2019-04-21T03:45:48Z","tz":-6,"tags":{"climbing":"route_bottom","climbing:bolted":"yes","climbing:length":"11","climbing:rock":"limestone","climbing:sport":"yes","name":"Jackarete","sport":"climbing"}},"8150208553":{"lat":36.1521706,"lon":-96.1664844,"ts":"2020-11-22T01:35:16Z","tz":-6,"tags":{"climbing":"area","name":"Shotgun","sport":"climbing"}},"8150213496":{"lat":36.1214614,"lon":-96.1032289,"ts":"2020-11-22T01:35:16Z","tz":-6,"tags":{"climbing":"area","name":"Avery Drive","sport":"climbing"}},"8205680298":{"lat":36.1239749,"lon":-96.0939299,"ts":"2020-12-08T14:38:50Z","tz":-6,"tags":{"climbing":"area","name":"Little Germany","sport":"climbing"}},"8205700858":{"lat":36.1179039,"lon":-96.1159527,"ts":"2020-12-08T14:33:12Z","tz":-6,"tags":{"climbing":"area","name":"Prattville","sport":"climbing"}},"8205740717":{"lat":36.1189237,"lon":-96.1073645,"ts":"2020-12-08T14:37:01Z","tz":-6,"tags":{"climbing":"area","name":"VIce Grips","sport":"climbing"}},"8210672967":{"lat":36.1311138,"lon":-96.0759721,"ts":"2020-12-09T19:04:18Z","tz":-6,"tags":{"climbing":"area","name":"Upper Chandler Park","sport":"climbing"}}}