{"25513679":{"lat":48.6731983,"lon":10.1630235,"ts":"2020-09-11T22:41:11Z","tz":1,"tags":{"climbing:grade:uiaa:max":"9","climbing:grade:uiaa:min":"3+","climbing:rock":"limestone","climbing:sport":"yes","name":"Himmel und Hölle","natural":"cliff","sport":"climbing"}},"27260806":{"lat":48.6014764,"lon":10.1629965,"ts":"2022-05-29T17:44:55Z","tz":1,"tags":{"climbing:bolted":"yes","climbing:rock":"limestone","climbing:routes":"27","climbing:sport":"yes","height":"30","name":"Falkenstein","natural":"cliff","sport":"climbing"}},"270551218":{"lat":48.6088162,"lon":10.1610082,"ts":"2020-10-13T22:40:02Z","tz":1,"tags":{"access":"destination","climbing:bolted":"yes","climbing:grade:uiaa:max":"9","climbing:grade:uiaa:mean":"7","climbing:grade:uiaa:min":"5-","climbing:rock":"limestone","climbing:sport":"yes","fee":"no","height":"30","name":"Bindstein","natural":"cliff","sport":"climbing"}},"319068516":{"lat":48.600321,"lon":10.1823439,"ts":"2020-11-04T08:16:43Z","tz":1,"tags":{"access":"destination","climbing:bolted":"yes","climbing:grade:uiaa:max":"9","climbing:grade:uiaa:mean":"7","climbing:grade:uiaa:min":"5+","climbing:rock":"limestone","climbing:sport":"yes","fee":"no","name":"Burgfels","natural":"cliff","opening_hours":"Jul 16-Feb 29","sport":"climbing"}},"319069131":{"lat":48.6028203,"lon":10.1767774,"ts":"2020-10-13T17:30:03Z","tz":1,"tags":{"access":"destination","climbing:bolted":"yes","climbing:grade:uiaa:max":"9-","climbing:grade:uiaa:mean":"6","climbing:grade:uiaa:min":"3-","climbing:rock":"limestone","climbing:sport":"yes","fee":"no","height":"25","name":"Bachfels","natural":"cliff","sport":"climbing"}},"771236170":{"lat":48.6881355,"lon":10.1567038,"ts":"2024-03-16T15:11:17Z","tz":1,"tags":{"layer":"0","material":"ropes","min_age":"5","playground":"climbingframe","sport":"climbing"}},"1366071430":{"lat":48.650726,"lon":9.9022154,"ts":"2025-03-10T21:16:26Z","tz":1,"tags":{"name":"Roggenstein","natural":"cliff","sport":"climbing"}},"4103562821":{"lat":48.6277024,"lon":9.8548342,"ts":"2016-04-06T20:54:59Z","tz":1,"tags":{"leisure":"pitch","name":"Löwin","note":"auf aktuelle Sperrungen achten!","sport":"climbing"}},"8270227253":{"lat":48.6732055,"lon":10.1630793,"ts":"2022-05-29T17:42:32Z","tz":1,"tags":{"climbing:bolted":"yes","climbing:rock":"limestone","climbing:routes":"19","climbing:sport":"yes","height":"12","name":"Himmel und Hölle","natural":"cliff","sport":"climbing"}},"12650746161":{"lat":48.6505892,"lon":9.9021651,"ts":"2025-03-10T21:16:26Z","tz":1,"tags":{"name":"Roggennadel","natural":"cliff","sport":"climbing"}}}