{"259895672":{"lat":48.3973943,"lon":9.9442194,"ts":"2020-02-20T15:12:07Z","tz":1,"tags":{"building":"sports_centre","name":"Kletterhalle","sport":"climbing"}},"677437505":{"lat":48.2325298,"lon":9.9022932,"ts":"2022-01-01T00:37:05Z","tz":1,"tags":{"alt_name":"Viadukt Klettergarten","bridge":"viaduct","bridge:structure":"arch","climbing:boulder":"yes","climbing:grade:uiaa:max":"8","climbing:grade:uiaa:min":"3","climbing:length:max":"20","climbing:orientation":"E;W","climbing:sport":"60","layer":"1","leisure":"pitch","lit":"no","man_made":"bridge","name":"DAV Kletterbrücke Laupheim","note":"Unvollendete Brücke aus dem 2. Weltkrieg","sport":"climbing","url":"http://www.alpenverein.de/DAV-Services/Kletterhallen-Suche/Detail/X/DAV-Kletterbruecke-Laupheim/232308"}},"1305404577":{"lat":48.3890193,"lon":10.0095286,"ts":"2024-08-03T13:52:47Z","tz":1,"tags":{"climbing":"boulder","climbing:boulder":"yes","leisure":"pitch","sport":"climbing"}},"1472889737":{"lat":48.4116841,"lon":9.845584,"ts":"2020-09-11T22:41:11Z","tz":1,"tags":{"climbing:grade:uiaa:max":"9-","climbing:grade:uiaa:min":"2+","climbing:length:max":"25","climbing:length:min":"15","climbing:orientation":"N;E;S;W","climbing:rock":"limestone","climbing:sport":"28","name":"Katzentaler Fels","natural":"rock","sport":"climbing"}},"2547000287":{"lat":48.4113849,"lon":9.8470813,"ts":"2020-09-11T22:41:11Z","tz":1,"tags":{"climbing:boulder":"yes","climbing:grade:uiaa:max":"7-","climbing:grade:uiaa:min":"3+","climbing:length":"10","climbing:orientation":"S","climbing:rock":"limestone","climbing:sport":"11","name":"Katzenloch","sport":"climbing"}},"3952635998":{"lat":48.4007404,"lon":9.9627343,"ts":"2023-02-24T21:43:36Z","tz":1,"tags":{"addr:city":"Ulm","addr:housenumber":"100","addr:postcode":"89077","addr:street":"Blaubeurer Straße","climbing:boulder":"yes","indoor":"yes","leisure":"sports_centre","name":"einstein Boulderhalle","opening_hours":"10:00-23:00","operator":"ein stein boulderhallen GmbH & Co. KG","sport":"climbing","website":"https://ulm.einstein-boulder.com","wheelchair":"yes","wheelchair:description":"Empfangsraum ebenerdig, andere Räume wie WC und Umkleide nur über Treppen erreichbar."}},"4391462070":{"lat":48.3334985,"lon":10.0372184,"ts":"2024-10-12T18:55:17Z","tz":1,"tags":{"access":"customers","climbing:boulder":"yes","fee":"yes","indoor":"yes","leisure":"sports_centre","name":"STUNTWERK Senden GmbH","payment:cash":"no","payment:credit_cards":"yes","payment:debit_cards":"yes","sport":"climbing","website":"https://stuntwerk-senden.de/"}},"5779498932":{"lat":48.2335172,"lon":10.1117057,"ts":"2022-10-16T05:00:52Z","tz":1,"tags":{"image":"https://www.mapillary.com/map/im/yW7F3mHuCFJ6nr0AzFfQuY","leisure":"sports_centre","mapillary":"222507995949228","name":"SparkassenArena DAV Kletterzentrum Illertissen","payment:girocard":"yes","phone":"+49 7303 9297305","sport":"climbing","website":"http://www.illertissen-dav.de","wheelchair":"no"}},"10967286323":{"lat":48.384124,"lon":9.9547686,"ts":"2024-11-15T00:16:15Z","tz":1,"tags":{"panoramax":"53357055-6c16-414b-a7e3-70ab3d8c0089","panoramax:0":"5673f9a6-cfe9-411b-ba34-a2c9e31f3232","sport":"climbing"}},"11166468844":{"lat":48.3899336,"lon":10.0294455,"ts":"2023-09-04T08:30:31Z","tz":1,"tags":{"addr:city":"Neu-Ulm","addr:housenumber":"12","addr:postcode":"89231","addr:street":"Leibnizstraße","climbing:boulder":"yes","indoor":"yes","leisure":"sports_centre","name":"Einstein Boulderhalle Neu-Ulm","opening_hours":"Mo-Fr 14:00-23:00; Sa,Su,PH 10:00-23:00","operator":"ein stein boulderhallen GmbH & Co. KG","sport":"climbing","start_date":"2023-07-22","website":"https://neu-ulm.einstein-boulder.com"}}}