{"9672564":{"lat":46.9273152,"lon":10.0728671,"ts":"2019-06-09T13:36:38Z","tz":1,"tags":{"climbing":"crag","leisure":"pitch","name":"Kresperspitze","sport":"climbing","type":"site"}},"91923940":{"lat":46.953783,"lon":10.1763625,"ts":"2022-11-05T18:29:37Z","tz":1,"tags":{"bicycle":"no","foot":"official","highway":"path","horse":"no","sac_scale":"hiking","ski":"no","snowmobile":"no","sport":"climbing","surface":"stone","trail_visibility":"good","wheelchair":"no"}},"231436741":{"lat":46.9660218,"lon":10.1381239,"ts":"2021-07-27T07:54:07Z","tz":1,"tags":{"climbing:boulder":"yes","name":"Silvapark - Sekten Sektor","sport":"climbing"}},"231437057":{"lat":46.9602674,"lon":10.1382272,"ts":"2021-07-27T07:54:07Z","tz":1,"tags":{"climbing:boulder":"yes","name":"Silvapark - Sektor Outlands","sport":"climbing"}},"231437058":{"lat":46.9643066,"lon":10.1348002,"ts":"2021-07-27T07:54:07Z","tz":1,"tags":{"climbing:boulder":"yes","name":"Silvapark - Sektor Anam Cara","sport":"climbing"}},"231437197":{"lat":46.9583897,"lon":10.134818,"ts":"2021-07-27T07:54:07Z","tz":1,"tags":{"climbing:boulder":"yes","name":"Silvapark - Sektor Falsche Götter","sport":"climbing"}},"231437713":{"lat":46.9618804,"lon":10.1341758,"ts":"2021-07-27T07:54:07Z","tz":1,"tags":{"climbing:boulder":"yes","name":"Silvapark - Sektor Super Crack","sport":"climbing"}},"231437862":{"lat":46.9622076,"lon":10.1314225,"ts":"2021-07-27T07:54:07Z","tz":1,"tags":{"climbing:boulder":"yes","name":"Silvapark - Sektor Schuh des Manitu","sport":"climbing"}},"231437933":{"lat":46.9611774,"lon":10.1345666,"ts":"2021-07-27T07:54:07Z","tz":1,"tags":{"climbing:boulder":"yes","name":"Silvapark - Sektor Golden Gate","sport":"climbing"}},"231438096":{"lat":46.96078,"lon":10.1314589,"ts":"2021-07-27T07:54:07Z","tz":1,"tags":{"climbing:boulder":"yes","name":"Silvapark - Sektor Palm Beach","sport":"climbing"}},"509488619":{"lat":46.9570429,"lon":10.1348972,"ts":"2023-07-29T14:30:48Z","tz":1,"tags":{"highway":"via_ferrata","name":"Klettersteig Ballunspitze","source":"GPS","sport":"climbing","via_ferrata_scale":"4"}},"690304530":{"lat":46.9217998,"lon":10.0648365,"ts":"2020-12-28T18:36:23Z","tz":1,"tags":{"climbing:bolted":"yes","climbing:grade:uiaa:max":"8","climbing:grade:uiaa:min":"4+","climbing:sport":"yes","name":"Klettergarten Silvretta","natural":"cliff","source":"Vogis 2018","sport":"climbing"}},"690883457":{"lat":46.9742929,"lon":10.0456022,"ts":"2022-11-05T22:45:53Z","tz":1,"tags":{"climbing:bolted":"yes","climbing:grade:uiaa:max":"8+","climbing:grade:uiaa:min":"4","climbing:sport":"yes","name":"Rifa Partenen","natural":"cliff","source":"Vogis 2018","sport":"climbing"}},"695960622":{"lat":46.9273237,"lon":10.0731287,"ts":"2019-06-09T13:36:38Z","tz":1,"tags":{"climbing":"route","climbing:grade:uiaa:max":"7-","climbing:grade:uiaa:mean":"5","climbing:height":"220","climbing:length":"250","climbing:multipitch":"yes","climbing:pitches":"6","fixme":"exact location","leisure":"pitch","name":"Doktor Ziegenbock","sport":"climbing","start_date":"2012","url":"http://www.alpenverein.at/vorarlberg/home/archiv/archiv2010/2010_09_10_kresperspitze.php"}},"695960623":{"lat":46.9272428,"lon":10.0726584,"ts":"2021-04-23T13:12:45Z","tz":1,"tags":{"climbing":"route","climbing:grade:uiaa:max":"6-","climbing:grade:uiaa:mean":"5","climbing:height":"220","climbing:length":"240","climbing:multipitch":"yes","climbing:pitches":"8","leisure":"pitch","name":"Direkte Südwand","source":"GPS","sport":"climbing","start_date":"2009","url":"http://www.alpenverein.at/vorarlberg/home/archiv/archiv2010/2010_09_10_kresperspitze.php"}},"889324936":{"lat":46.9159552,"lon":10.0918046,"ts":"2023-05-20T20:20:25Z","tz":1,"tags":{"climbing:bolted":"yes","climbing:grade:uiaa:max":"5-","climbing:grade:uiaa:min":"4+","climbing:sport":"yes","fixme":"exact position","leisure":"pitch","lit":"no","name":"Kletterpark Silvrettasee","source":"Vogis 2018","sport":"climbing"}},"902224183":{"lat":46.8876717,"lon":9.8814927,"ts":"2024-05-06T12:16:33Z","tz":1,"tags":{"climbing":"crag","climbing:rock":"limestone","climbing:sport":"yes","height":"60","natural":"cliff","sport":"climbing","wikidata":"Q125804546","wikimedia_commons":"File:Schlifi.jpg"}},"972116075":{"lat":46.8710378,"lon":10.1145217,"ts":"2021-08-10T23:22:18Z","tz":1,"tags":{"access":"yes","climbing:grade:french:max":"7a","climbing:grade:french:mean":"6a","climbing:grade:french:min":"4a","climbing:multipitch":"yes","climbing:orientation":"SW","climbing:routes":"26","climbing:sport":"yes","description":"2 Klettersteige","fee":"no","name":"Klettergarten Wiesbadener Hütte","natural":"cliff","outdoor":"yes","sport":"climbing","url":"https://www.thecrag.com/de/climbing/austria/area/1754097666"}},"1700626555":{"lat":46.9680493,"lon":10.183568,"ts":"2017-01-26T15:23:41Z","tz":1,"tags":{"description":"Indoor-Kletterwand","sport":"climbing"}},"3052103233":{"lat":46.9723851,"lon":9.9127404,"ts":"2014-08-31T16:41:49Z","tz":1,"tags":{"name":"Klettergarten","sport":"climbing"}},"6535212644":{"lat":46.928049,"lon":10.0732625,"ts":"2021-04-23T13:12:45Z","tz":1,"tags":{"climbing":"route_top"}},"6535212645":{"lat":46.9265984,"lon":10.0729949,"ts":"2021-04-23T13:12:45Z","tz":1,"tags":{"climbing":"route_bottom"}},"6535212646":{"lat":46.9279043,"lon":10.0728452,"ts":"2021-04-23T13:12:45Z","tz":1,"tags":{"climbing":"route_top"}},"6535212647":{"lat":46.9265814,"lon":10.0724717,"ts":"2021-04-23T13:12:45Z","tz":1,"tags":{"climbing":"route_bottom"}},"6874997829":{"lat":47.0076853,"lon":9.8606607,"ts":"2023-11-25T23:36:09Z","tz":1,"tags":{"name":"Familienklettergarten Partnun","sport":"climbing"}},"9931157081":{"lat":46.8783182,"lon":9.965823,"ts":"2022-08-04T07:24:34Z","tz":1,"tags":{"climbing:grade:french:max":"4","climbing:grade:french:mean":"4","climbing:grade:french:min":"3","climbing:grade:uiaa:max":"4+","climbing:grade:uiaa:min":"3","climbing:length":"40","climbing:length:max":"40","climbing:length:min":"40","climbing:multipitch":"yes","climbing:routes":"1","climbing:trad":"yes","ele":"2620","name":"Fergenkegel","sport":"climbing"}},"11446354990":{"lat":46.9627187,"lon":9.982667,"ts":"2023-12-23T14:59:50Z","tz":1,"tags":{"name":"Klettersteig Madrisella","sport":"climbing"}}}