{"766601991":{"lat":12.9731693,"lon":77.5633083,"ts":"2020-01-26T06:02:16Z","tz":6,"tags":{"name":"Rock Climbing","sport":"climbing"}},"1252541716":{"lat":13.0053691,"lon":77.5639618,"ts":"2024-02-19T19:17:50Z","tz":6,"tags":{"building":"yes","charge":"400 INR","fee":"yes","leisure":"sports_centre","name":"Bangalore Boulder","sport":"climbing"}},"3632677649":{"lat":12.9116566,"lon":77.6753202,"ts":"2024-09-25T19:22:38Z","tz":6,"tags":{"leisure":"sports_centre","name":"Rock Climbing","sport":"climbing"}},"10633402099":{"lat":12.9781282,"lon":77.6379023,"ts":"2023-02-13T11:22:23Z","tz":6,"tags":{"addr:city":"Indiranagar, Bangalore","addr:housenumber":"546","addr:postcode":"560038","addr:street":"Chinmaya Mission Hospital Road","charge":"400 INR","check_date":"2023-02-13","fee":"yes","leisure":"sports_centre","name":"Equilibrium Climbing Station","opening_hours":"Mo-Fr 07:00-10:00,15:00-21:00; Sa-Su 11:00-21:00","phone":"+918861684444","sport":"climbing","website":"https://equilibriumclimbing.com"}},"12669651422":{"lat":12.9705692,"lon":77.5925551,"ts":"2025-03-16T09:03:52Z","tz":6,"tags":{"man_made":"tower","sport":"climbing","tower:type":"climbing"}}}