{"8756209":{"lat":44.5591419,"lon":5.7767375,"ts":"2023-02-28T22:22:43Z","tz":1,"tags":{"climbing":"route","name":"Via Ferrata Les Vires des Gorges d'Agnielles","route":"via_ferrata","type":"route","via_ferrata_scale":"4"}},"127731940":{"lat":44.5027589,"lon":5.9253764,"ts":"2019-08-19T08:29:56Z","tz":1,"tags":{"alt_name":"Falaises de Céüze","climbing:bolted":"yes","climbing:grade:french:max":"9a+","climbing:grade:french:min":"5a","climbing:quality":"solid","climbing:rock":"limestone","climbing:sport":"yes","name":"Falaises de Céüse","name:it":"Falesia di Céüse","natural":"cliff","sport":"climbing"}},"717134270":{"lat":44.494828,"lon":5.9673722,"ts":"2019-08-22T15:21:17Z","tz":1,"tags":{"name":"Ceüse Bloc","natural":"bare_rock","sport":"climbing"}},"717134271":{"lat":44.4939824,"lon":5.9668806,"ts":"2019-08-22T15:21:17Z","tz":1,"tags":{"name":"Ceüse Bloc","natural":"bare_rock","sport":"climbing"}},"717134272":{"lat":44.4943552,"lon":5.9672875,"ts":"2019-08-22T15:21:17Z","tz":1,"tags":{"name":"Ceüse Bloc","natural":"bare_rock","sport":"climbing"}},"717134273":{"lat":44.4947582,"lon":5.9663841,"ts":"2019-08-22T15:21:17Z","tz":1,"tags":{"name":"Ceüse Bloc","natural":"bare_rock","sport":"climbing"}},"717134274":{"lat":44.4955644,"lon":5.9679952,"ts":"2019-08-22T15:21:17Z","tz":1,"tags":{"name":"Ceüse Bloc","natural":"bare_rock","sport":"climbing"}},"717134275":{"lat":44.4938894,"lon":5.9664484,"ts":"2019-08-22T15:21:17Z","tz":1,"tags":{"name":"Ceüse Bloc","natural":"bare_rock","sport":"climbing"}},"717134276":{"lat":44.4953737,"lon":5.9664055,"ts":"2019-08-22T15:21:17Z","tz":1,"tags":{"name":"Ceüse Bloc","natural":"bare_rock","sport":"climbing"}},"972924252":{"lat":44.4546069,"lon":5.6970149,"ts":"2021-08-13T17:27:50Z","tz":1,"tags":{"climbing:rock":"limestone","climbing:sport":"yes","name":"Falaise de Sigottier","natural":"cliff","sport":"climbing"}},"1150556297":{"lat":44.5118135,"lon":5.9567454,"ts":"2024-11-17T09:41:22Z","tz":1,"tags":{"alt_name":"Falaises de Céüze","climbing:bolted":"yes","climbing:grade:french:max":"9a+","climbing:grade:french:min":"5a","climbing:quality":"solid","climbing:rock":"limestone","climbing:sport":"yes","name":"Falaises de Céüse","name:it":"Falesia di Céüse","name:oc":"Bauç de Ceuse","natural":"cliff","source:name:oc":"ieo-bdtopoc","sport":"climbing"}},"1150556300":{"lat":44.4990568,"lon":5.9380111,"ts":"2023-03-01T21:21:00Z","tz":1,"tags":{"alt_name":"Falaises de Céüze","climbing:bolted":"yes","climbing:grade:french:max":"9a+","climbing:grade:french:min":"5a","climbing:quality":"solid","climbing:rock":"limestone","climbing:sport":"yes","name":"Falaises de Céüse","name:it":"Falesia di Céüse","natural":"cliff","sport":"climbing"}},"1150556301":{"lat":44.4988484,"lon":5.9499753,"ts":"2024-11-17T09:41:22Z","tz":1,"tags":{"alt_name":"Falaises de Céüze","climbing:bolted":"yes","climbing:grade:french:max":"9a+","climbing:grade:french:min":"5a","climbing:quality":"solid","climbing:rock":"limestone","climbing:sport":"yes","name":"Falaises de Céüse","name:it":"Falesia di Céüse","natural":"cliff","sport":"climbing"}},"4358702095":{"lat":44.5002131,"lon":5.9536886,"ts":"2023-03-01T21:21:00Z","tz":1,"tags":{"description":"Via Ferrata de Céüse","natural":"cliff","sport":"climbing","via_ferrata":"start"}},"5118191011":{"lat":44.5568318,"lon":5.7746351,"ts":"2017-09-20T19:56:28Z","tz":1,"tags":{"sport":"climbing"}},"6761347763":{"lat":44.4981333,"lon":5.9482208,"ts":"2021-03-09T21:08:16Z","tz":1,"tags":{"climbing":"route","climbing:grade:french":"9a+","climbing:length":"40","climbing:pitches":"1","name":"Biographie","natural":"rock","sport":"climbing"}}}