{"5593121776":{"lat":40.345688,"lon":-5.8021227,"ts":"2020-06-09T21:04:41Z","tz":1,"tags":{"access":"yes","leisure":"pitch","lit":"no","sport":"climbing"}},"5701479156":{"lat":40.3691185,"lon":-5.7950581,"ts":"2018-10-19T14:40:44Z","tz":1,"tags":{"climbing":"crag","climbing:boulder":"yes","name":"Sector Ladera","sport":"climbing"}},"5701479171":{"lat":40.369471,"lon":-5.7866628,"ts":"2018-10-19T14:40:44Z","tz":1,"tags":{"climbing":"crag","climbing:boulder":"yes","name":"Sector Plantío","sport":"climbing"}},"5701479172":{"lat":40.3713142,"lon":-5.7880736,"ts":"2018-10-19T14:40:44Z","tz":1,"tags":{"climbing":"crag","climbing:boulder":"yes","sport":"climbing"}},"5701479173":{"lat":40.3680425,"lon":-5.7850481,"ts":"2018-10-19T14:40:44Z","tz":1,"tags":{"climbing":"crag","climbing:boulder":"yes","name":"Sector Riachuelo","sport":"climbing"}},"5701479174":{"lat":40.3685616,"lon":-5.7837767,"ts":"2018-10-19T14:38:38Z","tz":1,"tags":{"climbing":"crag","climbing:boulder":"yes","name":"Sector El Monte","sport":"climbing"}},"6632403060":{"lat":40.2895836,"lon":-5.8684816,"ts":"2020-04-06T15:13:31Z","tz":1,"tags":{"access":"yes","leisure":"pitch","lit":"no","name":"Vías de escalada","sport":"climbing","surface":"stone"}}}