{"292551839":{"lat":50.380568,"lon":5.5213317,"ts":"2023-10-14T10:33:05Z","tz":1,"tags":{"name":"Rocher du Calvaire","natural":"cliff","sport":"climbing"}},"292551854":{"lat":50.4110951,"lon":5.5184571,"ts":"2016-09-11T11:39:54Z","tz":1,"tags":{"climbing:sport":"yes","name":"Roches des Vignobles","natural":"cliff","sport":"climbing"}},"292553392":{"lat":50.3719657,"lon":5.5450446,"ts":"2023-10-14T10:33:05Z","tz":1,"tags":{"name":"Rochers d'Ozo","natural":"cliff","sport":"climbing"}},"317391735":{"lat":50.5078725,"lon":5.6058592,"ts":"2022-04-09T13:48:06Z","tz":1,"tags":{"climbing":"ice","height":"40","name":"Zone escalade Cascades de Chanxhe","natural":"cliff"}},"415487694":{"lat":50.4028854,"lon":5.5285855,"ts":"2020-09-24T21:51:56Z","tz":1,"tags":{"natural":"cliff","sport":"climbing"}},"687207842":{"lat":50.4499613,"lon":5.5700987,"ts":"2019-05-01T21:41:08Z","tz":1,"tags":{"climbing":"crag","name":"Arrête de la Rigolade","natural":"bare_rock","rock":"limestone","sport":"climbing"}},"687207843":{"lat":50.450174,"lon":5.5708164,"ts":"2019-05-01T18:50:41Z","tz":1,"tags":{"climbing":"crag","climbing:rock":"limestone","sport":"climbing"}},"687207844":{"lat":50.450027,"lon":5.5707252,"ts":"2021-06-19T23:14:41Z","tz":1,"tags":{"area":"yes","climbing":"crag","sport":"climbing"}},"687218962":{"lat":50.449411,"lon":5.5703868,"ts":"2019-05-22T10:40:04Z","tz":1,"tags":{"climbing":"crag","name":"Rocher de Fairon","natural":"bare_rock","rock":"limestone","sport":"climbing"}},"687235180":{"lat":50.449734,"lon":5.5702905,"ts":"2022-04-23T23:27:06Z","tz":1,"tags":{"access":"permit","access:description":"You have to be a member of the KBF (or have a member buy you access)","area":"yes","capacity":"30","climbing":"area","description":"Due to nature conversation efforts, only a few crags are opened for climbing. Doublecheck the map, stay on  the paths, pick up litter and do not make fire","fee":"no","name":"Rochers de la Vierge","operator":"Klim- en BergsportFederatie Vlaanderen","sport":"climbing"}},"687867329":{"lat":50.4501678,"lon":5.5702706,"ts":"2021-06-19T23:14:41Z","tz":1,"tags":{"area":"yes","climbing":"crag","sport":"climbing"}},"851009877":{"lat":50.4034316,"lon":5.5299283,"ts":"2020-09-25T15:12:33Z","tz":1,"tags":{"climbing":"crag","name":"Rocher de la Cathedrale","natural":"bare_rock","sport":"climbing"}},"851300428":{"lat":50.4043364,"lon":5.5318489,"ts":"2020-09-25T15:12:33Z","tz":1,"tags":{"climbing":"crag","name":"Rocher de Nandouire","natural":"bare_rock","sport":"climbing"}},"851570789":{"lat":50.4033816,"lon":5.5297384,"ts":"2024-11-12T17:33:15Z","tz":1,"tags":{"climbing":"route","climbing:grade:french":"5b","climbing:length":"40","name":"Le Vieux Paul","panoramax":"75a8e8c6-ffbe-4890-b056-9b6b0b950f30","panoramax:0":"a55bda0b-d977-44db-979a-c1a19d1975b6","sport":"climbing"}},"851570790":{"lat":50.4039388,"lon":5.5317703,"ts":"2021-06-24T19:06:09Z","tz":1,"tags":{"access":"permit","area":"yes","climbing":"area","climbing:toprope":"yes","name":"Massif de Sy","sport":"climbing"}},"852373364":{"lat":50.4073429,"lon":5.5214093,"ts":"2020-09-28T11:52:59Z","tz":1,"tags":{"climbing":"crag","name":"Roche de la vierge","natural":"rock","sport":"climbing"}},"927850492":{"lat":50.3607097,"lon":5.559158,"ts":"2021-09-28T18:04:44Z","tz":1,"tags":{"name":"Carrière du Petit Henet","natural":"cliff","sport":"climbing"}},"928363892":{"lat":50.3510529,"lon":5.5850626,"ts":"2021-04-09T14:51:30Z","tz":1,"tags":{"name":"Roche à Frêne","natural":"rock","sport":"climbing"}},"987803748":{"lat":50.3724806,"lon":5.5375585,"ts":"2023-10-14T10:33:05Z","tz":1,"tags":{"name":"Rocher du Coléoptère","natural":"cliff","sport":"climbing"}},"1216212560":{"lat":50.3667041,"lon":5.569507,"ts":"2023-10-17T10:07:20Z","tz":1,"tags":{"climbing":"crag","name":"Les Blocs d'Izier","natural":"rock","sport":"climbing"}},"6490497688":{"lat":50.4494051,"lon":5.5701494,"ts":"2021-06-21T00:54:25Z","tz":1,"tags":{"climbing":"route","climbing:bolted":"yes","climbing:grade:french":"4c","climbing:length":"20","description":"A.Capel, 4c, 20m","name":"Grand-mère enceinte","ref":"1","sport":"climbing"}},"6490497690":{"lat":50.4493951,"lon":5.5701577,"ts":"2021-06-21T00:54:25Z","tz":1,"tags":{"climbing":"route","climbing:bolted":"yes","climbing:bolts":"6","climbing:grade:french":"6a","climbing:length":"15","description":"K. Belinkx - 1e S. Lummerzheim, 6a, 15m, 6 setjes, Moulinette","name":"Bloodyfique","ref":"2","sport":"climbing"}},"6490497691":{"lat":50.4493865,"lon":5.57017,"ts":"2021-06-21T00:54:25Z","tz":1,"tags":{"climbing":"route","climbing:bolted":"yes","climbing:bolts":"4","climbing:grade:french":"7a","climbing:length":"17","description":"C. Piraprez & B. Piraprez (1993), 7a, 17m, 4 setjes, moulinette, fragile","name":"Sniper Avenue","ref":"3","sport":"climbing"}},"6490497692":{"lat":50.4493792,"lon":5.5701837,"ts":"2021-06-21T00:54:25Z","tz":1,"tags":{"climbing":"route","climbing:bolted":"yes","climbing:bolts":"4","climbing:grade:french":"7a","climbing:length":"17","description":"C. Piraprez & B. Piraprez (1993), 7a, 18m, 4 setjes, moulinette, fragile","name":"Tir à vue","ref":"4","sport":"climbing"}},"6695768692":{"lat":50.3415514,"lon":5.4526968,"ts":"2019-08-08T21:03:20Z","tz":1,"tags":{"attraction":"yes","name":"Click & Climb","sport":"climbing"}},"6707416366":{"lat":50.4500568,"lon":5.5707012,"ts":"2022-04-06T16:26:41Z","tz":1,"tags":{"climbing":"route","climbing:bolts":"3","climbing:grade:french":"6a+","climbing:length":"15","climbing:pitches":"1","name":"Le jeu du Blaireau","sport":"climbing"}},"6707416367":{"lat":50.4500823,"lon":5.5708147,"ts":"2022-04-06T16:26:41Z","tz":1,"tags":{"climbing":"route","climbing:bolts":"2","climbing:grade:french":"5b","climbing:length":"10","climbing:pitches":"1","name":"La Voie du Nuton","sport":"climbing"}},"6707416368":{"lat":50.4500758,"lon":5.5707723,"ts":"2022-04-06T16:26:41Z","tz":1,"tags":{"climbing":"route","climbing:bolts":"6","climbing:grade:french":"6a+","climbing:length":"15","climbing:pitches":"1","name":"Black Pearl","sport":"climbing"}},"6710650683":{"lat":50.4501719,"lon":5.5707724,"ts":"2022-04-06T16:26:41Z","tz":1,"tags":{"climbing":"route","climbing:bolts":"3","climbing:grade:uiaa":"5a","climbing:length":"10","climbing:pitches":"1","description":"Korte route, goed op de rand klimmen. Voie courte, utilisez le côté","name":"Nervosité Feminine","sport":"climbing"}},"6710650684":{"lat":50.4500197,"lon":5.5705767,"ts":"2022-04-06T16:26:41Z","tz":1,"tags":{"climbing":"route","climbing:bolts":"5","climbing:grade:french":"5c/6a","climbing:length":"18","climbing:pitches":"1","name":"Trop Cousteau","sport":"climbing"}},"6710722485":{"lat":50.4500387,"lon":5.5705826,"ts":"2022-04-06T16:26:41Z","tz":1,"tags":{"climbing":"route","climbing:bolts":"5","climbing:grade:french":"4a","climbing:length":"15","climbing:pitches":"1","description":"Route simple, ideal pour commencer. Makkelijke route, ideaal om mee te beginnen.","name":"Dreggle","sport":"climbing"}},"6710722486":{"lat":50.4501452,"lon":5.5707999,"ts":"2022-04-06T16:26:41Z","tz":1,"tags":{"climbing":"route","climbing:bolts":"3","climbing:grade:french":"5b","climbing:pitches":"1","sport":"climbing"}},"7928691195":{"lat":50.4499369,"lon":5.5698779,"ts":"2020-09-21T16:42:04Z","tz":1,"tags":{"climbing":"route","climbing:grade:french":"4c","climbing:length":"20","name":"La Rigolade","sport":"climbing"}},"7928701264":{"lat":50.4498993,"lon":5.5698296,"ts":"2024-11-12T17:33:15Z","tz":1,"tags":{"climbing":"route","climbing:bolts":"5","climbing:length":"20","panoramax":"50b9416f-c8e0-41f5-b78b-8b86a40815a4","sport":"climbing"}},"7928912437":{"lat":50.4493418,"lon":5.5702881,"ts":"2024-11-12T17:33:15Z","tz":1,"tags":{"climbing":"route","climbing:bolts":"3","panoramax":"f5e336f3-55d4-4d07-a568-4f9658eeaa8b","sport":"climbing"}},"7942534712":{"lat":50.4033076,"lon":5.5297589,"ts":"2020-09-25T15:12:33Z","tz":1,"tags":{"climbing":"route_bottom","sport":"climbing"}},"7942534713":{"lat":50.4034556,"lon":5.5297179,"ts":"2020-09-25T15:12:33Z","tz":1,"tags":{"climbing":"route_top","sport":"climbing"}},"8607739755":{"lat":50.3577849,"lon":5.5661505,"ts":"2023-10-14T10:33:05Z","tz":1,"tags":{"name":"La Grotte de Hohière","natural":"cave_entrance","sport":"climbing"}},"8781421258":{"lat":50.3579088,"lon":5.4667055,"ts":"2022-11-16T14:53:36Z","tz":1,"tags":{"climbing:grade:french:max":"6b+","climbing:grade:french:min":"3c","leisure":"pitch","name":"La Roche aux Corbeaux","note":"Climbing. Levels 3c to 6b+. Requires 70m rope","sport":"climbing","website":"https://www.clubalpin.be/location/bohon/roche-aux-corbeaux"}},"10665687734":{"lat":50.3135649,"lon":5.549748,"ts":"2023-10-14T10:16:27Z","tz":1,"tags":{"name":"Les Blocs de Wérihez","place":"locality","sport":"climbing"}},"11262222596":{"lat":50.3752889,"lon":5.5355429,"ts":"2023-10-14T10:33:05Z","tz":1,"tags":{"name":"Roc à l'Aisne","natural":"cliff","sport":"climbing"}}}