{"261936481":{"lat":45.0473737,"lon":3.8737065,"ts":"2016-08-01T14:04:51Z","tz":1,"tags":{"area":"yes","name":"Mur d’escalade du Gymnase Massot","sport":"climbing","website":"http://www.clubalpinlepuy.com"}},"700194132":{"lat":44.9801413,"lon":4.1957273,"ts":"2019-08-15T14:32:49Z","tz":1,"tags":{"name":"Site naturel d'escalade des Roches","natural":"cliff","sport":"climbing"}},"703836489":{"lat":44.925846,"lon":4.190231,"ts":"2023-08-07T14:51:41Z","tz":1,"tags":{"climbing:bolted":"yes","climbing:grade:french:max":"6b","climbing:grade:french:mean":"4","climbing:grade:french:min":"3","climbing:length:max":"45","climbing:length:mean":"20","climbing:length:min":"10","climbing:orientation":"SE","climbing:quality":"solid","climbing:rock":"rhyolite","climbing:sport":"yes","fee":"no","name":"Rochers des Dents du Diable et Roche pointue","natural":"cliff","source":"data.gouv.fr:Le ministère des droits des femmes, de la ville, de la jeunesse et des sports - 2014","sport":"climbing","website":"https://www.myhauteloire.fr/activite-auvergne/site-descalade-de-la-roche-pointue/"}},"3925033413":{"lat":45.02478,"lon":4.11279,"ts":"2016-01-03T09:42:43Z","tz":1,"tags":{"source":"data.gouv.fr:Le ministère des droits des femmes, de la ville, de la jeunesse et des sports - 2014","sport":"climbing"}},"4938611645":{"lat":44.9548906,"lon":3.9296039,"ts":"2017-06-27T14:45:07Z","tz":1,"tags":{"name":"Mur d'escalade","sport":"climbing"}},"10296369989":{"lat":44.8933396,"lon":4.1178584,"ts":"2022-12-31T06:06:59Z","tz":1,"tags":{"name":"site de Rocher Tourtre","sport":"climbing"}}}