{"113714841":{"lat":48.7974045,"lon":2.0457574,"ts":"2024-04-27T13:48:31Z","tz":1,"tags":{"addr:city":"Montigny-le-Bretonneux","addr:housenumber":"10","addr:postcode":"78180","building":"yes","leisure":"sports_centre","name":"Vertical Art","opening_hours":"Mo-Fr 11:00-23:00; Sa,Su 09:00-21:00","phone":"+33 1 75 21 38 59","source":"http://www.vertical-art.fr/contact/","sport":"climbing","website":"https://www.vertical-art.fr/"}},"2939201316":{"lat":48.7781675,"lon":2.0326868,"ts":"2014-06-29T15:08:29Z","tz":1,"tags":{"name":"Mur d'Escalade D'Extérieur","source":"data.gouv.fr:Le ministère des droits des femmes, de la ville, de la jeunesse et des sports - 2014","sport":"climbing"}},"2939201329":{"lat":48.7783403,"lon":2.0327205,"ts":"2014-06-29T15:08:30Z","tz":1,"tags":{"source":"data.gouv.fr:Le ministère des droits des femmes, de la ville, de la jeunesse et des sports - 2014","sport":"climbing"}},"3033313340":{"lat":48.8247837,"lon":1.9554543,"ts":"2014-08-21T19:28:29Z","tz":1,"tags":{"source":"data.gouv.fr:Le ministère des droits des femmes, de la ville, de la jeunesse et des sports - 2014","sport":"climbing"}},"3245238513":{"lat":48.7667,"lon":1.9396883,"ts":"2023-02-18T07:58:14Z","tz":1,"tags":{"man_made":"yes","source":"data.gouv.fr:Le ministère des droits des femmes, de la ville, de la jeunesse et des sports - 2014","sport":"climbing"}},"8912425017":{"lat":48.7158431,"lon":1.9766476,"ts":"2023-10-15T18:38:56Z","tz":1,"tags":{"climbing":"crag","climbing:boulder":"yes","name":"Dampierre Maincourt","natural":"stone","sport":"climbing","url":"https://bleau.info/maincourt"}},"9266037328":{"lat":48.8751515,"lon":2.087433,"ts":"2021-11-19T08:35:08Z","tz":1,"tags":{"sport":"climbing"}},"9996951732":{"lat":48.7783966,"lon":2.0318013,"ts":"2024-05-16T17:48:11Z","tz":1,"tags":{"name":"Mur d'escalade d'extérieur","source":"survey","sport":"climbing"}},"10029578647":{"lat":48.7622403,"lon":1.9129617,"ts":"2022-09-16T12:50:02Z","tz":1,"tags":{"addr:city":"Maurepas","addr:housenumber":"3","addr:postcode":"78310","addr:street":"Avenue Louis Pasteur","leisure":"sports_centre","name":"Escalade Grip'Forth","opening_hours":"selon organisation de l'association","sport":"climbing"}},"11244503541":{"lat":48.7159208,"lon":1.97705,"ts":"2023-10-06T20:13:08Z","tz":1,"tags":{"climbing":"boulder","climbing:grade:french":"2+","name":"Le Petit Poucet","ref":"9","ref:bleau.info":"14592","sport":"climbing"}},"11244503542":{"lat":48.7135511,"lon":1.983912,"ts":"2023-10-06T20:13:08Z","tz":1,"tags":{"climbing":"boulder","climbing:grade:french":"3+","name":"Le Dévers","ref":"5","ref:bleau.info":"15266","sport":"climbing"}},"11244503543":{"lat":48.7171478,"lon":1.9746473,"ts":"2023-10-06T20:13:08Z","tz":1,"tags":{"climbing":"boulder","climbing:grade:french":"2","name":"La Dalle au Micro-Braquet","ref":"49","ref:bleau.info":"15310","sport":"climbing"}},"11244503544":{"lat":48.7132503,"lon":1.9838342,"ts":"2023-10-06T20:13:08Z","tz":1,"tags":{"climbing":"boulder","climbing:grade:french":"6a","name":"L'Acrobate","ref":"1","ref:bleau.info":"8799","sport":"climbing"}},"11244503545":{"lat":48.7161702,"lon":1.9763301,"ts":"2023-10-06T20:13:08Z","tz":1,"tags":{"climbing":"boulder","climbing:grade:french":"2+","name":"Incursion Cavernicole","ref":"6","ref:bleau.info":"14589","sport":"climbing"}},"11244503546":{"lat":48.7167014,"lon":1.9759684,"ts":"2023-10-06T20:13:08Z","tz":1,"tags":{"climbing":"boulder","climbing:grade:french":"4+","name":"La Dalle Noire (droite)","ref":"60","ref:bleau.info":"15321","sport":"climbing"}},"11244503547":{"lat":48.7156713,"lon":1.9761807,"ts":"2023-10-06T20:13:08Z","tz":1,"tags":{"climbing":"boulder","climbing:grade:french":"4+","name":"Le GO des GR","ref":"25","ref:bleau.info":"8841","sport":"climbing"}},"11244503548":{"lat":48.7155993,"lon":1.9794139,"ts":"2023-10-06T20:13:08Z","tz":1,"tags":{"climbing":"boulder","climbing:grade:french":"4+","name":"Le Bitonio Dynamique","ref":"18","ref:bleau.info":"15279","sport":"climbing"}},"11244503549":{"lat":48.715995,"lon":1.9775161,"ts":"2023-10-06T20:13:08Z","tz":1,"tags":{"climbing":"boulder","climbing:grade:french":"3","name":"Le Mur des Lamentations","ref":"27","ref:bleau.info":"15288","sport":"climbing"}},"11244503550":{"lat":48.7163983,"lon":1.975302,"ts":"2023-10-06T20:13:08Z","tz":1,"tags":{"climbing":"boulder","climbing:grade:french":"3","name":"Le Mur Glauque","ref":"38","ref:bleau.info":"15299","sport":"climbing"}},"11244503551":{"lat":48.7166717,"lon":1.9760756,"ts":"2023-10-06T20:13:08Z","tz":1,"tags":{"climbing":"boulder","climbing:grade:french":"3+","name":"La Dame de Compagnie","ref":"57","ref:bleau.info":"15318","sport":"climbing"}},"11244503552":{"lat":48.7169539,"lon":1.975655,"ts":"2023-10-06T20:13:08Z","tz":1,"tags":{"climbing":"boulder","climbing:grade:french":"7a","name":"Le Toit aux Grattons de Maincourt","ref":"19","ref:bleau.info":"8539","sport":"climbing"}},"11244503553":{"lat":48.7162239,"lon":1.9759606,"ts":"2023-10-06T20:13:08Z","tz":1,"tags":{"climbing":"boulder","climbing:grade:french":"2","name":"Allons z'Enfants","ref":"1","ref:bleau.info":"14584","sport":"climbing"}},"11244503554":{"lat":48.7168062,"lon":1.9742517,"ts":"2023-10-06T20:13:08Z","tz":1,"tags":{"climbing":"boulder","climbing:grade:french":"2+","name":"Histoire en Coin","ref":"27","ref:bleau.info":"15258","sport":"climbing"}},"11244503555":{"lat":48.7159481,"lon":1.978117,"ts":"2023-10-06T20:13:08Z","tz":1,"tags":{"climbing":"boulder","climbing:grade:french":"3","name":"Le Dièdre de Marcel","ref":"25","ref:bleau.info":"15286","sport":"climbing"}},"11244503556":{"lat":48.7170894,"lon":1.9747776,"ts":"2023-10-06T20:13:08Z","tz":1,"tags":{"climbing":"boulder","climbing:grade:french":"4-","name":"Le Surplomb Intellectuel","ref":"47","ref:bleau.info":"15308","sport":"climbing"}},"11244503557":{"lat":48.7156771,"lon":1.9792813,"ts":"2023-10-06T20:13:08Z","tz":1,"tags":{"climbing":"boulder","climbing:grade:french":"5-","name":"La Cuvette","ref":"12","ref:bleau.info":"8811","sport":"climbing"}},"11244503558":{"lat":48.7135387,"lon":1.9838637,"ts":"2023-10-06T20:13:08Z","tz":1,"tags":{"climbing":"boulder","climbing:grade:french":"4","name":"Le Coup de l'Étrier","ref":"4","ref:bleau.info":"15265","sport":"climbing"}},"11244503559":{"lat":48.71623,"lon":1.9768402,"ts":"2023-10-06T20:13:08Z","tz":1,"tags":{"climbing":"boulder","climbing:grade:french":"4","name":"Le Mur du Chemin","ref":"30","ref:bleau.info":"15291","sport":"climbing"}},"11244503560":{"lat":48.7170687,"lon":1.9742219,"ts":"2023-10-06T20:13:08Z","tz":1,"tags":{"climbing":"boulder","climbing:grade:french":"2","name":"L'Inversion","ref":"28","ref:bleau.info":"15259","sport":"climbing"}},"11244503561":{"lat":48.7164464,"lon":1.9766289,"ts":"2023-10-06T20:13:08Z","tz":1,"tags":{"climbing":"boulder","climbing:grade:french":"1","name":"L'Indifférente","ref":"16","ref:bleau.info":"14599","sport":"climbing"}},"11244503562":{"lat":48.7138975,"lon":1.9849697,"ts":"2023-10-06T20:13:08Z","tz":1,"tags":{"climbing":"boulder","climbing:grade:french":"6c+","name":"La Barbare","ref":"6","ref:bleau.info":"19894","sport":"climbing"}},"11244503563":{"lat":48.716118,"lon":1.9769416,"ts":"2023-10-06T20:13:08Z","tz":1,"tags":{"climbing":"boulder","climbing:grade:french":"2","name":"La Farandole","ref":"10","ref:bleau.info":"14593","sport":"climbing"}},"11244503564":{"lat":48.7151489,"lon":1.9798458,"ts":"2023-10-06T20:13:08Z","tz":1,"tags":{"climbing":"boulder","climbing:grade:french":"4-","name":"La Concave","ref":"14","ref:bleau.info":"15275","sport":"climbing"}},"11244503565":{"lat":48.7167734,"lon":1.9762316,"ts":"2023-10-06T20:13:08Z","tz":1,"tags":{"climbing":"boulder","climbing:grade:french":"5","name":"La Feuille Morte","ref":"15","ref:bleau.info":"8831","sport":"climbing"}},"11244503566":{"lat":48.7170409,"lon":1.9744327,"ts":"2023-10-06T20:13:08Z","tz":1,"tags":{"climbing":"boulder","climbing:grade:french":"6a","name":"Bouquet de Roses","ref":"13","ref:bleau.info":"8773","sport":"climbing"}},"11244503567":{"lat":48.7171142,"lon":1.9753072,"ts":"2023-10-06T20:13:08Z","tz":1,"tags":{"climbing":"boulder","climbing:grade:french":"4","name":"La Fissure gauche du Rempart","ref":"52","ref:bleau.info":"15313","sport":"climbing"}},"11244503568":{"lat":48.7167938,"lon":1.9761762,"ts":"2023-10-06T20:13:08Z","tz":1,"tags":{"climbing":"boulder","climbing:grade:french":"4","name":"Le Surplomb Exterminateur","ref":"56","ref:bleau.info":"15317","sport":"climbing"}},"11244503569":{"lat":48.7155815,"lon":1.9795683,"ts":"2023-10-06T20:13:08Z","tz":1,"tags":{"climbing":"boulder","climbing:grade:french":"4","name":"L'Oubliée","ref":"8","ref:bleau.info":"8807","sport":"climbing"}},"11244503570":{"lat":48.7158145,"lon":1.9777227,"ts":"2023-10-06T20:13:08Z","tz":1,"tags":{"climbing":"boulder","climbing:grade:french":"3-","name":"La Bestiale","ref":"26","ref:bleau.info":"15287","sport":"climbing"}},"11244503571":{"lat":48.7157198,"lon":1.9791328,"ts":"2023-10-06T20:13:08Z","tz":1,"tags":{"climbing":"boulder","climbing:grade:french":"3-","name":"La Vire Suspendue","ref":"22","ref:bleau.info":"15283","sport":"climbing"}},"11244503572":{"lat":48.7155809,"lon":1.9772157,"ts":"2023-10-06T20:13:08Z","tz":1,"tags":{"climbing":"boulder","climbing:grade:french":"2+","name":"Le Pilier du Vide-Ordure","ref":"29","ref:bleau.info":"15290","sport":"climbing"}},"11244503573":{"lat":48.7163154,"lon":1.9760665,"ts":"2023-10-06T20:13:08Z","tz":1,"tags":{"climbing":"boulder","climbing:grade:french":"4+","name":"Le Sumac","ref":"3","ref:bleau.info":"8813","sport":"climbing"}},"11244503574":{"lat":48.7161761,"lon":1.9760934,"ts":"2023-10-06T20:13:08Z","tz":1,"tags":{"climbing":"boulder","climbing:grade:french":"3","name":"L'Œilleton","ref":"2","ref:bleau.info":"14585","sport":"climbing"}},"11244503575":{"lat":48.7161756,"lon":1.9765511,"ts":"2023-10-06T20:13:08Z","tz":1,"tags":{"climbing":"boulder","climbing:grade:french":"3+","name":"Le Pied du Dépendeur d'Andouilles","ref":"7","ref:bleau.info":"14590","sport":"climbing"}},"11244503576":{"lat":48.717077,"lon":1.975393,"ts":"2023-10-06T20:13:08Z","tz":1,"tags":{"climbing":"boulder","climbing:grade:french":"2+","name":"La Voie Normale du Rempart","ref":"53","ref:bleau.info":"15314","sport":"climbing"}},"11244503577":{"lat":48.7137948,"lon":1.9847927,"ts":"2023-10-06T20:13:08Z","tz":1,"tags":{"climbing":"boulder","climbing:grade:french":"6a","name":"La Vicieuse","ref":"2","ref:bleau.info":"8800","sport":"climbing"}},"11244503578":{"lat":48.7166763,"lon":1.9760452,"ts":"2023-10-06T20:13:08Z","tz":1,"tags":{"climbing":"boulder","climbing:grade:french":"5-","name":"La Lépiote Élevée","ref":"17","ref:bleau.info":"8828","sport":"climbing"}},"11244503579":{"lat":48.7162999,"lon":1.9750989,"ts":"2023-10-06T20:13:08Z","tz":1,"tags":{"climbing":"boulder","climbing:grade:french":"4+","name":"Le Phlagmite","ref":"8","ref:bleau.info":"8819","sport":"climbing"}},"11244503580":{"lat":48.7167073,"lon":1.9762016,"ts":"2023-10-06T20:13:08Z","tz":1,"tags":{"climbing":"boulder","climbing:grade:french":"3-","name":"Kikikoko","ref":"17","ref:bleau.info":"14600","sport":"climbing"}},"11244503581":{"lat":48.717254,"lon":1.9743924,"ts":"2023-10-06T20:13:08Z","tz":1,"tags":{"climbing":"boulder","climbing:grade:french":"4","name":"Le Marteau","ref":"50","ref:bleau.info":"306532","sport":"climbing"}},"11244503582":{"lat":48.7149825,"lon":1.9813786,"ts":"2023-10-06T20:13:08Z","tz":1,"tags":{"climbing":"boulder","climbing:grade:french":"3","name":"Le Marchepied","ref":"11","ref:bleau.info":"15272","sport":"climbing"}},"11244503583":{"lat":48.7171301,"lon":1.9752687,"ts":"2023-10-06T20:13:08Z","tz":1,"tags":{"climbing":"boulder","climbing:grade:french":"6a","name":"La Longitudinale","ref":"20","ref:bleau.info":"8835","sport":"climbing"}},"11244503584":{"lat":48.7153754,"lon":1.9817435,"ts":"2023-10-06T20:13:08Z","tz":1,"tags":{"climbing":"boulder","climbing:grade:french":"3-","name":"L'Équilibre Élémentaire","ref":"10","ref:bleau.info":"15271","sport":"climbing"}},"11244503585":{"lat":48.7145826,"lon":1.9800831,"ts":"2023-10-06T20:13:08Z","tz":1,"tags":{"climbing":"boulder","climbing:grade:french":"4","name":"L'Étreinte du Gros Nounours","ref":"13","ref:bleau.info":"15274","sport":"climbing"}},"11244503586":{"lat":48.7161934,"lon":1.9769643,"ts":"2023-10-06T20:13:08Z","tz":1,"tags":{"climbing":"boulder","climbing:grade:french":"2","name":"La Pompe à Bras","ref":"11","ref:bleau.info":"14594","sport":"climbing"}},"11244503587":{"lat":48.7170009,"lon":1.9747159,"ts":"2023-10-06T20:13:08Z","tz":1,"tags":{"climbing":"boulder","climbing:grade:french":"3-","name":"Le Vis-à-Vis","ref":"46","ref:bleau.info":"15307","sport":"climbing"}},"11244503588":{"lat":48.7157479,"lon":1.9790318,"ts":"2023-10-06T20:13:08Z","tz":1,"tags":{"climbing":"boulder","climbing:grade:french":"6c","name":"Pince-Moi Fort","ref":"13","ref:bleau.info":"8829","sport":"climbing"}},"11244503589":{"lat":48.7155119,"lon":1.9789571,"ts":"2023-10-06T20:13:08Z","tz":1,"tags":{"climbing":"boulder","climbing:grade:french":"3-","name":"Le Tryptique","ref":"21","ref:bleau.info":"15282","sport":"climbing"}},"11244503590":{"lat":48.716685,"lon":1.9760952,"ts":"2023-10-06T20:13:08Z","tz":1,"tags":{"climbing":"boulder","climbing:grade:french":"2+","name":"Du Jaune sur la Noire","ref":"18","ref:bleau.info":"14601","sport":"climbing"}},"11244503591":{"lat":48.716435,"lon":1.9746421,"ts":"2023-10-06T20:13:08Z","tz":1,"tags":{"climbing":"boulder","climbing:grade:french":"3-","name":"Le Pied dans l'Œil","ref":"41","ref:bleau.info":"15302","sport":"climbing"}},"11244503592":{"lat":48.7171367,"lon":1.9750392,"ts":"2023-10-06T20:13:08Z","tz":1,"tags":{"climbing":"boulder","climbing:grade:french":"3-","name":"La Croisière Jaune","ref":"23","ref:bleau.info":"15254","sport":"climbing"}},"11244503593":{"lat":48.7172539,"lon":1.9746473,"ts":"2023-10-06T20:13:08Z","tz":1,"tags":{"climbing":"boulder","climbing:grade:french":"2+","name":"La Facile","ref":"51","ref:bleau.info":"15312","sport":"climbing"}},"11244503594":{"lat":48.7162591,"lon":1.9762678,"ts":"2023-10-06T20:13:08Z","tz":1,"tags":{"climbing":"boulder","climbing:grade:french":"3","name":"La Fissure Oblique","ref":"31","ref:bleau.info":"15292","sport":"climbing"}},"11244503595":{"lat":48.7166832,"lon":1.9760171,"ts":"2023-10-06T20:13:08Z","tz":1,"tags":{"climbing":"boulder","climbing:grade:french":"5-","name":"La Traviatta","ref":"16","ref:bleau.info":"8832","sport":"climbing"}},"11244503596":{"lat":48.7162622,"lon":1.9762872,"ts":"2023-10-06T20:13:08Z","tz":1,"tags":{"climbing":"boulder","climbing:grade:french":"5","name":"Le Grimpereau de Maincourt","ref":"2","ref:bleau.info":"8759","sport":"climbing"}},"11244503597":{"lat":48.716719,"lon":1.9759348,"ts":"2023-10-06T20:13:08Z","tz":1,"tags":{"climbing":"boulder","climbing:grade:french":"4","name":"La Dalle Noire (gauche)","ref":"59","ref:bleau.info":"15320","sport":"climbing"}},"11244503598":{"lat":48.7171179,"lon":1.9748676,"ts":"2023-10-06T20:13:08Z","tz":1,"tags":{"climbing":"boulder","climbing:grade:french":"3-","name":"Le Pignon","ref":"48","ref:bleau.info":"15309","sport":"climbing"}},"11244503599":{"lat":48.7155789,"lon":1.9794584,"ts":"2023-10-06T20:13:08Z","tz":1,"tags":{"climbing":"boulder","climbing:grade:french":"5+","name":"Belle Vue","ref":"9","ref:bleau.info":"8808","sport":"climbing"}},"11244503600":{"lat":48.7155435,"lon":1.9796848,"ts":"2023-10-06T20:13:08Z","tz":1,"tags":{"climbing":"boulder","climbing:grade:french":"3-","name":"La Loggia","ref":"16","ref:bleau.info":"15277","sport":"climbing"}},"11244503601":{"lat":48.7172199,"lon":1.9747563,"ts":"2023-10-06T20:13:08Z","tz":1,"tags":{"climbing":"boulder","climbing:grade:french":"1","name":"Les Petits Pas","ref":"25","ref:bleau.info":"15256","sport":"climbing"}},"11244503602":{"lat":48.7163147,"lon":1.9749882,"ts":"2023-10-06T20:13:08Z","tz":1,"tags":{"climbing":"boulder","climbing:grade:french":"4-","name":"L'Écaille Cassée","ref":"40","ref:bleau.info":"15301","sport":"climbing"}},"11244503603":{"lat":48.7163885,"lon":1.9756895,"ts":"2023-10-06T20:13:08Z","tz":1,"tags":{"climbing":"boulder","climbing:grade:french":"3+","name":"Le Menhir Moussu","ref":"36","ref:bleau.info":"15297","sport":"climbing"}},"11244503604":{"lat":48.7171165,"lon":1.9747691,"ts":"2023-10-06T20:13:08Z","tz":1,"tags":{"climbing":"boulder","climbing:grade:french":"2","name":"Diagonale","ref":"29","ref:bleau.info":"15260","sport":"climbing"}},"11244503605":{"lat":48.7162164,"lon":1.9770661,"ts":"2023-10-06T20:13:08Z","tz":1,"tags":{"climbing":"boulder","climbing:grade:french":"2+","name":"Un Pied dans l'Œil","ref":"12","ref:bleau.info":"14595","sport":"climbing"}},"11244503606":{"lat":48.7167377,"lon":1.9759174,"ts":"2023-10-06T20:13:08Z","tz":1,"tags":{"climbing":"boulder","climbing:grade:french":"4","name":"L'Arête Ouest de la Dalle Noire","ref":"58","ref:bleau.info":"15319","sport":"climbing"}},"11244503607":{"lat":48.7138178,"lon":1.9848436,"ts":"2023-10-06T20:13:08Z","tz":1,"tags":{"climbing":"boulder","climbing:grade:french":"6a+","name":"La Magnésie","ref":"3","ref:bleau.info":"8801","sport":"climbing"}},"11244503608":{"lat":48.7172722,"lon":1.9745812,"ts":"2023-10-06T20:13:08Z","tz":1,"tags":{"climbing":"boulder","climbing:grade:french":"2+","name":"Translation","ref":"26","ref:bleau.info":"15257","sport":"climbing"}},"11244503609":{"lat":48.7137989,"lon":1.9847388,"ts":"2023-10-06T20:13:08Z","tz":1,"tags":{"climbing":"boulder","climbing:grade:french":"4","name":"Le Surplomb de la Butte Ronde","ref":"7","ref:bleau.info":"15268","sport":"climbing"}},"11244503610":{"lat":48.7167452,"lon":1.9744879,"ts":"2023-10-06T20:13:08Z","tz":1,"tags":{"climbing":"boulder","climbing:grade:french":"3+","name":"Le Surplomb des Ouistitis","ref":"43","ref:bleau.info":"15304","sport":"climbing"}},"11244503611":{"lat":48.716086,"lon":1.9822195,"ts":"2023-10-06T20:13:08Z","tz":1,"tags":{"climbing":"boulder","climbing:grade:french":"3","name":"La Dalle Perdue","ref":"8","ref:bleau.info":"15269","sport":"climbing"}},"11244503612":{"lat":48.717223,"lon":1.9748649,"ts":"2023-10-06T20:13:08Z","tz":1,"tags":{"climbing":"boulder","climbing:grade:french":"2+","name":"La Gugus","ref":"24","ref:bleau.info":"15255","sport":"climbing"}},"11244503613":{"lat":48.7169127,"lon":1.9744721,"ts":"2023-10-06T20:13:08Z","tz":1,"tags":{"climbing":"boulder","climbing:grade:french":"5+","name":"L'Originale","ref":"21","ref:bleau.info":"8836","sport":"climbing"}},"11244503614":{"lat":48.7160677,"lon":1.9766557,"ts":"2023-10-06T20:13:08Z","tz":1,"tags":{"climbing":"boulder","climbing:grade:french":"2+","name":"Jambe d'Anguille","ref":"8","ref:bleau.info":"14591","sport":"climbing"}},"11244503615":{"lat":48.7166609,"lon":1.9745249,"ts":"2023-10-06T20:13:08Z","tz":1,"tags":{"climbing":"boulder","climbing:grade:french":"5-","name":"La Foulque Macroule","ref":"9","ref:bleau.info":"8820","sport":"climbing"}},"11244503616":{"lat":48.7166678,"lon":1.974563,"ts":"2023-10-06T20:13:08Z","tz":1,"tags":{"climbing":"boulder","climbing:grade:french":"3","name":"Le Dièdre Pourri","ref":"42","ref:bleau.info":"15303","sport":"climbing"}},"11244503617":{"lat":48.7169051,"lon":1.9752958,"ts":"2023-10-06T20:13:08Z","tz":1,"tags":{"climbing":"boulder","climbing:grade:french":"3-","name":"La Ronceraie","ref":"20","ref:bleau.info":"14603","sport":"climbing"}},"11244503618":{"lat":48.715732,"lon":1.9790936,"ts":"2023-10-06T20:13:08Z","tz":1,"tags":{"climbing":"boulder","climbing:grade:french":"5+","name":"La Gouttière","ref":"14","ref:bleau.info":"8830","sport":"climbing"}},"11244503619":{"lat":48.7132892,"lon":1.9837752,"ts":"2023-10-06T20:13:08Z","tz":1,"tags":{"climbing":"boulder","climbing:grade:french":"3+","name":"L'Air de Rien","ref":"1","ref:bleau.info":"15262","sport":"climbing"}},"11244503620":{"lat":48.7154596,"lon":1.9790348,"ts":"2023-10-06T20:13:08Z","tz":1,"tags":{"climbing":"boulder","climbing:grade:french":"3","name":"La Montagne","ref":"20","ref:bleau.info":"15281","sport":"climbing"}},"11244503621":{"lat":48.7163491,"lon":1.9769615,"ts":"2023-10-06T20:13:08Z","tz":1,"tags":{"climbing":"boulder","climbing:grade:french":"3","name":"Zig Zag","ref":"14","ref:bleau.info":"14597","sport":"climbing"}},"11244503622":{"lat":48.7159739,"lon":1.9753787,"ts":"2023-10-06T20:13:08Z","tz":1,"tags":{"climbing":"boulder","climbing:grade:french":"5+","name":"Le Moulin des Roches","ref":"23","ref:bleau.info":"8838","sport":"climbing"}},"11244503623":{"lat":48.7164012,"lon":1.9756826,"ts":"2023-10-06T20:13:08Z","tz":1,"tags":{"climbing":"boulder","climbing:grade:french":"5-","name":"Le Lycope","ref":"5","ref:bleau.info":"8815","sport":"climbing"}},"11244503624":{"lat":48.7170467,"lon":1.9754463,"ts":"2023-10-06T20:13:08Z","tz":1,"tags":{"climbing":"boulder","climbing:grade:french":"5","name":"Histoire Ancienne","ref":"14","ref:bleau.info":"306534","sport":"climbing"}},"11244503625":{"lat":48.7162884,"lon":1.9758888,"ts":"2023-10-06T20:13:08Z","tz":1,"tags":{"climbing":"boulder","climbing:grade:french":"5-","name":"La Véronique","ref":"4","ref:bleau.info":"8814","sport":"climbing"}},"11244503626":{"lat":48.7169566,"lon":1.9758213,"ts":"2023-10-06T20:13:08Z","tz":1,"tags":{"climbing":"boulder","climbing:grade:french":"5-","name":"La Banquette","ref":"17","ref:bleau.info":"8833","sport":"climbing"}},"11244503627":{"lat":48.7163942,"lon":1.9768435,"ts":"2023-10-06T20:13:08Z","tz":1,"tags":{"climbing":"boulder","climbing:grade:french":"2","name":"L'Ex Mauve-Orangé","ref":"15","ref:bleau.info":"14598","sport":"climbing"}},"11244503628":{"lat":48.7171053,"lon":1.9749162,"ts":"2023-10-06T20:13:08Z","tz":1,"tags":{"climbing":"boulder","climbing:grade:french":"2","name":"Usagé dans le Neuf","ref":"30","ref:bleau.info":"15261","sport":"climbing"}},"11244503629":{"lat":48.7144958,"lon":1.9802454,"ts":"2023-10-06T20:13:08Z","tz":1,"tags":{"climbing":"boulder","climbing:grade:french":"4-","name":"Le Cyclope","ref":"12","ref:bleau.info":"15273","sport":"climbing"}},"11244503630":{"lat":48.715617,"lon":1.9793645,"ts":"2023-10-06T20:13:08Z","tz":1,"tags":{"climbing":"boulder","climbing:grade:french":"5","name":"L'Enclume","ref":"10","ref:bleau.info":"8809","sport":"climbing"}},"11244503631":{"lat":48.7153785,"lon":1.9799098,"ts":"2023-10-06T20:13:08Z","tz":1,"tags":{"climbing":"boulder","climbing:grade:french":"3+","name":"Le Mur des Champignons Noirs","ref":"15","ref:bleau.info":"15276","sport":"climbing"}},"11244503632":{"lat":48.7163202,"lon":1.976061,"ts":"2023-10-06T20:13:08Z","tz":1,"tags":{"climbing":"boulder","climbing:grade:french":"3+","name":"L'Évidence","ref":"33","ref:bleau.info":"15294","sport":"climbing"}},"11244503633":{"lat":48.7163311,"lon":1.9751329,"ts":"2023-10-06T20:13:08Z","tz":1,"tags":{"climbing":"boulder","climbing:grade:french":"3+","name":"La Petite Dalle Noire","ref":"39","ref:bleau.info":"15300","sport":"climbing"}},"11244503634":{"lat":48.7163001,"lon":1.9758786,"ts":"2023-10-06T20:13:08Z","tz":1,"tags":{"climbing":"boulder","climbing:grade:french":"4-","name":"Le Cervin de Maincourt","ref":"35","ref:bleau.info":"15296","sport":"climbing"}},"11244503635":{"lat":48.7158057,"lon":1.9784882,"ts":"2023-10-06T20:13:08Z","tz":1,"tags":{"climbing":"boulder","climbing:grade:french":"3+","name":"La Sélection Naturelle","ref":"24","ref:bleau.info":"15285","sport":"climbing"}},"11244503636":{"lat":48.7138479,"lon":1.9848812,"ts":"2023-10-06T20:13:08Z","tz":1,"tags":{"climbing":"boulder","climbing:grade:french":"6a","name":"La Traversée de la Maincourte","ref":"4","ref:bleau.info":"8802","sport":"climbing"}},"11244504937":{"lat":48.7135069,"lon":1.9841695,"ts":"2023-10-06T20:13:08Z","tz":1,"tags":{"climbing":"boulder","climbing:grade:french":"4","name":"Le Culot qui Manque","ref":"3","ref:bleau.info":"15264","sport":"climbing"}},"11244504938":{"lat":48.7168792,"lon":1.9745268,"ts":"2023-10-06T20:13:08Z","tz":1,"tags":{"climbing":"boulder","climbing:grade:french":"1+","name":"Le Dièdre Vert","ref":"44","ref:bleau.info":"15305","sport":"climbing"}},"11244504939":{"lat":48.7162309,"lon":1.9759866,"ts":"2023-10-06T20:13:08Z","tz":1,"tags":{"climbing":"boulder","climbing:grade:french":"3-","name":"Le Jardinage","ref":"34","ref:bleau.info":"15295","sport":"climbing"}},"11244504940":{"lat":48.7170718,"lon":1.9748012,"ts":"2023-10-06T20:13:08Z","tz":1,"tags":{"climbing":"boulder","climbing:grade:french":"4+","name":"Le Gammare","ref":"12","ref:bleau.info":"8823","sport":"climbing"}},"11244504941":{"lat":48.7155933,"lon":1.9773633,"ts":"2023-10-06T20:13:08Z","tz":1,"tags":{"climbing":"boulder","climbing:grade:french":"2+","name":"La Dalle Baveuse","ref":"28","ref:bleau.info":"15289","sport":"climbing"}},"11244504942":{"lat":48.7163039,"lon":1.9750381,"ts":"2023-10-06T20:13:08Z","tz":1,"tags":{"climbing":"boulder","climbing:grade:french":"5-","name":"La Photocopieuse","ref":"22","ref:bleau.info":"8837","sport":"climbing"}},"11244504943":{"lat":48.7170186,"lon":1.975511,"ts":"2023-10-06T20:13:08Z","tz":1,"tags":{"climbing":"boulder","climbing:grade:french":"4-","name":"L'Œil de Droite","ref":"54","ref:bleau.info":"15315","sport":"climbing"}},"11244504944":{"lat":48.7167398,"lon":1.9758296,"ts":"2023-10-06T20:13:08Z","tz":1,"tags":{"climbing":"boulder","climbing:grade:french":"3","name":"À l'Ombre de la Grande","ref":"19","ref:bleau.info":"14602","sport":"climbing"}},"11244504945":{"lat":48.71699,"lon":1.975579,"ts":"2023-10-06T20:13:08Z","tz":1,"tags":{"climbing":"boulder","climbing:grade:french":"5+","name":"La Daphnie","ref":"15","ref:bleau.info":"8826","sport":"climbing"}},"11244504946":{"lat":48.716744,"lon":1.9745142,"ts":"2023-10-06T20:13:08Z","tz":1,"tags":{"climbing":"boulder","climbing:grade:french":"4+","name":"Le Strobile","ref":"10","ref:bleau.info":"8821","sport":"climbing"}},"11244504947":{"lat":48.7163097,"lon":1.9758717,"ts":"2023-10-06T20:13:08Z","tz":1,"tags":{"climbing":"boulder","climbing:grade:french":"2+","name":"La Marbrée","ref":"3","ref:bleau.info":"14586","sport":"climbing"}},"11244504948":{"lat":48.7159851,"lon":1.9822222,"ts":"2023-10-06T20:13:08Z","tz":1,"tags":{"climbing":"boulder","climbing:grade:french":"3+","name":"Les Bossettes","ref":"9","ref:bleau.info":"15270","sport":"climbing"}},"11244504949":{"lat":48.7163061,"lon":1.9760685,"ts":"2023-10-06T20:13:08Z","tz":1,"tags":{"climbing":"boulder","climbing:grade:french":"3","name":"Le Pied Aveugle","ref":"32","ref:bleau.info":"15293","sport":"climbing"}},"11244504950":{"lat":48.7157208,"lon":1.9761082,"ts":"2023-10-06T20:13:08Z","tz":1,"tags":{"climbing":"boulder","climbing:grade:french":"4+","name":"Le GR 11","ref":"24","ref:bleau.info":"8840","sport":"climbing"}},"11244504951":{"lat":48.7163273,"lon":1.9760548,"ts":"2023-10-06T20:13:08Z","tz":1,"tags":{"climbing":"boulder","climbing:grade:french":"3","name":"La Tuture","ref":"4","ref:bleau.info":"14587","sport":"climbing"}},"11244504952":{"lat":48.7168329,"lon":1.9761485,"ts":"2023-10-06T20:13:08Z","tz":1,"tags":{"climbing":"boulder","climbing:grade:french":"5-","name":"Le Grèbe Castagneux","ref":"16","ref:bleau.info":"8827","sport":"climbing"}},"11244504953":{"lat":48.7134609,"lon":1.9842339,"ts":"2023-10-06T20:13:08Z","tz":1,"tags":{"climbing":"boulder","climbing:grade:french":"4","name":"L'Attrape Nigaud","ref":"2","ref:bleau.info":"15263","sport":"climbing"}},"11244504954":{"lat":48.7170954,"lon":1.9753468,"ts":"2023-10-06T20:13:08Z","tz":1,"tags":{"climbing":"boulder","climbing:grade:french":"3+","name":"Voyage sur le Rempart","ref":"21","ref:bleau.info":"14658","sport":"climbing"}},"11244504955":{"lat":48.7169504,"lon":1.9757274,"ts":"2023-10-06T20:13:08Z","tz":1,"tags":{"climbing":"boulder","climbing:grade:french":"6b","name":"La Chicane","ref":"18","ref:bleau.info":"8834","sport":"climbing"}},"11244504956":{"lat":48.717156,"lon":1.9752726,"ts":"2023-10-06T20:13:08Z","tz":1,"tags":{"climbing":"boulder","climbing:grade:french":"2+","name":"La Frontière du Rempart","ref":"22","ref:bleau.info":"15253","sport":"climbing"}},"11244504957":{"lat":48.7163724,"lon":1.9753511,"ts":"2023-10-06T20:13:08Z","tz":1,"tags":{"climbing":"boulder","climbing:grade:french":"4+","name":"La Cardamine","ref":"7","ref:bleau.info":"8818","sport":"climbing"}},"11244504958":{"lat":48.7136626,"lon":1.9847817,"ts":"2023-10-06T20:13:08Z","tz":1,"tags":{"climbing":"boulder","climbing:grade:french":"4","name":"Le Dièdre Suspendu","ref":"6","ref:bleau.info":"15267","sport":"climbing"}},"11244504959":{"lat":48.7156452,"lon":1.9793055,"ts":"2023-10-06T20:13:08Z","tz":1,"tags":{"climbing":"boulder","climbing:grade:french":"6b","name":"L'Étrave","ref":"11","ref:bleau.info":"8810","sport":"climbing"}},"11244504960":{"lat":48.7164839,"lon":1.9751096,"ts":"2023-10-06T20:13:08Z","tz":1,"tags":{"climbing":"boulder","climbing:grade:french":"4+","name":"Le Sessile","ref":"6","ref:bleau.info":"8817","sport":"climbing"}},"11244504961":{"lat":48.7162572,"lon":1.9762489,"ts":"2023-10-06T20:13:08Z","tz":1,"tags":{"climbing":"boulder","climbing:grade:french":"2+","name":"La Tatave","ref":"5","ref:bleau.info":"14588","sport":"climbing"}},"11244504962":{"lat":48.7164584,"lon":1.9751732,"ts":"2023-10-06T20:13:08Z","tz":1,"tags":{"climbing":"boulder","climbing:grade:french":"3+","name":"Le Surplomb Béant","ref":"37","ref:bleau.info":"15298","sport":"climbing"}},"11244504963":{"lat":48.7155307,"lon":1.9793281,"ts":"2023-10-06T20:13:08Z","tz":1,"tags":{"climbing":"boulder","climbing:grade:french":"3-","name":"Les Six Jours","ref":"19","ref:bleau.info":"15280","sport":"climbing"}},"11244504964":{"lat":48.7138727,"lon":1.9849322,"ts":"2023-10-06T20:13:08Z","tz":1,"tags":{"climbing":"boulder","climbing:grade:french":"6c","name":"L'Astragale","ref":"5","ref:bleau.info":"8803","sport":"climbing"}},"11244504965":{"lat":48.715741,"lon":1.9786258,"ts":"2023-10-06T20:13:08Z","tz":1,"tags":{"climbing":"boulder","climbing:grade:french":"3-","name":"La Petite Fissure","ref":"23","ref:bleau.info":"15284","sport":"climbing"}},"11244504966":{"lat":48.7163066,"lon":1.9770608,"ts":"2023-10-06T20:13:08Z","tz":1,"tags":{"climbing":"boulder","climbing:grade:french":"3-","name":"Le Parapluie","ref":"13","ref:bleau.info":"14596","sport":"climbing"}},"11244504967":{"lat":48.716877,"lon":1.9753715,"ts":"2023-10-06T20:13:08Z","tz":1,"tags":{"climbing":"boulder","climbing:grade:french":"3-","name":"Le Soubassement","ref":"55","ref:bleau.info":"15316","sport":"climbing"}},"11244504968":{"lat":48.7162498,"lon":1.97677,"ts":"2023-10-06T20:13:08Z","tz":1,"tags":{"climbing":"boulder","climbing:grade:french":"4+","name":"La Roselière","ref":"1","ref:bleau.info":"8812","sport":"climbing"}},"11244504969":{"lat":48.716894,"lon":1.9744968,"ts":"2023-10-06T20:13:08Z","tz":1,"tags":{"climbing":"boulder","climbing:grade:french":"4+","name":"L'Élodée","ref":"11","ref:bleau.info":"8822","sport":"climbing"}},"11244504970":{"lat":48.7150648,"lon":1.9793216,"ts":"2023-10-06T20:13:08Z","tz":1,"tags":{"climbing":"boulder","climbing:grade:french":"5+","name":"La Tronçonneuse","ref":"7","ref:bleau.info":"8804","sport":"climbing"}},"11244504971":{"lat":48.7169248,"lon":1.9746703,"ts":"2023-10-06T20:13:08Z","tz":1,"tags":{"climbing":"boulder","climbing:grade:french":"2+","name":"La Face SE de la Grande Arête","ref":"45","ref:bleau.info":"15306","sport":"climbing"}},"11244504972":{"lat":48.7155617,"lon":1.9795024,"ts":"2023-10-06T20:13:08Z","tz":1,"tags":{"climbing":"boulder","climbing:grade:french":"3+","name":"La Face Est du Rempart Oriental","ref":"17","ref:bleau.info":"15278","sport":"climbing"}},"11265502797":{"lat":48.708648,"lon":2.073086,"ts":"2023-10-19T15:58:52Z","tz":1,"tags":{"climbing":"crag","climbing:boulder":"yes","name":"Saint-Rémy lès Chevreuse","ref:bleau.info":"saintremy","sport":"climbing"}},"11265502877":{"lat":48.744985,"lon":2.070549,"ts":"2023-10-15T20:58:20Z","tz":1,"tags":{"climbing":"crag","climbing:boulder":"yes","name":"Rocher de Mérantais","natural":"stone","ref:bleau.info":"merantais"}},"11265502883":{"lat":48.710107,"lon":1.981143,"ts":"2023-10-15T20:58:20Z","tz":1,"tags":{"climbing":"crag","climbing:boulder":"yes","name":"Dampierre Maincourt","natural":"stone","ref:bleau.info":"maincourt"}},"11729007501":{"lat":48.7975377,"lon":2.0455773,"ts":"2024-08-19T08:59:11Z","tz":1,"tags":{"addr:city":"Montigny-le-Bretonneux","addr:housenumber":"10","addr:postcode":"78180","climbing:boulder":"yes","email":"sqy@vertical-art.fr","leisure":"sports_centre","name":"Vertical'Art St Quentin en Yvelines","opening_hours":"Mo-Fr 11:00-23:00, Sa-Su 09:00-21h00","phone":"+331 75 21 38 59","sport":"climbing"}}}