{"503493114":{"lat":38.6486786,"lon":-120.7056459,"ts":"2025-01-31T19:59:40Z","tz":-8,"tags":{"area":"yes","climbing":"crag","name":"Gutenberger Wall","natural":"cliff","sport":"climbing"}},"503493115":{"lat":38.6484528,"lon":-120.7057226,"ts":"2017-06-27T05:01:44Z","tz":-8,"tags":{"climbing":"route","climbing:grade:yds_class":"5.7","climbing:pitches":"4","name":"Gutenberger Wall Direct","sport":"climbing"}},"503493116":{"lat":38.6490719,"lon":-120.706328,"ts":"2017-06-27T05:01:44Z","tz":-8,"tags":{"climbing":"route","climbing:grade:yds_class":"5.7","name":"Candy Corn","sport":"climbing"}},"503493117":{"lat":38.6489537,"lon":-120.7063908,"ts":"2023-05-31T14:19:11Z","tz":-8,"tags":{"climbing":"route","climbing:grade:yds_class":"5.8","name":"Unconquerable","sport":"climbing"}},"503493118":{"lat":38.6489082,"lon":-120.7064125,"ts":"2017-06-27T05:01:44Z","tz":-8,"tags":{"climbing":"route","name":"Chimney Routes","sport":"climbing"}},"503493122":{"lat":38.6488797,"lon":-120.7065045,"ts":"2017-06-27T05:01:44Z","tz":-8,"tags":{"area":"yes","climbing":"crag","name":"Buck's Bar Dome","sport":"climbing"}},"503493124":{"lat":38.6476371,"lon":-120.7082697,"ts":"2017-06-27T05:01:45Z","tz":-8,"tags":{"area":"yes","climbing":"crag","name":"Midway Rocks","sport":"climbing"}},"503493126":{"lat":38.6482643,"lon":-120.7075427,"ts":"2018-03-04T14:28:02Z","tz":-8,"tags":{"area":"yes","climbing":"crag","name":"Cosumnes River Gorge","sport":"climbing"}},"4937875036":{"lat":38.6485691,"lon":-120.706068,"ts":"2017-06-27T05:01:42Z","tz":-8,"tags":{"climbing":"route_bottom"}},"4937875037":{"lat":38.6483364,"lon":-120.7053773,"ts":"2017-06-27T05:01:42Z","tz":-8,"tags":{"climbing":"route_top"}},"4937875065":{"lat":38.6490651,"lon":-120.7062936,"ts":"2017-06-27T05:01:42Z","tz":-8,"tags":{"climbing":"route_bottom"}},"4937875066":{"lat":38.6490787,"lon":-120.7063623,"ts":"2017-06-27T05:01:42Z","tz":-8,"tags":{"climbing":"route_top"}},"4937875067":{"lat":38.6489314,"lon":-120.706353,"ts":"2017-06-27T05:01:42Z","tz":-8,"tags":{"climbing":"route_bottom"}},"4937875068":{"lat":38.648976,"lon":-120.7064287,"ts":"2017-06-27T05:01:43Z","tz":-8,"tags":{"climbing":"route_top"}},"4937875069":{"lat":38.648885,"lon":-120.7063845,"ts":"2017-06-27T05:01:43Z","tz":-8,"tags":{"climbing":"route_bottom"}},"4937875070":{"lat":38.6489314,"lon":-120.7064404,"ts":"2017-06-27T05:01:43Z","tz":-8,"tags":{"climbing":"route_top"}}}