{"32820695":{"lat":46.8840963,"lon":9.5311084,"ts":"2023-10-11T13:08:24Z","tz":1,"tags":{"access":"yes","climbing:grade:french:max":"7c","climbing:grade:french:mean":"6b","climbing:grade:french:min":"3a","climbing:multipitch":"yes","climbing:quality":"medium","climbing:rock":"limestone","climbing:routes":"77","climbing:sport":"yes","climbing:toprope":"yes","ele":"575","fixme":"opening hours, fee","leisure":"pitch","name":"Klettergarten Haldenstein","outdoor":"yes","sport":"climbing","url":"https://www.thecrag.com/en/climbing/switzerland/haldenstein","website":"https://www.chur.graubuenden.ch/de/uebersicht-ausflugsziele/klettergarten-haldenstein"}},"318648529":{"lat":46.9960234,"lon":9.5113528,"ts":"2024-05-06T08:23:46Z","tz":1,"tags":{"climbing:bolted":"yes","climbing:boulder":"yes","climbing:grade:french:mean":"7b","climbing:grade:french:min":"6a+","climbing:grade:french:min_1":"8b+","climbing:multipitch":"no","climbing:rock":"limestone","climbing:sport":"yes","name":"Motel","natural":"cliff","sport":"climbing","wikidata":"Q125803813"}},"440509212":{"lat":46.9769821,"lon":9.6298722,"ts":"2024-05-29T07:28:30Z","tz":1,"tags":{"height":"10","name":"Grüsch","natural":"cliff","sport":"climbing"}},"1280501691":{"lat":47.0325578,"lon":9.5225345,"ts":"2024-05-07T11:46:08Z","tz":1,"tags":{"climbing":"crag","climbing:rock":"limestone","climbing:sport":"yes","fixme":"verify location","name":"Persaxplatten","natural":"cliff","sport":"climbing","wikidata":"Q125821311"}},"1309129859":{"lat":46.9901203,"lon":9.5151573,"ts":"2024-08-20T21:28:42Z","tz":1,"tags":{"access":"yes","climbing:orientation":"NE","climbing:rock":"limestone","climbing:sport":"yes","fee":"no","name":"Fluppi","natural":"cliff","outdoor":"yes","sport":"climbing","url":"https://www.thecrag.com/en/climbing/switzerland/alpen/sarganserland/area/972862650"}},"2949659001":{"lat":47.0249695,"lon":9.5229422,"ts":"2014-07-05T19:22:14Z","tz":1,"tags":{"name":"Matlusch","sport":"climbing"}},"5998103437":{"lat":46.8522861,"lon":9.5169166,"ts":"2024-02-10T09:53:12Z","tz":1,"tags":{"check_date:opening_hours":"2023-07-08","fee":"yes","leisure":"sports_centre","name":"Ap 'n Daun","opening_hours":"Mo-Fr 09:00-22:30; Sa,Su,PH 10:00-19:00","sport":"climbing","website":"https://www.kletterzentrumchur.ch/"}},"6824066063":{"lat":46.9135237,"lon":9.772596,"ts":"2019-09-25T22:33:00Z","tz":1,"tags":{"leisure":"sports_centre","name":"Kletterhalle Rätikon","sport":"climbing"}},"7667715824":{"lat":47.0350753,"lon":9.8178335,"ts":"2020-06-29T20:54:49Z","tz":1,"tags":{"climbing:bolted":"yes","climbing:rock":"limestone","name":"Klettergarten Lindauer Hütte","natural":"cliff","sport":"climbing"}},"12195240837":{"lat":47.0317037,"lon":9.5231295,"ts":"2024-09-23T18:28:36Z","tz":1,"tags":{"climbing:orientation":"NE","climbing:rock":"limestone","climbing:sport":"yes","sport":"climbing","url":"https://www.thecrag.com/en/climbing/switzerland/alpen/graubunden/area/723637881"}}}