{"18047636":{"lat":45.6310033,"lon":9.4950316,"ts":"2024-09-15T11:22:37Z","tz":1,"tags":{"alt_name":"Falesia di Trezzo sull'Adda","climbing":"area","climbing:sport":"yes","fee":"no","name":"Ronda Nera","natural":"cliff","opening_hours":"24/7","sport":"climbing","type":"site"}},"288953365":{"lat":45.7803417,"lon":9.7779467,"ts":"2023-03-10T18:21:26Z","tz":1,"tags":{"name":"Falesia Valgua (Lentasia)","natural":"cliff","source":"gps; bing; rough_guess","sport":"climbing"}},"288953366":{"lat":45.7788135,"lon":9.7809374,"ts":"2023-03-10T18:21:26Z","tz":1,"tags":{"name":"Falesia Valgua (Minolandia)","natural":"cliff","source":"gps; bing; rough_guess","sport":"climbing"}},"288953367":{"lat":45.7782454,"lon":9.7783327,"ts":"2023-03-10T18:21:26Z","tz":1,"tags":{"name":"Falesia Valgua (Scoglio)","natural":"cliff","source":"gps; bing; rough_guess","sport":"climbing"}},"288953369":{"lat":45.7811906,"lon":9.7786672,"ts":"2023-03-10T18:21:26Z","tz":1,"tags":{"name":"Falesia Valgua (Valguasia)","natural":"cliff","source":"gps; bing; rough_guess","sport":"climbing"}},"288953370":{"lat":45.7782914,"lon":9.7806195,"ts":"2023-03-10T19:12:24Z","tz":1,"tags":{"name":"Falesia Valgua (Orrido)","natural":"cliff","source":"gps; bing; rough_guess","sport":"climbing"}},"288953372":{"lat":45.7794149,"lon":9.7787229,"ts":"2023-03-10T18:21:26Z","tz":1,"tags":{"name":"Falesia Valgua (Poppa e Prua)","natural":"cliff","source":"gps; bing; rough_guess","sport":"climbing"}},"375607688":{"lat":45.6948558,"lon":9.6200253,"ts":"2023-05-30T21:12:29Z","tz":1,"tags":{"addr:city":"Curno","addr:housenumber":"26","addr:postcode":"24035","addr:street":"Via Trento","building":"yes","charge":"13","fee":"yes","leisure":"sports_centre","name":"Orobia climbing","opening_hours":"Mo-Fr 10:00-23:00; Sa-Su 10:00-19:00","payment:cash":"yes","payment:credit_cards":"yes","phone":"+39 035 19900099","sport":"climbing","website":"https://www.orobiaclimbing.it","wheelchair":"yes"}},"705444040":{"lat":45.7362825,"lon":9.6666325,"ts":"2019-07-18T12:48:04Z","tz":1,"tags":{"fee":"yes","leisure":"sports_centre","name":"Pattini e Pareti","payment:cash":"yes","sport":"climbing"}},"758381785":{"lat":45.7643644,"lon":9.66972,"ts":"2023-03-10T18:21:26Z","tz":1,"tags":{"name":"Falesia Corna di Marte","natural":"cliff","sport":"climbing"}},"857264782":{"lat":45.7886331,"lon":9.5044608,"ts":"2023-11-10T07:49:01Z","tz":1,"tags":{"height":"10","name":"Corna dòl Tàs","natural":"cliff","sport":"climbing","website":"http://www.prolocovalcava.org/territorio/luoghi-da-raccontare/corna-dol-tas/","wikimedia_commons":"File:20201009-zuccherone_bolli-70.jpg"}},"971413461":{"lat":45.7803671,"lon":9.5808415,"ts":"2023-11-10T07:49:01Z","tz":1,"tags":{"name":"Falesia di Strozza","natural":"cliff","sport":"climbing","wikimedia_commons":"File:20210808-explo_strozza-160.jpg"}},"983536145":{"lat":45.7685012,"lon":9.5427492,"ts":"2025-01-11T10:14:19Z","tz":1,"tags":{"name":"Falesia Roncola","natural":"cliff","sport":"climbing"}},"1136025008":{"lat":45.6310307,"lon":9.4948047,"ts":"2025-01-13T12:43:13Z","tz":1,"tags":{"alt_name":"Falesia di Trezzo sull'Adda","climbing:sport":"yes","fee":"no","name":"Ronda Nera - Settore Alto","natural":"cliff","opening_hours":"24/7","sport":"climbing"}},"1136025009":{"lat":45.6309936,"lon":9.4951336,"ts":"2025-01-13T12:43:13Z","tz":1,"tags":{"alt_name":"Falesia di Trezzo sull'Adda","climbing:sport":"yes","fee":"no","name":"Ronda Nera - Settore Basso","natural":"cliff","opening_hours":"24/7","sport":"climbing"}},"1262988766":{"lat":45.7412971,"lon":9.6058702,"ts":"2024-03-15T16:24:49Z","tz":1,"tags":{"alt_name":"Falesia Bradipo","name":"Falesia di Almè","natural":"cliff","sport":"climbing","website":"https://luigimoro1976.wordpress.com/2019/07/13/falesia-di-alme/","wikimedia_commons":"File:20240315-brembo-022.jpg"}},"1262988768":{"lat":45.7415136,"lon":9.6024856,"ts":"2024-03-15T16:24:49Z","tz":1,"tags":{"name":"Falesia di Almenno","natural":"cliff","sport":"climbing","wikimedia_commons":"File:20240315-brembo-095.jpg"}},"2433793424":{"lat":45.7949621,"lon":9.6462224,"ts":"2013-09-09T13:08:51Z","tz":1,"tags":{"name":"Falesia Zogno","sport":"climbing"}},"4992406813":{"lat":45.7529772,"lon":9.6087067,"ts":"2020-05-07T15:32:15Z","tz":1,"tags":{"name":"Falesia Villa d' Almé (Traliccio)","sport":"climbing"}},"5513817657":{"lat":45.7474035,"lon":9.7625469,"ts":"2023-03-10T18:21:26Z","tz":1,"tags":{"leisure":"sports_centre","name":"Palestra arrampicata Cai Nembro","sport":"climbing"}},"6758871493":{"lat":45.7935933,"lon":9.7794578,"ts":"2023-03-10T18:21:26Z","tz":1,"tags":{"name":"Torrioni Cornagera","sport":"climbing"}},"10759993720":{"lat":45.6976647,"lon":9.6986869,"ts":"2023-06-30T19:51:12Z","tz":1,"tags":{"addr:city":"Bergamo","addr:housenumber":"15","addr:postcode":"24125","addr:street":"Via Pizzo della Presolana","climbing:length":"12","climbing:length:min":"9","climbing:sport":"yes","facebook":"https://www.facebook.com/toptribe.palamonti/","leisure":"sports_centre","name":"Toptribe Palamonti","opening_hours":"Mo-Fr 12:00-23:00; Sa 14:00-18:00; Su 10:00-18:00 open \"only for bad weather (check sociale)\"; PH closed","sport":"climbing","website":"https://www.caibergamo.it/palestra-arrampicata"}},"11186195797":{"lat":45.7803463,"lon":9.5807955,"ts":"2023-09-12T16:07:43Z","tz":1,"tags":{"name":"Falesia Strozza","sport":"climbing"}},"11734586361":{"lat":45.7411302,"lon":9.6056533,"ts":"2024-03-15T16:24:49Z","tz":1,"tags":{"alt_name":"Falesia Bradipo","name":"Falesia di Almè","sport":"climbing"}},"11734615275":{"lat":45.7414955,"lon":9.602492,"ts":"2024-03-15T16:24:49Z","tz":1,"tags":{"name":"Falesia di Almenno","sport":"climbing"}},"12104258610":{"lat":45.7967723,"lon":9.7795335,"ts":"2024-08-11T13:26:13Z","tz":1,"tags":{"name":"Falesia Cornagera - Chiappe della Carolina","sport":"climbing"}},"12169715549":{"lat":45.764138,"lon":9.669815,"ts":"2024-09-11T10:25:24Z","tz":1,"tags":{"climbing:rock":"limestone","climbing:sport":"yes","name":"Corna di Marte","sport":"climbing"}}}