{"17556119":{"lat":49.0343406,"lon":17.2101308,"ts":"2024-05-04T09:44:29Z","tz":1,"tags":{"climbing":"crag","name":"Skalka","site":"climbing","sport":"climbing","type":"site","website":"https://www.horosvaz.cz/skaly-skala-12865/"}},"729992273":{"lat":49.0976104,"lon":17.2167188,"ts":"2023-09-11T19:16:58Z","tz":1,"tags":{"climbing:bolted":"yes","climbing:sport":"yes","name":"Kozel","natural":"cliff","source":"survey","sport":"climbing","wikidata":"Q12031235"}},"801988679":{"lat":49.0950008,"lon":17.1845671,"ts":"2020-05-09T17:15:06Z","tz":1,"tags":{"climbing:bolted":"no","climbing:boulder":"yes","climbing:rock":"sandstone","climbing:sport":"no","name":"Dolní hřeben","sport":"climbing"}},"801988680":{"lat":49.0965586,"lon":17.1885877,"ts":"2020-05-09T17:15:06Z","tz":1,"tags":{"alt_name":"Horní hřeben","climbing:bolted":"no","climbing:boulder":"yes","climbing:grade:french:max":"7b+","climbing:grade:french:min":"3","climbing:rock":"sandstone","climbing:sport":"no","name":"Vršava","sport":"climbing"}},"8152300539":{"lat":49.0993543,"lon":17.2023416,"ts":"2020-11-22T21:55:22Z","tz":1,"tags":{"sport":"climbing"}},"9522891299":{"lat":49.0838767,"lon":17.2009917,"ts":"2022-02-20T22:58:55Z","tz":1,"tags":{"leisure":"sports_centre","name":"Rozštípená skála","sport":"climbing"}},"11878552178":{"lat":49.0342787,"lon":17.210072,"ts":"2024-05-04T09:44:29Z","tz":1,"tags":{"climbing":"route_bottom","climbing:grade:uiaa":"8+","name":"Reklama na ticho","sport":"climbing","website":"https://www.horosvaz.cz/skaly-cesta-64796/"}},"11878552179":{"lat":49.0342911,"lon":17.2100837,"ts":"2024-05-04T09:44:29Z","tz":1,"tags":{"climbing":"route_bottom","climbing:grade:uiaa":"7-","name":"var. Rajbasospárohrana","sport":"climbing","website":"https://www.horosvaz.cz/skaly-cesta-64795/"}},"11878552180":{"lat":49.0343034,"lon":17.2100955,"ts":"2024-05-04T09:44:29Z","tz":1,"tags":{"climbing":"route_bottom","climbing:grade:uiaa":"7+","name":"Varianta","sport":"climbing","website":"https://www.horosvaz.cz/skaly-cesta-64794/"}},"11878552181":{"lat":49.0343158,"lon":17.2101073,"ts":"2024-05-04T09:44:29Z","tz":1,"tags":{"climbing":"route_bottom","climbing:grade:uiaa":"7+","name":"Hudba pre nepočujúcich","sport":"climbing","website":"https://www.horosvaz.cz/skaly-cesta-64793/"}},"11878552182":{"lat":49.0343282,"lon":17.210119,"ts":"2024-05-04T09:44:29Z","tz":1,"tags":{"climbing":"route_bottom","name":"Projekt","sport":"climbing","website":"https://www.horosvaz.cz/skaly-cesta-64792/"}},"11878552183":{"lat":49.0343406,"lon":17.2101308,"ts":"2024-05-04T09:44:29Z","tz":1,"tags":{"climbing":"route_bottom","climbing:grade:uiaa":"9-","name":"Santa Maria","sport":"climbing","website":"https://www.horosvaz.cz/skaly-cesta-64791/"}},"11878552184":{"lat":49.034353,"lon":17.2101426,"ts":"2024-05-04T09:44:29Z","tz":1,"tags":{"climbing":"route_bottom","climbing:grade:uiaa":"8","name":"Kryštof Kolumbus","sport":"climbing","website":"https://www.horosvaz.cz/skaly-cesta-64790/"}},"11878552185":{"lat":49.0343654,"lon":17.2101543,"ts":"2024-05-04T09:44:29Z","tz":1,"tags":{"climbing":"route_bottom","climbing:grade:uiaa":"6+","name":"Varianta","sport":"climbing","website":"https://www.horosvaz.cz/skaly-cesta-64789/"}},"11878552186":{"lat":49.0343778,"lon":17.2101661,"ts":"2024-05-04T09:44:29Z","tz":1,"tags":{"climbing":"route_bottom","climbing:grade:uiaa":"7+","name":"Hrana 1492","sport":"climbing","website":"https://www.horosvaz.cz/skaly-cesta-64788/"}},"11878552187":{"lat":49.0343902,"lon":17.2101779,"ts":"2024-05-04T09:44:29Z","tz":1,"tags":{"climbing":"route_bottom","climbing:grade:uiaa":"4","name":"Komín","sport":"climbing","website":"https://www.horosvaz.cz/skaly-cesta-64787/"}},"11878552188":{"lat":49.0344026,"lon":17.2101896,"ts":"2024-05-04T09:44:29Z","tz":1,"tags":{"climbing":"route_bottom","name":"Projekt","sport":"climbing","website":"https://www.horosvaz.cz/skaly-cesta-64786/"}}}