{"682828709":{"lat":35.5421517,"lon":139.6499285,"ts":"2024-07-25T08:43:40Z","tz":9,"tags":{"building":"yes","leisure":"sports_centre","name":"ビッグロック 日吉","name:en":"Big Rock Hiyoshi","sport":"climbing"}},"743301677":{"lat":35.676036,"lon":139.8180127,"ts":"2024-12-30T07:59:52Z","tz":9,"tags":{"building":"yes","building:levels":"2F","leisure":"sports_centre","sport":"climbing"}},"1325631323":{"lat":35.6386669,"lon":139.784894,"ts":"2024-10-19T11:02:32Z","tz":9,"tags":{"building":"yes","leisure":"sports_centre","sport":"climbing"}},"3719816886":{"lat":35.6874894,"lon":139.7187993,"ts":"2016-09-04T07:00:08Z","tz":9,"tags":{"leisure":"sports_centre","name":"APEX Climbing Gym","sport":"climbing"}},"3783519675":{"lat":35.692955,"lon":139.817093,"ts":"2024-07-12T03:53:46Z","tz":9,"tags":{"leisure":"sports_centre","name":"Base Camp Tokyo - Kinshicho","sport":"climbing"}},"3812145792":{"lat":35.6497269,"lon":139.6361847,"ts":"2015-11-01T04:47:22Z","tz":9,"tags":{"sport":"climbing"}},"4999139710":{"lat":35.699909,"lon":139.768037,"ts":"2019-04-08T10:32:44Z","tz":9,"tags":{"leisure":"sports_centre","level":"0","name":"B-PUMP","shop":"sports","source":"survey","sport":"climbing"}},"5798723362":{"lat":35.611173,"lon":139.684629,"ts":"2018-07-31T12:32:43Z","tz":9,"tags":{"leisure":"sports_centre","name":"T-WALL Ōokayama","source":"survey","sport":"climbing"}},"5887957881":{"lat":35.6978815,"lon":139.6981916,"ts":"2019-04-10T07:00:01Z","tz":9,"tags":{"addr:block_number":"5","addr:housenumber":"20","addr:neighbourhood":"7","addr:postcode":"160-0023","addr:province":"東京都","addr:quarter":"西新宿","addr:suburb":"新宿区","leisure":"sports_centre","name":"ESCALADE Climbing Gym","name:en":"ESCALADE Climbing Gym","name:ja":"エスカラードクライミングジム","phone":"+81-3-5937-0501","sport":"climbing","website":"https://www.escalade-climbing.com/"}},"7165568237":{"lat":35.692195,"lon":139.7222314,"ts":"2022-02-10T18:57:12Z","tz":9,"tags":{"leisure":"sports_centre","name":"ベータクライミングジム","sport":"climbing"}},"7235445788":{"lat":35.6516989,"lon":139.7336028,"ts":"2020-02-22T16:41:48Z","tz":9,"tags":{"leisure":"sports_centre","name":"Spider Climbing Gym","sport":"climbing"}},"8530699195":{"lat":35.7096533,"lon":139.7373625,"ts":"2021-03-18T05:14:11Z","tz":9,"tags":{"addr:block_number":"5","addr:city":"文京区","addr:housenumber":"23","addr:neighbourhood":"2","addr:postcode":"112-0005","addr:province":"東京都","addr:quarter":"水道","fee":"yes","leisure":"sports_centre","name":"T-Wall 江戸川橋店","opening_hours":"14:00-23:00, Sat 10:00-20:00, Sun & Holidays 10:00-20:00","payment:cash":"yes","sport":"climbing","website":"https://twall.jp/gym/edo/"}},"9496129972":{"lat":35.6959888,"lon":139.6988386,"ts":"2024-03-05T01:04:20Z","tz":9,"tags":{"internet_access":"wlan","leisure":"sports_centre","name":"Urban Base Camp 新宿","name:en":"Urban Base Camp","opening_hours":"Mo-Fr 10:00-23:00; Sa-Su 10:00-22:00","phone":"+81 3-6304-0355","sport":"climbing","website":"https://b-camp.jp/"}}}