{"1328991295":{"lat":35.3063475,"lon":139.612806,"ts":"2025-01-13T06:49:31Z","tz":9,"tags":{"name":"親不知南面","natural":"cliff","sport":"climbing"}},"1328991296":{"lat":35.3065267,"lon":139.6127818,"ts":"2025-03-12T08:41:56Z","tz":9,"tags":{"name":"親不知北面","natural":"cliff","sport":"climbing"}},"1339042405":{"lat":35.306908,"lon":139.6162769,"ts":"2025-01-13T11:45:46Z","tz":9,"tags":{"name":"コの字裏","natural":"cliff","sport":"climbing"}},"1339045176":{"lat":35.3068833,"lon":139.6158038,"ts":"2025-01-13T06:13:35Z","tz":9,"tags":{"name":"桜岩","natural":"cliff","sport":"climbing"}},"1339045696":{"lat":35.3062086,"lon":139.6140902,"ts":"2024-11-30T13:07:51Z","tz":9,"tags":{"name":"ビギナーフェース","natural":"cliff","sport":"climbing"}},"1339045697":{"lat":35.30603,"lon":139.6140816,"ts":"2024-11-30T13:11:40Z","tz":9,"tags":{"name":"後浅間前衛","natural":"cliff","sport":"climbing"}},"1339045698":{"lat":35.306315,"lon":139.6133742,"ts":"2025-01-13T06:46:36Z","tz":9,"tags":{"name":"子不知西面","natural":"cliff","sport":"climbing"}},"1339046089":{"lat":35.305941,"lon":139.6142261,"ts":"2024-11-30T13:07:51Z","tz":9,"tags":{"name":"後浅間右壁","natural":"cliff","sport":"climbing"}},"1339046090":{"lat":35.3060402,"lon":139.6141963,"ts":"2024-11-30T13:07:51Z","tz":9,"tags":{"name":"後浅間マジックマッシュルーム","natural":"cliff","sport":"climbing"}},"1339046091":{"lat":35.3060268,"lon":139.6141003,"ts":"2024-11-30T13:11:40Z","tz":9,"tags":{"name":"後浅間左壁","natural":"cliff","sport":"climbing"}},"1350838019":{"lat":35.3068398,"lon":139.6162575,"ts":"2025-01-13T11:45:46Z","tz":9,"tags":{"name":"前衛壁右壁","natural":"cliff","sport":"climbing"}},"1350838021":{"lat":35.3068512,"lon":139.6162153,"ts":"2025-01-13T11:45:46Z","tz":9,"tags":{"name":"前衛壁左壁","natural":"cliff","sport":"climbing"}},"1350838414":{"lat":35.3068785,"lon":139.6159373,"ts":"2025-01-13T06:13:35Z","tz":9,"tags":{"name":"ツメ岩","natural":"cliff","sport":"climbing"}},"1350841759":{"lat":35.3062719,"lon":139.6134085,"ts":"2025-01-13T06:46:36Z","tz":9,"tags":{"name":"子不知南面","natural":"cliff","sport":"climbing"}},"1350841862":{"lat":35.3067182,"lon":139.6128809,"ts":"2025-01-13T11:45:46Z","tz":9,"tags":{"natural":"cliff","sport":"climbing"}},"1352916004":{"lat":35.2190992,"lon":139.7027691,"ts":"2025-01-20T13:39:02Z","tz":9,"tags":{"leisure":"sports_centre","sport":"climbing","website":"https://www.kanagawaparks.com/kurihama/facility/sports.html"}},"4924043712":{"lat":35.4469871,"lon":139.6445588,"ts":"2017-06-19T10:23:02Z","tz":9,"tags":{"name":"Mammut","opening_hours":"Mo-Fr 14:00-22:30; Sa 11:00-22:00; Su 11:00-20:00","sport":"climbing"}}}