{"111555212":{"lat":58.7168603,"lon":5.9902138,"ts":"2020-09-15T14:50:00Z","tz":1,"tags":{"climbing:bolted":"yes","name":"Grovlefjellet","natural":"cliff","quality":"poor","sport":"climbing"}},"848267381":{"lat":58.7993287,"lon":6.0087214,"ts":"2021-03-31T09:59:07Z","tz":1,"tags":{"climbing":"crag","climbing:bolted":"no","climbing:multipitch":"yes","climbing:trad":"yes","description":"Grade: 3 to 4+, 2 pitches","name":"Nedre Gullsva","sport":"climbing","website":"https://brattelinjer.no/sector/3869"}},"850082974":{"lat":58.79974,"lon":6.0094254,"ts":"2021-03-31T09:59:07Z","tz":1,"tags":{"climbing":"crag","climbing:bolted":"no","climbing:trad":"yes","description":"Grade: 3 to 4+","name":"Øvre Gullsva","source":"https://brattelinjer.no/sector/3870","sport":"climbing"}},"850082979":{"lat":58.8000185,"lon":6.0080477,"ts":"2020-11-10T13:00:13Z","tz":1,"tags":{"climbing":"crag","climbing:bolted":"yes","climbing:sport":"yes","climbing:trad":"yes","description":"Grade: 3 to 6 (sport)  4+ to 6 (trad)","name":"Gullskrenten","sport":"climbing"}},"1164597912":{"lat":58.768379,"lon":6.267357,"ts":"2024-04-27T05:08:48Z","tz":1,"tags":{"climbing":"crag","climbing:trad":"yes","description":"Imponerende vegger på begge sider av dalen, 4-10 taulengder. Pr 2002 fører - 15 ruter fra grad 6 til 8- og A3. <br><br> Etter å ha klatret i sørveggen (ved vannet), reisen til Ixtalan f.eks, ta returen til høyre,","description2":"2 rappeller (60 m tau), drøye 2 timer som inkluderer kryssing av ura. Retur til venstre ned gjelet tar lett 3-4 timer, selv om det er en artig tur (man blir blant annet våt). Inkluderer ca 30m overhengende rapell.","description3":"Hold mest mulig til venstre, innerst, for å få minst mulig eksponering på sva og færre rappeller.<br><br> Sandstranden har ofte vært brukt av BRV til klatresamlinger.NB: Området er følsomt i forhold til grunneieren, ta med søppel og skrot hjem.","name":"Gloppedalen - Sydveggen","sport":"climbing","website":"https://brattelinjer.no/area/2999"}},"1185340132":{"lat":58.7841884,"lon":6.0781774,"ts":"2023-04-12T15:02:41Z","tz":1,"tags":{"climbing":"crag","climbing:trad":"yes","name":"Sanatorium Wall","source":"brv_bilde","sport":"climbing","website":"https://brattelinjer.no/sector/4249"}},"1185340148":{"lat":58.8002547,"lon":5.9797024,"ts":"2023-04-10T06:21:44Z","tz":1,"tags":{"climbing":"crag","climbing:trad":"yes","name":"Bjortjørna","note":"Swapped Converted from 32 V 0321900 6525500","source":"brv_bilde","sport":"climbing","website":"https://brv.no/uteklatring/tradklatring/"}},"1185340160":{"lat":58.78181,"lon":6.01574,"ts":"2020-11-09T07:38:50Z","tz":1,"tags":{"climbing":"crag","climbing:trad":"yes","name":"Husafjell","note":"Swapped Converted from 32 V 0319600 6527500","source":"brv_bilde","sport":"climbing","website":"https://brv.no/uteklatring/tradklatring/"}},"1185340177":{"lat":58.789706,"lon":6.292026,"ts":"2020-11-09T07:38:50Z","tz":1,"tags":{"climbing":"crag","climbing:trad":"yes","name":"Giljajuvet","note":"Swapped Converted from 32 V 0319800 6543500","source":"brv_bilde","sport":"climbing","website":"https://brv.no/uteklatring/tradklatring/"}},"1188173055":{"lat":58.7494054,"lon":6.2982913,"ts":"2020-11-20T07:53:27Z","tz":1,"tags":{"climbing":"crag","climbing:trad":"yes","description":"Til høyre for Maudalsvatnet. Retur ned skogsli. Maudal passer bra til å øve på å sette egne sikringer. Som vanlig på sva kan det enkelte steder være litt langt mellom sikringene. Friends nødvendig.","name":"Maudalsvaet","note":"Grid ref 15.4/ 43.5 SE facing swapped","source":"brv-noe","sport":"climbing","website":"https://brv.no/uteklatring/klatreforer-for-rogaland/"}},"7797246727":{"lat":58.8011566,"lon":6.0072613,"ts":"2020-11-10T12:28:56Z","tz":1,"tags":{"climbing":"crag","climbing:bolted":"yes","climbing:sport":"yes","name":"Gullveggen","sport":"climbing"}},"7810911832":{"lat":58.8137302,"lon":6.0927877,"ts":"2020-08-13T20:02:19Z","tz":1,"tags":{"climbing":"crag","climbing:trad":"yes","name":"Kjørkjestafjellet","sport":"climbing","website":"https://brattelinjer.no/area/2823"}},"8043758254":{"lat":58.7911978,"lon":6.0036282,"ts":"2021-03-31T09:59:07Z","tz":1,"tags":{"climbing":"crag","climbing:trad":"yes","description":"Skeisfjell er en av de mest besøkte klippene i Rogaland. Dette skyldes moderat vanske grad på de fleste av rutene, lett anmarsj og enkel retur. Rutene krever normalt sikringsutstyr. Retur ved å gå over toppen og ned gressbakken på baksiden.","name":"Skeisfjell","sport":"climbing","website":"https://brattelinjer.no/sector/3868"}},"8142559691":{"lat":58.6907691,"lon":6.0671268,"ts":"2020-11-19T13:50:37Z","tz":1,"tags":{"climbing":"crag","climbing:sport":"yes","climbing:trad":"yes","description":"Grade: 6 to 7(trad), 7 to 8+(sport)","name":"Nedrebø","sport":"climbing","website":"https://brattelinjer.no/sector/2914"}},"8142586662":{"lat":58.6356393,"lon":6.1192537,"ts":"2020-11-19T13:58:44Z","tz":1,"tags":{"climbing":"crag","climbing:sport":"yes","description":"Grade: 6+ to 9","name":"Vikesdal - Geithelleren","sport":"climbing","website":"https://brattelinjer.no/sector/2993"}},"9849957449":{"lat":58.7598545,"lon":6.2253269,"ts":"2022-06-27T09:27:53Z","tz":1,"tags":{"climbing":"crag","climbing:sport":"yes","description":"Denne veggen er blitt sett på av klatrere i generasjoner, men det var ikke før i 2022 at utviklingen har startet (drevet av Jan Eivind Danielsen). Veggen er overhengende, nesten 200 meter høy og 150 meter bred med et enormt potensiale.","name":"TrollPorten - Veen","sport":"climbing","website":"https://brattelinjer.no/area/3232"}},"10831059967":{"lat":58.7915869,"lon":6.0035423,"ts":"2023-04-22T05:30:51Z","tz":1,"tags":{"climbing":"route_bottom","climbing:grade:french":"5c","climbing:pitches":"3","name":"Discovery"}},"10831059968":{"lat":58.7913386,"lon":6.0034255,"ts":"2023-04-22T05:30:51Z","tz":1,"tags":{"climbing":"route_bottom","climbing:grade:french":"5c","climbing:pitches":"3","name":"Recovery - Alternative start"}},"10831059969":{"lat":58.7912285,"lon":6.0034519,"ts":"2023-04-22T05:30:51Z","tz":1,"tags":{"climbing":"route_bottom","climbing:grade:french":"5c","climbing:pitches":"3","name":"Recovery"}},"10831059970":{"lat":58.7911703,"lon":6.003529,"ts":"2023-04-22T05:30:51Z","tz":1,"tags":{"climbing":"route_bottom","climbing:grade:french":"5c","climbing:pitches":"3","name":"Deflection"}},"10831059971":{"lat":58.7907403,"lon":6.0038186,"ts":"2024-04-27T19:02:05Z","tz":1,"tags":{"climbing":"route_bottom","climbing:grade:french":"5c","climbing:pitches":"3","name":"Rainstorm"}},"11853298053":{"lat":58.7648574,"lon":6.286002,"ts":"2024-04-27T05:08:48Z","tz":1,"tags":{"climbing":"crag","climbing:trad":"yes","description":"Flere flotte riss, om noe løst og begrodd. Retur ned renne til venstre som krysser raset.","name":"Gloppedalen - Nordveggen","sport":"climbing","website":"https://brattelinjer.no/sector/3542"}},"11853298054":{"lat":58.7727704,"lon":6.3004743,"ts":"2024-04-27T05:08:48Z","tz":1,"tags":{"climbing":"crag","climbing:sport":"yes","climbing:trad":"yes","description":"Skygge stort sett hele døgnet. 31. mai kom solen på veggen 17:55, skygge igjen 19:25. I slutten av august er solen så lavt at den ikke kommer på veggen i det hele tatt. Om vinteren er det kaldt og vått her, dette er et sommerfelt!","name":"Gloppedalen - Gloppeveggen","sport":"climbing","website":"https://brattelinjer.no/sector/3633"}}}