{"291405652":{"lat":49.3573861,"lon":6.1449547,"ts":"2015-05-03T22:49:37Z","tz":1,"tags":{"indoor":"area","level":"-1","name":"Escalade","room":"sport","sport":"climbing"}},"291405655":{"lat":49.3572829,"lon":6.1452608,"ts":"2015-05-03T22:49:38Z","tz":1,"tags":{"indoor":"room","level":"-1","name":"Pan","room":"sport","sport":"climbing"}},"437997393":{"lat":49.2403283,"lon":6.0776827,"ts":"2022-11-21T21:49:44Z","tz":1,"tags":{"leisure":"pitch","name":"Mur d'Escalade","sport":"climbing"}},"2938054644":{"lat":49.224267,"lon":6.023159,"ts":"2014-06-28T21:11:21Z","tz":1,"tags":{"name":"Site d'Escalade","source":"data.gouv.fr:Le ministère des droits des femmes, de la ville, de la jeunesse et des sports - 2014","sport":"climbing"}},"3099541592":{"lat":49.3611086,"lon":6.1630016,"ts":"2014-09-27T22:05:19Z","tz":1,"tags":{"source":"data.gouv.fr:Le ministère des droits des femmes, de la ville, de la jeunesse et des sports - 2014","sport":"climbing","surface":"concrete"}},"3130417159":{"lat":49.3574421,"lon":6.1449838,"ts":"2019-12-04T20:54:27Z","tz":1,"tags":{"indoor":"yes","leisure":"pitch","level":"-1","lit":"yes","name":"CEET - Club Escalade Evasion Thionville","sport":"climbing"}},"3426795212":{"lat":49.3572833,"lon":6.1452691,"ts":"2015-03-30T14:41:38Z","tz":1,"tags":{"indoor":"yes","leisure":"pitch","level":"-1","sport":"climbing"}},"3740323896":{"lat":49.3471502,"lon":6.1268927,"ts":"2016-04-12T00:32:34Z","tz":1,"tags":{"leisure":"sports_centre","name":"Dock 39","source":"cadastre-dgi-fr source : Direction Générale des Finances Publiques - Cadastre. Mise à jour : 2015","sport":"climbing"}}}