{"8833037":{"lat":47.1077374,"lon":6.1516516,"ts":"2023-03-22T11:10:06Z","tz":1,"tags":{"climbing":"route","name":"Via Ferrata de la Roche du Mont","route":"via_ferrata","type":"route","via_ferrata_scale":"3"}},"799125466":{"lat":47.2434863,"lon":6.0054033,"ts":"2025-01-27T14:29:10Z","tz":1,"tags":{"addr:city":"Besançon","addr:housenumber":"13","addr:postcode":"25000","addr:street":"Avenue Léo Lagrange","building":"yes","fee":"yes","leisure":"sports_centre","name":"Salle Marie Paradis","opening_hours":"Mo-Tu, Th-Fr 12:00-22:00; We 09:00-22:00; Sa-Su 09:00-19:00","phone":"+33381513131","source":"cadastre-dgi-fr source : Direction Générale des Finances Publiques - Cadastre. Mise à jour : 2020","sport":"climbing","website":"https://www.entre-temps-escalade.fr/","wheelchair":"yes"}},"891931366":{"lat":47.239207,"lon":6.0051733,"ts":"2023-09-19T18:39:01Z","tz":1,"tags":{"barrier":"wall","sport":"climbing"}},"1058387255":{"lat":47.2491716,"lon":6.0871417,"ts":"2022-05-08T20:56:12Z","tz":1,"tags":{"alt_name":"Falaise de Montfaucon","climbing:grade:french:max":"8","climbing:grade:french:min":"3","climbing:length:max":"40","climbing:rock":"limestone","ele":"550","name":"Rocher d'Arbois","natural":"cliff","sport":"climbing","url":"https://climbingaway.fr/fr/site-escalade/rocher-d-arbois"}},"5581422850":{"lat":47.1061308,"lon":6.1130442,"ts":"2023-02-16T00:16:16Z","tz":1,"tags":{"name":"Mur du Gag","natural":"yes","source":"data.gouv.fr:Le ministère des droits des femmes, de la ville, de la jeunesse et des sports - 11/2015","sport":"climbing"}},"5581422851":{"lat":47.1062355,"lon":6.108385,"ts":"2023-02-16T00:16:16Z","tz":1,"tags":{"name":"Falaise de la Roche Barmaud","natural":"yes","source":"data.gouv.fr:Le ministère des droits des femmes, de la ville, de la jeunesse et des sports - 11/2015","sport":"climbing"}},"5581422852":{"lat":47.11535,"lon":6.12325,"ts":"2023-02-16T00:16:16Z","tz":1,"tags":{"name":"Falaise de la Brême","natural":"yes","source":"data.gouv.fr:Le ministère des droits des femmes, de la ville, de la jeunesse et des sports - 11/2015","sport":"climbing"}},"6562577839":{"lat":47.1219954,"lon":6.127731,"ts":"2023-02-16T00:16:16Z","tz":1,"tags":{"name":"Bois de la Faye","natural":"yes","sport":"climbing"}},"7343061939":{"lat":47.2644573,"lon":6.0429002,"ts":"2024-04-17T08:56:34Z","tz":1,"tags":{"leisure":"sports_centre","source":"Le ministère de la ville, de la jeunesse et des sports - 01/2018","sport":"climbing"}},"7345774156":{"lat":47.23939,"lon":6.02859,"ts":"2023-02-15T22:53:31Z","tz":1,"tags":{"man_made":"yes","source":"Le ministère de la ville, de la jeunesse et des sports - 01/2018","sport":"climbing"}},"7345774281":{"lat":47.248755,"lon":6.0159827,"ts":"2023-02-15T22:53:31Z","tz":1,"tags":{"man_made":"yes","source":"Le ministère de la ville, de la jeunesse et des sports - 01/2018","sport":"climbing"}},"7345774388":{"lat":47.23815,"lon":6.0198,"ts":"2023-02-15T22:53:31Z","tz":1,"tags":{"man_made":"yes","source":"Le ministère de la ville, de la jeunesse et des sports - 01/2018","sport":"climbing","surface":"concrete"}},"7345774840":{"lat":47.2231,"lon":5.98483,"ts":"2023-02-16T00:25:05Z","tz":1,"tags":{"man_made":"yes","source":"Le ministère de la ville, de la jeunesse et des sports - 01/2018","sport":"climbing","surface":"asphalt"}},"7345774844":{"lat":47.2221488,"lon":5.9852125,"ts":"2024-03-29T13:50:33Z","tz":1,"tags":{"leisure":"sports_centre","source":"Le ministère de la ville, de la jeunesse et des sports - 01/2018","sport":"climbing"}},"9083982466":{"lat":47.2348674,"lon":6.0557896,"ts":"2023-02-16T00:25:05Z","tz":1,"tags":{"natural":"yes","sport":"climbing"}},"9698796972":{"lat":47.0489898,"lon":6.2823747,"ts":"2023-02-16T00:11:06Z","tz":1,"tags":{"natural":"yes","sport":"climbing"}},"9698826792":{"lat":47.0515935,"lon":6.2764475,"ts":"2023-02-16T00:11:06Z","tz":1,"tags":{"natural":"yes","sport":"climbing"}},"10989944903":{"lat":47.0923012,"lon":5.981736,"ts":"2023-06-19T18:19:16Z","tz":1,"tags":{"name":"Secteur \"Orange\"","sport":"climbing"}},"10989998780":{"lat":47.0909016,"lon":5.9858198,"ts":"2023-06-19T18:19:18Z","tz":1,"tags":{"name":"Secteur \"Cordée céleste\"","sport":"climbing"}},"10990028328":{"lat":47.0920275,"lon":5.9839247,"ts":"2023-06-19T18:19:16Z","tz":1,"tags":{"name":"Secteur \"Parking\"","sport":"climbing"}},"10990033927":{"lat":47.0921515,"lon":5.984741,"ts":"2023-06-19T18:19:17Z","tz":1,"tags":{"name":"Secteur \"High voltage\"","sport":"climbing"}},"10990036686":{"lat":47.0915211,"lon":5.9850699,"ts":"2023-06-19T18:19:17Z","tz":1,"tags":{"name":"Secteur \"If you can\"","sport":"climbing"}}}