{"4926265069":{"lat":48.2987932,"lon":2.4246291,"ts":"2023-10-19T15:58:52Z","tz":1,"tags":{"climbing":"crag","climbing:boulder":"yes","name":"Buthiers Nord","ref:bleau.info":"buthiersnord","sport":"climbing"}},"4926265070":{"lat":48.307273,"lon":2.4219684,"ts":"2023-10-19T15:58:52Z","tz":1,"tags":{"climbing":"crag","climbing:boulder":"yes","name":"Villetard","ref:bleau.info":"villetard","sport":"climbing"}},"4926265071":{"lat":48.2961109,"lon":2.4315771,"ts":"2023-10-19T15:58:52Z","tz":1,"tags":{"climbing":"crag","climbing:boulder":"yes","name":"Buthiers Canard","ref:bleau.info":"canard","sport":"climbing"}},"4960174284":{"lat":48.4227572,"lon":2.4086345,"ts":"2023-10-19T15:58:52Z","tz":1,"tags":{"climbing":"crag","climbing:boulder":"yes","name":"Rocher de Châtillon","ref:bleau.info":"chatillon","sport":"climbing"}},"9674527840":{"lat":48.4533534,"lon":2.3332912,"ts":"2023-02-18T07:36:30Z","tz":1,"tags":{"climbing:boulder":"yes","name":"Roche Cornue","natural":"rock","sport":"climbing"}},"11265460448":{"lat":48.403565,"lon":2.306356,"ts":"2023-10-19T15:58:52Z","tz":1,"tags":{"climbing":"crag","climbing:boulder":"yes","name":"Valpuiseaux","ref:bleau.info":"valpuiseaux","sport":"climbing"}},"11265460460":{"lat":48.294354,"lon":2.437838,"ts":"2023-10-19T15:58:52Z","tz":1,"tags":{"climbing":"crag","climbing:boulder":"yes","name":"Buthiers Piscine","ref:bleau.info":"y","sport":"climbing"}},"11265460464":{"lat":48.33087,"lon":2.373616,"ts":"2023-10-19T15:58:52Z","tz":1,"tags":{"climbing":"crag","climbing:boulder":"yes","name":"Boigneville","ref:bleau.info":"boigneville","sport":"climbing"}},"11265502775":{"lat":48.391607,"lon":2.456299,"ts":"2023-10-19T15:58:52Z","tz":1,"tags":{"climbing":"crag","climbing:boulder":"yes","name":"La Grotte aux Fées","ref:bleau.info":"grotteauxfees","sport":"climbing"}},"11265502781":{"lat":48.328608,"lon":2.389311,"ts":"2023-10-19T15:58:52Z","tz":1,"tags":{"climbing":"crag","climbing:boulder":"yes","name":"Argeville","ref:bleau.info":"argeville","sport":"climbing"}},"11265502782":{"lat":48.37203,"lon":2.455419,"ts":"2023-10-19T15:58:52Z","tz":1,"tags":{"climbing":"crag","climbing:boulder":"yes","name":"Oncy-sur-École","ref:bleau.info":"oncynord","sport":"climbing"}},"11265502796":{"lat":48.389379,"lon":2.376979,"ts":"2023-10-19T15:58:52Z","tz":1,"tags":{"climbing":"crag","climbing:boulder":"yes","name":"Maisse le Patouillat","ref:bleau.info":"maisse","sport":"climbing"}},"11265502805":{"lat":48.388407,"lon":2.391452,"ts":"2023-10-19T15:58:52Z","tz":1,"tags":{"climbing":"crag","climbing:boulder":"yes","name":"Maisse La Comble","ref:bleau.info":"comble","sport":"climbing"}},"11265502838":{"lat":48.358929,"lon":2.370986,"ts":"2023-10-19T15:58:52Z","tz":1,"tags":{"climbing":"crag","climbing:boulder":"yes","name":"Vallée de Prunay","ref:bleau.info":"prunay","sport":"climbing"}},"11265502861":{"lat":48.406286,"lon":2.431626,"ts":"2023-10-19T15:58:52Z","tz":1,"tags":{"climbing":"crag","climbing:boulder":"yes","name":"Haute Pierre","ref:bleau.info":"hautepierre","sport":"climbing"}},"11265502866":{"lat":48.425754,"lon":2.160615,"ts":"2023-10-19T15:58:52Z","tz":1,"tags":{"climbing":"crag","climbing:boulder":"yes","name":"Étampes","ref:bleau.info":"etampes","sport":"climbing"}},"11265502870":{"lat":48.327849,"lon":2.397962,"ts":"2023-10-19T15:58:52Z","tz":1,"tags":{"climbing":"crag","climbing:boulder":"yes","name":"Moulin de Roisneau","ref:bleau.info":"roisneau","sport":"climbing"}},"11265502874":{"lat":48.431244,"lon":2.446199,"ts":"2023-10-19T15:58:52Z","tz":1,"tags":{"climbing":"crag","climbing:boulder":"yes","name":"Moigny-sur-École","ref:bleau.info":"moigny","sport":"climbing"}},"11265502923":{"lat":48.294947,"lon":2.435945,"ts":"2023-10-19T15:58:52Z","tz":1,"tags":{"climbing":"crag","climbing:boulder":"yes","name":"Buthiers Tennis","ref:bleau.info":"tennis","sport":"climbing"}}}