{"9186067":{"lat":45.9879483,"lon":6.4563684,"ts":"2024-09-03T15:05:20Z","tz":1,"tags":{"climbing":"route","name":"Via Ferrata La Tour du Jalouvre","route":"via_ferrata","type":"route","via_ferrata_scale":"4+"}},"9910062":{"lat":45.8827132,"lon":6.4545372,"ts":"2022-11-30T22:48:41Z","tz":1,"tags":{"climbing":"route","name":"Via Ferrata Yves Pollet-Villard","route":"via_ferrata","type":"route","via_ferrata_scale":"4+"}},"25813081":{"lat":45.9535521,"lon":6.5506944,"ts":"2009-12-16T08:51:22Z","tz":1,"tags":{"created_by":"Potlatch 0.10f","highway":"path","name":"Accès à la Voie \"Ombre Chinoise\"","sport":"climbing"}},"281570358":{"lat":45.9532547,"lon":6.5517768,"ts":"2022-03-01T16:32:55Z","tz":1,"tags":{"name":"Acces à Ombre Chinoise","sport":"climbing"}},"306470702":{"lat":45.9305923,"lon":6.328449,"ts":"2012-10-23T19:19:02Z","tz":1,"tags":{"name":"Sapeyrlipopette","sport":"climbing"}},"343417494":{"lat":46.0521531,"lon":6.4628045,"ts":"2020-07-26T17:30:11Z","tz":1,"tags":{"climbing:grade:french:max":"8b","climbing:grade:french:mean":"6","climbing:grade:french:min":"3b","climbing:length:max":"29","climbing:length:min":"9","climbing:orientation":"S","climbing:quality":"solid","climbing:rock":"limestone","climbing:sport":"58","ele":"950","name":"Malsaire","natural":"cliff","sport":"climbing"}},"343422048":{"lat":46.0541039,"lon":6.4546743,"ts":"2020-08-16T17:29:22Z","tz":1,"tags":{"climbing:grade:french:max":"8a+","climbing:grade:french:min":"6b","climbing:length:max":"33","climbing:length:min":"15","climbing:orientation":"N","climbing:rock":"limestone","climbing:sport":"11","ele":"690","name":"Pont de Chavougie","natural":"cliff","sport":"climbing"}},"431510801":{"lat":45.9662559,"lon":6.4210017,"ts":"2024-05-09T10:53:19Z","tz":1,"tags":{"access":"yes","climbing:bolted":"yes","climbing:grade:french:max":"8a","climbing:grade:french:mean":"5a","climbing:grade:french:min":"3c","climbing:length":"18","climbing:length:max":"25","climbing:length:min":"10","climbing:orientation":"SE","climbing:quality":"solid","climbing:rock":"limestone","climbing:routes":"65","climbing:sport":"yes","ele":"1500","fee":"no","indoor":"no","name":"La Culaz","natural":"cliff","opening_hours":"24/7","outdoor":"yes","ref:camptocamp":"102295","sport":"climbing"}},"509752391":{"lat":45.9145982,"lon":6.6328445,"ts":"2024-09-16T19:57:36Z","tz":1,"tags":{"climbing:boulder":"yes","name":"Bloc de Medonnet","natural":"stone","sport":"climbing"}},"515479054":{"lat":46.0482459,"lon":6.6010771,"ts":"2024-10-01T14:06:44Z","tz":1,"tags":{"climbing":"boulder","climbing:boulder":"yes","fee":"no","name":"Bloc de la Maladière","natural":"stone","sport":"climbing"}},"515499298":{"lat":45.9767418,"lon":6.6072129,"ts":"2017-08-14T10:17:07Z","tz":1,"tags":{"name":"La Pierre a Voix","natural":"rock","source":"data.gouv.fr:Le ministère des droits des femmes, de la ville, de la jeunesse et des sports - 2014","sport":"climbing"}},"612601461":{"lat":46.002299,"lon":6.4819243,"ts":"2018-07-31T10:45:11Z","tz":1,"tags":{"highway":"path","name":"Descente en rappel","sport":"climbing"}},"612601465":{"lat":46.002173,"lon":6.4803896,"ts":"2022-03-03T06:29:37Z","tz":1,"tags":{"highway":"path","name":"Tchao Godillo","sac_scale":"difficult_alpine_hiking","sport":"climbing"}},"612626594":{"lat":45.9521996,"lon":6.4177564,"ts":"2021-03-12T10:32:55Z","tz":1,"tags":{"name":"Rochers de la Forclaz","natural":"cliff","sport":"climbing"}},"673132008":{"lat":45.8602269,"lon":6.6183723,"ts":"2024-03-08T13:51:15Z","tz":1,"tags":{"addr:city":"Megève","addr:postcode":"74120","leisure":"sports_centre","name":"Salle d'escalade","sport":"climbing"}},"2302911142":{"lat":46.0595226,"lon":6.6271216,"ts":"2024-10-01T14:08:10Z","tz":1,"tags":{"climbing":"crag","climbing:boulder":"no","climbing:grade:french:max":"5c","climbing:grade:french:min":"3","climbing:orientation":"S","climbing:sport":"37","fee":"no","height":"100","name":"Falaise de la Frasse","natural":"cliff","rock":"limestone","sport":"climbing","url":"https://www.escalade-74.com/la-frasse/"}},"2940374849":{"lat":45.9475,"lon":6.67944,"ts":"2014-06-30T11:11:40Z","tz":1,"tags":{"name":"Cascade de Croix Blanche","source":"data.gouv.fr:Le ministère des droits des femmes, de la ville, de la jeunesse et des sports - 2014","sport":"climbing"}},"2940374850":{"lat":45.96611,"lon":6.64667,"ts":"2014-06-30T11:11:40Z","tz":1,"tags":{"name":"Cascade de Crêve Coeur","source":"data.gouv.fr:Le ministère des droits des femmes, de la ville, de la jeunesse et des sports - 2014","sport":"climbing"}},"2940374851":{"lat":45.9455083,"lon":6.6578049,"ts":"2022-09-08T14:50:31Z","tz":1,"tags":{"name":"Cascade de Glace de Reninge Arvet","source":"data.gouv.fr:Le ministère des droits des femmes, de la ville, de la jeunesse et des sports - 2014","sport":"climbing","tourism":"attraction"}},"2940374852":{"lat":45.9377805,"lon":6.5201972,"ts":"2021-01-08T10:15:19Z","tz":1,"tags":{"description":"Cascade de glace : Rolling & Scratching, IV, 5+, M5+, 450m","name":"Cascade de la Mamule","source":"data.gouv.fr:Le ministère des droits des femmes, de la ville, de la jeunesse et des sports - 2014","sport":"climbing"}},"2940374853":{"lat":45.93917,"lon":6.55944,"ts":"2014-06-30T11:11:40Z","tz":1,"tags":{"name":"Cascade du Fond des Fours","source":"data.gouv.fr:Le ministère des droits des femmes, de la ville, de la jeunesse et des sports - 2014","sport":"climbing"}},"2940374854":{"lat":45.96222,"lon":6.66056,"ts":"2014-06-30T11:11:40Z","tz":1,"tags":{"name":"Cascade du Grand Arvet","source":"data.gouv.fr:Le ministère des droits des femmes, de la ville, de la jeunesse et des sports - 2014","sport":"climbing"}},"2940374855":{"lat":45.96944,"lon":6.66167,"ts":"2014-06-30T11:11:40Z","tz":1,"tags":{"name":"Cascade du Rocher des Pendus","source":"data.gouv.fr:Le ministère des droits des femmes, de la ville, de la jeunesse et des sports - 2014","sport":"climbing"}},"2940374856":{"lat":45.9698023,"lon":6.5977169,"ts":"2020-08-17T16:37:32Z","tz":1,"tags":{"name":"La Cascade de Doran","source":"data.gouv.fr:Le ministère des droits des femmes, de la ville, de la jeunesse et des sports - 2014","sport":"climbing"}},"2940374857":{"lat":45.9387263,"lon":6.5349893,"ts":"2019-08-16T14:59:11Z","tz":1,"tags":{"ele":"2359","name":"La Petite Miaz","source":"data.gouv.fr:Le ministère des droits des femmes, de la ville, de la jeunesse et des sports - 2014","sport":"climbing"}},"2940374859":{"lat":45.9776699,"lon":6.5648168,"ts":"2020-08-17T15:51:55Z","tz":1,"tags":{"ele":"2407","name":"La Tête des 3 Hommes (ou Pointe Longue)","natural":"peak","source":"data.gouv.fr:Le ministère des droits des femmes, de la ville, de la jeunesse et des sports - 2014","sport":"climbing"}},"2940374860":{"lat":45.94056,"lon":6.53528,"ts":"2014-06-30T11:11:41Z","tz":1,"tags":{"name":"Mont Charvet","source":"data.gouv.fr:Le ministère des droits des femmes, de la ville, de la jeunesse et des sports - 2014","sport":"climbing"}},"2940374862":{"lat":45.9765226,"lon":6.5825623,"ts":"2014-06-30T11:11:41Z","tz":1,"tags":{"name":"Pointes D'Areu","source":"data.gouv.fr:Le ministère des droits des femmes, de la ville, de la jeunesse et des sports - 2014","sport":"climbing"}},"2940374863":{"lat":45.9700883,"lon":6.5978669,"ts":"2020-08-17T16:37:32Z","tz":1,"tags":{"name":"Secteur Pointe Percée","source":"data.gouv.fr:Le ministère des droits des femmes, de la ville, de la jeunesse et des sports - 2014","sport":"climbing"}},"2940374864":{"lat":45.976513,"lon":6.582741,"ts":"2014-06-30T11:11:41Z","tz":1,"tags":{"name":"Tours d'Areu","source":"data.gouv.fr:Le ministère des droits des femmes, de la ville, de la jeunesse et des sports - 2014","sport":"climbing"}},"2940374886":{"lat":45.9429719,"lon":6.6281887,"ts":"2014-06-30T11:11:42Z","tz":1,"tags":{"source":"data.gouv.fr:Le ministère des droits des femmes, de la ville, de la jeunesse et des sports - 2014","sport":"climbing"}},"3201289254":{"lat":46.0241763,"lon":6.4210042,"ts":"2014-12-12T10:46:42Z","tz":1,"tags":{"name":"École d'escalade","source":"data.gouv.fr:Le ministère des droits des femmes, de la ville, de la jeunesse et des sports - 2014","sport":"climbing"}},"3826885957":{"lat":46.0532393,"lon":6.6059027,"ts":"2024-09-19T19:01:14Z","tz":1,"tags":{"climbing":"route_top","name":"Tropiques Rappel - Accès Falaise","name:en":"Tropiques Rappel - Cliff Access","name:fr":"Tropiques Rappel - Accès Falaise","sport":"climbing"}},"4989361528":{"lat":46.06471,"lon":6.5743638,"ts":"2024-09-16T20:01:53Z","tz":1,"tags":{"leisure":"sports_centre","sport":"climbing"}},"5707720000":{"lat":45.8825171,"lon":6.448278,"ts":"2023-04-10T20:54:16Z","tz":1,"tags":{"access":"yes","climbing:grade:french:max":"8a","climbing:grade:french:min":"3c","climbing:length:max":"40","climbing:length:min":"17","climbing:multipitch":"yes","climbing:orientation":"S","climbing:rock":"limestone","climbing:routes":"100","climbing:sport":"yes","ele":"1440","fee":"no","indoor":"no","name":"Rocher des Aravis","opening_hours":"24/7","outdoor":"yes","sport":"climbing","website":"http://fabcime.com/topo_col_des_aravis.html"}},"5792365448":{"lat":45.9516038,"lon":6.4184759,"ts":"2018-07-31T11:58:03Z","tz":1,"tags":{"name":"Secteur Cool","sport":"climbing"}},"5798636309":{"lat":45.9511609,"lon":6.4190733,"ts":"2018-07-31T11:58:03Z","tz":1,"tags":{"name":"Secteur initiation","sport":"climbing"}},"6426537439":{"lat":45.83083,"lon":6.59333,"ts":"2019-04-24T18:57:37Z","tz":1,"tags":{"name":"Cascades de Glace de Megeve","source":"Le ministère de la ville, de la jeunesse et des sports - 01/2018","sport":"climbing"}},"6578514122":{"lat":45.8535458,"lon":6.6186868,"ts":"2022-12-24T14:20:46Z","tz":1,"tags":{"access":"yes","leisure":"sports_centre","name":"Escalade","sport":"climbing","surface":"rock"}},"6723418237":{"lat":46.0397699,"lon":6.6213697,"ts":"2024-09-18T12:29:36Z","tz":1,"tags":{"climbing:orientation":"W","climbing:sport":"yes","sport":"climbing","url":"https://www.escalade-74.com/pierre-a-laya/"}},"7161163348":{"lat":45.9913413,"lon":6.5181655,"ts":"2024-04-20T10:41:25Z","tz":1,"tags":{"description":"Escalade sur glace","name":"Cascades du Reposoir","sport":"climbing"}},"7503041607":{"lat":46.0141127,"lon":6.640998,"ts":"2024-09-27T23:00:04Z","tz":1,"tags":{"climbing:sport":"yes","sport":"climbing"}},"9120157712":{"lat":45.9923099,"lon":6.4656614,"ts":"2023-11-24T15:02:43Z","tz":1,"tags":{"name":"Fanfoué des Pnottas","sport":"climbing"}},"10219752896":{"lat":46.0521349,"lon":6.4628294,"ts":"2022-11-26T13:53:29Z","tz":1,"tags":{"name":"Site d'escalade de Malsaire","sport":"climbing"}},"11144573823":{"lat":45.8620193,"lon":6.4532157,"ts":"2023-08-25T19:09:56Z","tz":1,"tags":{"name":"L'Arête à Marion","outdoor":"yes","sport":"climbing"}},"11289746290":{"lat":45.9543291,"lon":6.5525344,"ts":"2023-10-25T22:08:36Z","tz":1,"tags":{"name":"Paroi de Gramusset","sport":"climbing"}},"11831526187":{"lat":46.0208923,"lon":6.5999199,"ts":"2024-09-23T17:51:07Z","tz":1,"tags":{"climbing":"crag","climbing:boulder":"no","fee":"no","name":"Sous les Glaciers","rock":"limestone","sport":"climbing","url":"https://www.escalade-74.com/sous-les-glaciers/"}},"11831526188":{"lat":46.016108,"lon":6.5869833,"ts":"2024-10-01T14:07:45Z","tz":1,"tags":{"climbing":"crag","climbing:boulder":"no","fee":"no","name":"Les Vuardes","rock":"limestone","sport":"climbing"}},"11831526189":{"lat":46.0536692,"lon":6.6172936,"ts":"2024-09-23T17:47:10Z","tz":1,"tags":{"climbing":"crag","name":"Ballancy","sport":"climbing","url":"https://www.escalade-74.com/ballancy/"}},"11831526190":{"lat":46.0528423,"lon":6.6060689,"ts":"2024-09-25T16:26:55Z","tz":1,"tags":{"climbing":"crag","climbing:boulder":"no","climbing:multipitch":"yes","fee":"no","name":"La Maladière","rock":"limestone","sport":"climbing","url":"https://www.escalade-74.com/maladiere/","wikidata":"Q120316353"}},"12195338534":{"lat":46.0518925,"lon":6.6068477,"ts":"2024-09-23T19:06:22Z","tz":1,"tags":{"climbing":"route_top","name":"Indiana Jaune","sport":"climbing"}},"12643783553":{"lat":46.0438423,"lon":6.3770065,"ts":"2025-03-07T17:57:00Z","tz":1,"tags":{"name":"École d’escalade","sport":"climbing"}},"12643816866":{"lat":46.0439631,"lon":6.3772452,"ts":"2025-03-07T17:57:00Z","tz":1,"tags":{"name":"École d’escalade","sport":"climbing","website":"l"}}}