{"8724325":{"lat":45.4124027,"lon":6.6645882,"ts":"2023-10-23T16:21:20Z","tz":1,"tags":{"climbing":"route","name":"Via Ferrata Lac de la Rosière","route":"via_ferrata","type":"route","via_ferrata_scale":"2+"}},"8763499":{"lat":45.3883739,"lon":6.6082098,"ts":"2022-09-26T20:33:07Z","tz":1,"tags":{"climbing":"route","name":"Via Ferrata La Croix des Verdons","route":"via_ferrata","type":"route","via_ferrata_scale":"4"}},"10068366":{"lat":45.3412345,"lon":6.5337067,"ts":"2023-03-23T21:14:27Z","tz":1,"tags":{"climbing":"route","name":"Via Ferrata du Levassaix","route":"via_ferrata","type":"route","via_ferrata_scale":"2"}},"718943807":{"lat":45.4906235,"lon":6.5421202,"ts":"2023-08-06T21:43:40Z","tz":1,"tags":{"climbing:rock":"yes","name":"Le Mont Secret","natural":"cliff","sport":"climbing"}},"2939297911":{"lat":45.5579755,"lon":6.6548765,"ts":"2014-06-29T16:27:17Z","tz":1,"tags":{"source":"data.gouv.fr:Le ministère des droits des femmes, de la ville, de la jeunesse et des sports - 2014","sport":"climbing"}},"2939313855":{"lat":45.51583,"lon":6.60833,"ts":"2014-06-29T16:38:54Z","tz":1,"tags":{"name":"Secteur Busserolle - 7","source":"data.gouv.fr:Le ministère des droits des femmes, de la ville, de la jeunesse et des sports - 2014","sport":"climbing"}},"2939313856":{"lat":45.515,"lon":6.60722,"ts":"2014-06-29T16:38:54Z","tz":1,"tags":{"name":"Secteur Dauphiné - 1","source":"data.gouv.fr:Le ministère des droits des femmes, de la ville, de la jeunesse et des sports - 2014","sport":"climbing"}},"2939313857":{"lat":45.51611,"lon":6.60639,"ts":"2014-06-29T16:38:54Z","tz":1,"tags":{"name":"Secteur Repères Géodesique/Mandibules - 11","source":"data.gouv.fr:Le ministère des droits des femmes, de la ville, de la jeunesse et des sports - 2014","sport":"climbing"}},"2939313858":{"lat":45.51694,"lon":6.60861,"ts":"2014-06-29T16:38:54Z","tz":1,"tags":{"name":"Secteur Rocher Coupant - 8","source":"data.gouv.fr:Le ministère des droits des femmes, de la ville, de la jeunesse et des sports - 2014","sport":"climbing"}},"2939313859":{"lat":45.51556,"lon":6.60806,"ts":"2014-06-29T16:38:54Z","tz":1,"tags":{"name":"Secteur Soleil Levant - 3","source":"data.gouv.fr:Le ministère des droits des femmes, de la ville, de la jeunesse et des sports - 2014","sport":"climbing"}},"2939313860":{"lat":45.51556,"lon":6.60583,"ts":"2016-07-10T12:17:24Z","tz":1,"tags":{"name":"Secteur Tichodrome/Planète des Singes - 14","source":"data.gouv.fr:Le ministère des droits des femmes, de la ville, de la jeunesse et des sports - 2014","sport":"climbing"}},"2939313861":{"lat":45.51444,"lon":6.60583,"ts":"2014-06-29T16:38:55Z","tz":1,"tags":{"name":"Secteur l'Artf - 9","source":"data.gouv.fr:Le ministère des droits des femmes, de la ville, de la jeunesse et des sports - 2014","sport":"climbing"}},"2939313862":{"lat":45.51639,"lon":6.60667,"ts":"2014-06-29T16:38:55Z","tz":1,"tags":{"name":"Secteur l'Oreille/Que Dalle - 12","source":"data.gouv.fr:Le ministère des droits des femmes, de la ville, de la jeunesse et des sports - 2014","sport":"climbing"}},"2939313863":{"lat":45.51583,"lon":6.60806,"ts":"2014-06-29T16:38:55Z","tz":1,"tags":{"name":"Secteur la Coullée Noire - 7","source":"data.gouv.fr:Le ministère des droits des femmes, de la ville, de la jeunesse et des sports - 2014","sport":"climbing"}},"2939313864":{"lat":45.51472,"lon":6.60556,"ts":"2014-06-29T16:38:55Z","tz":1,"tags":{"name":"Secteur la Secte - 15","source":"data.gouv.fr:Le ministère des droits des femmes, de la ville, de la jeunesse et des sports - 2014","sport":"climbing"}},"2939313865":{"lat":45.51611,"lon":6.60861,"ts":"2014-06-29T16:38:55Z","tz":1,"tags":{"name":"Secteur le Mu - 5","source":"data.gouv.fr:Le ministère des droits des femmes, de la ville, de la jeunesse et des sports - 2014","sport":"climbing"}},"2939313866":{"lat":45.51639,"lon":6.60611,"ts":"2014-06-29T16:38:55Z","tz":1,"tags":{"name":"Secteur le Penard - 13","source":"data.gouv.fr:Le ministère des droits des femmes, de la ville, de la jeunesse et des sports - 2014","sport":"climbing"}},"2939313867":{"lat":45.5154696,"lon":6.6078574,"ts":"2021-03-17T20:40:49Z","tz":1,"tags":{"name":"Secteur le Renard - 2","source":"data.gouv.fr:Le ministère des droits des femmes, de la ville, de la jeunesse et des sports - 2014","sport":"climbing"}},"2939313868":{"lat":45.51583,"lon":6.6075,"ts":"2014-06-29T16:38:55Z","tz":1,"tags":{"name":"Secteur les Oiseaux - 8","source":"data.gouv.fr:Le ministère des droits des femmes, de la ville, de la jeunesse et des sports - 2014","sport":"climbing"}},"2939313869":{"lat":45.51472,"lon":6.60583,"ts":"2014-06-29T16:38:55Z","tz":1,"tags":{"name":"Secteur les Pins - 10","source":"data.gouv.fr:Le ministère des droits des femmes, de la ville, de la jeunesse et des sports - 2014","sport":"climbing"}},"2940206056":{"lat":45.50083,"lon":6.56667,"ts":"2014-06-30T08:36:18Z","tz":1,"tags":{"name":"Falaise de Pomblière","source":"data.gouv.fr:Le ministère des droits des femmes, de la ville, de la jeunesse et des sports - 2014","sport":"climbing"}},"2940206057":{"lat":45.51015,"lon":6.56856,"ts":"2014-06-30T08:36:18Z","tz":1,"tags":{"name":"Falaise de Saint-Marcel","source":"data.gouv.fr:Le ministère des droits des femmes, de la ville, de la jeunesse et des sports - 2014","sport":"climbing"}},"8977828333":{"lat":45.5443938,"lon":6.6116077,"ts":"2024-02-06T16:26:01Z","tz":1,"tags":{"climbing":"area","climbing:orientation":"W","climbing:sport":"yes","name":"Site d'escalade de Vilette","sport":"climbing"}},"9571301853":{"lat":45.5450878,"lon":6.4922056,"ts":"2022-03-11T17:36:33Z","tz":1,"tags":{"leisure":"sports_centre","sport":"climbing"}},"11539163414":{"lat":45.5513852,"lon":6.6483811,"ts":"2024-09-05T20:31:45Z","tz":1,"tags":{"addr:city":"Aime-la-Plagne","addr:housenumber":"1026","addr:postcode":"73210","fee":"yes","leisure":"sports_centre","name":"Rêve de blocs","opening_hours":"Mo-Fr 14:00-22:00; We 10:00-22:00; Sa 16:00-20:00; Su 10:00-18:00","sport":"climbing"}},"11592040437":{"lat":45.5437611,"lon":6.6110892,"ts":"2024-02-06T16:26:01Z","tz":1,"tags":{"climbing":"boulder","name":"Site d'escalade de Vilette"}}}