{"8811453":{"lat":44.2149433,"lon":6.4485344,"ts":"2023-03-05T17:15:27Z","tz":1,"tags":{"climbing":"route","name":"Via Ferrata Falaise de Meichira","route":"via_ferrata","type":"route","via_ferrata_scale":"3"}},"2937982637":{"lat":44.09673,"lon":6.39226,"ts":"2014-06-28T20:19:32Z","tz":1,"tags":{"name":"Clue de la Peine","source":"data.gouv.fr:Le ministère des droits des femmes, de la ville, de la jeunesse et des sports - 2014","sport":"climbing"}},"2937982638":{"lat":44.18225,"lon":6.42558,"ts":"2014-06-28T20:19:32Z","tz":1,"tags":{"name":"Grande Voie Matt l'Islandais","source":"data.gouv.fr:Le ministère des droits des femmes, de la ville, de la jeunesse et des sports - 2014","sport":"climbing"}},"2937982642":{"lat":44.1849946,"lon":6.4212685,"ts":"2018-05-21T18:51:17Z","tz":1,"tags":{"name":"Rocher École","source":"data.gouv.fr:Le ministère des droits des femmes, de la ville, de la jeunesse et des sports - 2014","sport":"climbing"}},"2937982644":{"lat":44.18229,"lon":6.42454,"ts":"2014-06-28T20:19:32Z","tz":1,"tags":{"name":"Secteur Ciao Cescu","source":"data.gouv.fr:Le ministère des droits des femmes, de la ville, de la jeunesse et des sports - 2014","sport":"climbing"}},"2937982645":{"lat":44.1829864,"lon":6.4240834,"ts":"2014-06-28T20:19:32Z","tz":1,"tags":{"name":"Secteur Eau Vive","source":"data.gouv.fr:Le ministère des droits des femmes, de la ville, de la jeunesse et des sports - 2014","sport":"climbing"}},"2937982646":{"lat":44.1830936,"lon":6.4239215,"ts":"2014-06-28T20:19:32Z","tz":1,"tags":{"name":"Secteur Mestreme Dream","source":"data.gouv.fr:Le ministère des droits des femmes, de la ville, de la jeunesse et des sports - 2014","sport":"climbing"}},"2937982647":{"lat":44.1830311,"lon":6.4240025,"ts":"2014-06-28T20:19:32Z","tz":1,"tags":{"name":"Secteur c'est Suprème","source":"data.gouv.fr:Le ministère des droits des femmes, de la ville, de la jeunesse et des sports - 2014","sport":"climbing"}},"2937982648":{"lat":44.18271,"lon":6.57037,"ts":"2014-06-28T20:19:32Z","tz":1,"tags":{"name":"Secteur de Juan","source":"data.gouv.fr:Le ministère des droits des femmes, de la ville, de la jeunesse et des sports - 2014","sport":"climbing"}},"7816870547":{"lat":44.1432196,"lon":6.5927513,"ts":"2020-08-16T09:43:49Z","tz":1,"tags":{"leisure":"sports_centre","sport":"climbing"}},"11053344253":{"lat":44.33324,"lon":6.64675,"ts":"2023-07-18T16:02:51Z","tz":1,"tags":{"climbing:multipitch":"yes","climbing:orientation":"S","climbing:rock":"limestone","name":"Pain de sucre","natural":"cliff","source":"Le ministère de la ville, de la jeunesse et des sports - 2021-04","sport":"climbing"}},"11053349460":{"lat":44.33656,"lon":6.54485,"ts":"2023-07-18T16:13:31Z","tz":1,"tags":{"climbing:orientation":"W","climbing:trad":"yes","name":"Séolane","natural":"cliff","source":"Le ministère de la ville, de la jeunesse et des sports - 2021-04","sport":"climbing"}},"11053353775":{"lat":44.332363,"lon":6.6569706,"ts":"2023-07-18T16:07:00Z","tz":1,"tags":{"climbing:multipitch":"yes","climbing:orientation":"S","name":"Chapeau de Gendarme (Le Lan)","natural":"cliff","source":"Le ministère de la ville, de la jeunesse et des sports - 2021-04","sport":"climbing"}}}