{"1184440583":{"lat":43.7852541,"lon":6.3925993,"ts":"2023-06-23T11:00:40Z","tz":1,"tags":{"name":"Valaute","natural":"cliff","source":"data.gouv.fr:Le ministère des droits des femmes, de la ville, de la jeunesse et des sports - 2014","sport":"climbing"}},"1184440590":{"lat":43.783522,"lon":6.3915624,"ts":"2023-06-23T11:00:40Z","tz":1,"tags":{"name":"Secteur Castapiagne Rouge Mescalito","natural":"cliff","source":"data.gouv.fr:Le ministère des droits des femmes, de la ville, de la jeunesse et des sports - 2014","sport":"climbing"}},"2836483362":{"lat":43.7677638,"lon":6.3723446,"ts":"2020-08-02T16:25:27Z","tz":1,"tags":{"name":"Secteur Débado","source":"data.gouv.fr:Le ministère des droits des femmes, de la ville, de la jeunesse et des sports - 2014","sport":"climbing"}},"2937864893":{"lat":43.74585,"lon":6.33048,"ts":"2014-06-28T18:47:29Z","tz":1,"tags":{"name":"Secteur Belvedère et Chan-Fhé","source":"data.gouv.fr:Le ministère des droits des femmes, de la ville, de la jeunesse et des sports - 2014","sport":"climbing"}},"2937864894":{"lat":43.7458411,"lon":6.3306407,"ts":"2014-06-28T20:03:05Z","tz":1,"tags":{"name":"Secteur Discorde","source":"data.gouv.fr:Le ministère des droits des femmes, de la ville, de la jeunesse et des sports - 2014","sport":"climbing"}},"2937950228":{"lat":43.73497,"lon":6.36057,"ts":"2020-05-01T22:34:33Z","tz":1,"tags":{"name":"Baume des Cavaliers","natural":"cave_entrance","source":"data.gouv.fr:Le ministère des droits des femmes, de la ville, de la jeunesse et des sports - 2014","sport":"climbing"}},"2937950229":{"lat":43.77141,"lon":6.37701,"ts":"2014-06-28T20:03:03Z","tz":1,"tags":{"name":"Debiloff Pilier Gousseault","source":"data.gouv.fr:Le ministère des droits des femmes, de la ville, de la jeunesse et des sports - 2014","sport":"climbing"}},"2937950230":{"lat":43.74218,"lon":6.3409,"ts":"2014-06-28T20:03:03Z","tz":1,"tags":{"name":"Estélier, Oursinade","source":"data.gouv.fr:Le ministère des droits des femmes, de la ville, de la jeunesse et des sports - 2014","sport":"climbing"}},"2937950231":{"lat":43.7397462,"lon":6.3601108,"ts":"2014-06-28T20:03:04Z","tz":1,"tags":{"name":"Free Tibet et Monier","source":"data.gouv.fr:Le ministère des droits des femmes, de la ville, de la jeunesse et des sports - 2014","sport":"climbing"}},"2937950232":{"lat":43.7399204,"lon":6.3603085,"ts":"2014-06-28T20:03:04Z","tz":1,"tags":{"name":"Grand Secteur Eycharme","source":"data.gouv.fr:Le ministère des droits des femmes, de la ville, de la jeunesse et des sports - 2014","sport":"climbing"}},"2937950233":{"lat":43.7368749,"lon":6.3490392,"ts":"2023-02-09T15:43:58Z","tz":1,"tags":{"name":"Site d'escalade Les Cavaliers","name:en":"Climbing site Les Cavaliers","sport":"climbing"}},"2937950234":{"lat":43.7458589,"lon":6.3303966,"ts":"2014-06-28T20:03:04Z","tz":1,"tags":{"name":"Secteur Babouchemolle","source":"data.gouv.fr:Le ministère des droits des femmes, de la ville, de la jeunesse et des sports - 2014","sport":"climbing"}},"2937950235":{"lat":43.77531,"lon":6.38412,"ts":"2014-06-28T20:03:04Z","tz":1,"tags":{"name":"Secteur Carelle - Gwendal","source":"data.gouv.fr:Le ministère des droits des femmes, de la ville, de la jeunesse et des sports - 2014","sport":"climbing"}},"2937950236":{"lat":43.76528,"lon":6.37372,"ts":"2014-06-28T20:03:04Z","tz":1,"tags":{"name":"Secteur Dent d'Aire","source":"data.gouv.fr:Le ministère des droits des femmes, de la ville, de la jeunesse et des sports - 2014","sport":"climbing"}},"2937950238":{"lat":43.77258,"lon":6.38412,"ts":"2014-06-28T20:03:04Z","tz":1,"tags":{"name":"Secteur Golem","source":"data.gouv.fr:Le ministère des droits des femmes, de la ville, de la jeunesse et des sports - 2014","sport":"climbing"}},"2937950239":{"lat":43.7458478,"lon":6.3305603,"ts":"2014-06-28T20:03:04Z","tz":1,"tags":{"name":"Secteur Igloo","source":"data.gouv.fr:Le ministère des droits des femmes, de la ville, de la jeunesse et des sports - 2014","sport":"climbing"}},"2937950240":{"lat":43.7678596,"lon":6.3723289,"ts":"2014-06-28T20:03:04Z","tz":1,"tags":{"name":"Secteur Jardin des Suisses et Souricière","source":"data.gouv.fr:Le ministère des droits des femmes, de la ville, de la jeunesse et des sports - 2014","sport":"climbing"}},"2937950241":{"lat":43.76223,"lon":6.37052,"ts":"2014-06-28T20:03:04Z","tz":1,"tags":{"name":"Secteur Liz Taylor et Mur Bleu","source":"data.gouv.fr:Le ministère des droits des femmes, de la ville, de la jeunesse et des sports - 2014","sport":"climbing"}},"2937950242":{"lat":43.75053,"lon":6.36422,"ts":"2014-06-28T20:03:04Z","tz":1,"tags":{"name":"Secteur Miroir","source":"data.gouv.fr:Le ministère des droits des femmes, de la ville, de la jeunesse et des sports - 2014","sport":"climbing"}},"2937950243":{"lat":43.7748407,"lon":6.3833319,"ts":"2015-09-12T20:13:55Z","tz":1,"tags":{"name":"Secteur Naziaque - Six Fois Zette","source":"data.gouv.fr:Le ministère des droits des femmes, de la ville, de la jeunesse et des sports - 2014","sport":"climbing"}},"2937950244":{"lat":43.7621452,"lon":6.3704767,"ts":"2014-06-28T20:03:04Z","tz":1,"tags":{"name":"Secteur Pas de la Baume","source":"data.gouv.fr:Le ministère des droits des femmes, de la ville, de la jeunesse et des sports - 2014","sport":"climbing"}},"2937950245":{"lat":43.75249,"lon":6.3648,"ts":"2014-06-28T20:03:04Z","tz":1,"tags":{"name":"Secteur Sale Temps et 7e Saut","source":"data.gouv.fr:Le ministère des droits des femmes, de la ville, de la jeunesse et des sports - 2014","sport":"climbing"}},"2937950246":{"lat":43.77372,"lon":6.38202,"ts":"2014-06-28T20:03:04Z","tz":1,"tags":{"name":"Secteur Saut d'Homme Fenrir","source":"data.gouv.fr:Le ministère des droits des femmes, de la ville, de la jeunesse et des sports - 2014","sport":"climbing"}},"2937950247":{"lat":43.7712633,"lon":6.3771685,"ts":"2020-08-02T16:25:28Z","tz":1,"tags":{"name":"Secteur Sordidon","source":"data.gouv.fr:Le ministère des droits des femmes, de la ville, de la jeunesse et des sports - 2014","sport":"climbing"}},"2937950248":{"lat":43.76794,"lon":6.37223,"ts":"2014-06-28T20:03:04Z","tz":1,"tags":{"name":"Secteur Surbottes Mort à Venise","source":"data.gouv.fr:Le ministère des droits des femmes, de la ville, de la jeunesse et des sports - 2014","sport":"climbing"}},"2937950249":{"lat":43.76947,"lon":6.37345,"ts":"2014-06-28T20:03:04Z","tz":1,"tags":{"name":"Secteur Surveiller et Punir Tuyères","source":"data.gouv.fr:Le ministère des droits des femmes, de la ville, de la jeunesse et des sports - 2014","sport":"climbing"}},"2937950250":{"lat":43.76983,"lon":6.37596,"ts":"2014-06-28T20:03:05Z","tz":1,"tags":{"name":"Secteur Virginie Domaine des Dieux","source":"data.gouv.fr:Le ministère des droits des femmes, de la ville, de la jeunesse et des sports - 2014","sport":"climbing"}},"2937950252":{"lat":43.75286,"lon":6.355,"ts":"2014-06-28T20:03:05Z","tz":1,"tags":{"name":"Solitude","source":"data.gouv.fr:Le ministère des droits des femmes, de la ville, de la jeunesse et des sports - 2014","sport":"climbing"}},"2937969192":{"lat":43.78753,"lon":6.39493,"ts":"2014-06-28T20:12:50Z","tz":1,"tags":{"name":"Secteur Dérobée - Les Souzes Salopards","source":"data.gouv.fr:Le ministère des droits des femmes, de la ville, de la jeunesse et des sports - 2014","sport":"climbing"}},"2937969193":{"lat":43.77938,"lon":6.397,"ts":"2014-06-28T20:12:50Z","tz":1,"tags":{"name":"Secteur Encastel","source":"data.gouv.fr:Le ministère des droits des femmes, de la ville, de la jeunesse et des sports - 2014","sport":"climbing"}},"2937969194":{"lat":43.77928,"lon":6.38974,"ts":"2014-06-28T20:12:50Z","tz":1,"tags":{"name":"Secteur Luna Bong - Éperon Sublime","source":"data.gouv.fr:Le ministère des droits des femmes, de la ville, de la jeunesse et des sports - 2014","sport":"climbing"}},"2937969196":{"lat":43.77611,"lon":6.38669,"ts":"2014-06-28T20:12:50Z","tz":1,"tags":{"name":"Secteur Pichenibule - Dalles Grises","source":"data.gouv.fr:Le ministère des droits des femmes, de la ville, de la jeunesse et des sports - 2014","sport":"climbing"}},"2937969198":{"lat":43.7791952,"lon":6.3896967,"ts":"2014-06-28T20:12:50Z","tz":1,"tags":{"name":"Secteur Solanuts et Symphonie du Temps","source":"data.gouv.fr:Le ministère des droits des femmes, de la ville, de la jeunesse et des sports - 2014","sport":"climbing"}},"2937969199":{"lat":43.78103,"lon":6.39055,"ts":"2014-06-28T20:12:50Z","tz":1,"tags":{"name":"Secteur Tchèque","source":"data.gouv.fr:Le ministère des droits des femmes, de la ville, de la jeunesse et des sports - 2014","sport":"climbing"}},"2937969200":{"lat":43.7959,"lon":6.41122,"ts":"2014-06-28T20:12:50Z","tz":1,"tags":{"name":"Secteur des Spécialistes","source":"data.gouv.fr:Le ministère des droits des femmes, de la ville, de la jeunesse et des sports - 2014","sport":"climbing"}},"2937971902":{"lat":43.78542,"lon":6.39929,"ts":"2014-06-28T20:12:51Z","tz":1,"tags":{"name":"Secteur le Duc - Samson","source":"data.gouv.fr:Le ministère des droits des femmes, de la ville, de la jeunesse et des sports - 2014","sport":"climbing"}},"2937971904":{"lat":43.77705,"lon":6.38806,"ts":"2014-06-28T20:12:51Z","tz":1,"tags":{"name":"Secteur Écureuils","source":"data.gouv.fr:Le ministère des droits des femmes, de la ville, de la jeunesse et des sports - 2014","sport":"climbing"}},"2938052178":{"lat":43.5887,"lon":6.44479,"ts":"2020-04-23T08:53:14Z","tz":1,"tags":{"ele":"643","name":"La Pale","place":"locality","source":"data.gouv.fr:Le ministère des droits des femmes, de la ville, de la jeunesse et des sports - 2014","sport":"climbing"}},"2938052182":{"lat":43.5907,"lon":6.4333,"ts":"2014-06-28T21:11:17Z","tz":1,"tags":{"name":"Le Baou","source":"data.gouv.fr:Le ministère des droits des femmes, de la ville, de la jeunesse et des sports - 2014","sport":"climbing"}},"2938052187":{"lat":43.59111,"lon":6.42327,"ts":"2014-06-28T21:11:17Z","tz":1,"tags":{"name":"Les Marinous","source":"data.gouv.fr:Le ministère des droits des femmes, de la ville, de la jeunesse et des sports - 2014","sport":"climbing"}},"2938054665":{"lat":43.611,"lon":6.3833,"ts":"2014-06-28T21:11:22Z","tz":1,"tags":{"name":"2e Ressaut","source":"data.gouv.fr:Le ministère des droits des femmes, de la ville, de la jeunesse et des sports - 2014","sport":"climbing"}},"3740511553":{"lat":43.7757411,"lon":6.3853057,"ts":"2020-08-08T13:53:15Z","tz":1,"tags":{"name":"Dalles Grises","sport":"climbing"}},"3980817246":{"lat":43.5947191,"lon":6.432851,"ts":"2016-01-31T23:03:59Z","tz":1,"tags":{"source":"survey","sport":"climbing"}},"3980823745":{"lat":43.5955011,"lon":6.4336719,"ts":"2016-01-31T23:03:59Z","tz":1,"tags":{"source":"survey","sport":"climbing"}},"8158734481":{"lat":43.7658617,"lon":6.3734935,"ts":"2020-11-24T17:03:34Z","tz":1,"tags":{"climbing":"route_top","climbing:multipitch":"yes","name":"Un Robin de Jouvence","sport":"climbing"}},"9607689452":{"lat":43.7859578,"lon":6.3958642,"ts":"2022-03-26T00:16:41Z","tz":1,"tags":{"leisure":"pitch","name":"Duc Encastel","sport":"climbing"}},"10632841195":{"lat":43.7443079,"lon":6.3286396,"ts":"2023-02-09T15:43:58Z","tz":1,"tags":{"name":"Site d'escalade Les Sallières","name:en":"Climbing site Les Sallières","sport":"climbing"}},"10632841196":{"lat":43.7435772,"lon":6.3322285,"ts":"2023-02-09T15:43:58Z","tz":1,"tags":{"name":"Site d'escalade Petites Pointes","name:en":"Climbing site Les Sallières","sport":"climbing"}},"10632841197":{"lat":43.7351992,"lon":6.3563448,"ts":"2023-02-09T15:43:58Z","tz":1,"tags":{"name":"Site d'escalade Pantin du Néant","name:en":"Climbing site Pantin Néant","sport":"climbing"}},"12304542472":{"lat":43.7456004,"lon":6.3442681,"ts":"2024-11-01T14:11:59Z","tz":1,"tags":{"leisure":"pitch","name":"CAF","sport":"climbing","survey:date":"2024-11-01"}}}