{"1108191862":{"lat":32.651257,"lon":-16.8986112,"ts":"2024-09-13T20:29:32Z","tz":0,"tags":{"addr:city":"Funchal","addr:postcode":"9060-182","addr:street":"R. Conde Carvalhal 26E","building":"commercial","check_date:currency:XBT":"2023-12-02","currency:XBT":"yes","description":"The best Bouldering center on the island!","email":"madeiraclimbingcenter@gmail.com","image":"https://i.ibb.co/1Q0rvDQ/IMG-4915.jpg","leisure":"sports_centre","name":"Madeira Climbing Center","opening_hours":"Mo-Fr 13:00-22:00, Sa-Su 10:00-22:00","payment:cash":"yes","payment:credit_cards":"yes","payment:debit_cards":"yes","payment:lightning":"yes","payment:lightning_contactless":"yes","payment:onchain":"no","phone":"(+351) 291 220 322","sport":"climbing","survey:date":"2024-09-13","website":"https://www.madeiraclimbingcenter.com"}},"1770908694":{"lat":32.6426119,"lon":-16.958647,"ts":"2019-08-03T11:27:04Z","tz":0,"tags":{"leisure":"rock climbing","sport":"climbing"}},"2837705193":{"lat":32.6598596,"lon":-16.9604425,"ts":"2015-12-13T01:51:21Z","tz":0,"tags":{"leisure":"rock climbing","sport":"climbing"}},"2837705194":{"lat":32.6602319,"lon":-16.9600127,"ts":"2015-12-13T01:51:22Z","tz":0,"tags":{"leisure":"rock climbing","sport":"climbing"}},"2837705195":{"lat":32.6690276,"lon":-17.0646313,"ts":"2014-05-05T13:24:46Z","tz":0,"tags":{"leisure":"rock climbing","sport":"climbing"}},"2837705196":{"lat":32.7315635,"lon":-17.063291,"ts":"2017-12-25T20:02:30Z","tz":0,"tags":{"leisure":"rock climbing","sport":"climbing"}}}