{"12642968":{"lat":46.285367,"lon":-73.7836293,"ts":"2021-04-28T20:30:59Z","tz":-5,"tags":{"climbing":"crag","name":"Centre-gauche","sport":"climbing","type":"site"}},"12642969":{"lat":46.285437,"lon":-73.7833545,"ts":"2021-04-28T20:30:59Z","tz":-5,"tags":{"climbing":"crag","name":"Centre-droit","sport":"climbing","type":"site"}},"12642971":{"lat":46.285538,"lon":-73.7825635,"ts":"2021-04-28T19:54:53Z","tz":-5,"tags":{"climbing":"crag","name":"Bowie Wall","sport":"climbing","type":"site"}},"14462483":{"lat":46.2265654,"lon":-73.7382876,"ts":"2022-09-07T13:13:27Z","tz":-5,"tags":{"climbing":"crag","name":"Hestia","sport":"climbing","type":"site"}},"14497262":{"lat":46.2258717,"lon":-73.7397032,"ts":"2022-09-07T13:13:27Z","tz":-5,"tags":{"climbing":"crag","name":"Cronos","sport":"climbing","type":"site"}},"14497466":{"lat":46.2259393,"lon":-73.7401245,"ts":"2022-09-07T13:13:27Z","tz":-5,"tags":{"climbing":"crag","name":"Helios","sport":"climbing","type":"site"}},"14497828":{"lat":46.2259977,"lon":-73.7408882,"ts":"2022-09-07T13:13:27Z","tz":-5,"tags":{"climbing":"crag","name":"Atlas","sport":"climbing","type":"site"}},"14502920":{"lat":46.2259703,"lon":-73.7411805,"ts":"2022-09-07T13:13:27Z","tz":-5,"tags":{"climbing":"crag","name":"Rhea","sport":"climbing","type":"site"}},"14550268":{"lat":46.2255618,"lon":-73.7425952,"ts":"2022-09-07T13:13:27Z","tz":-5,"tags":{"climbing":"crag","name":"Fin du Monde","sport":"climbing","type":"site"}},"14550775":{"lat":46.2256284,"lon":-73.7424228,"ts":"2022-09-07T13:13:27Z","tz":-5,"tags":{"climbing":"crag","name":"Sélène","sport":"climbing","type":"site"}},"14550776":{"lat":46.2257093,"lon":-73.7422559,"ts":"2022-09-07T13:13:27Z","tz":-5,"tags":{"climbing":"crag","name":"Hypérion","sport":"climbing","type":"site"}},"14550933":{"lat":46.2258367,"lon":-73.7418773,"ts":"2022-09-07T13:13:27Z","tz":-5,"tags":{"climbing":"crag","name":"Icarus","sport":"climbing","type":"site"}},"14551053":{"lat":46.2258949,"lon":-73.7415152,"ts":"2022-09-07T13:13:27Z","tz":-5,"tags":{"climbing":"crag","name":"Prometheus","sport":"climbing","type":"site"}},"14551083":{"lat":46.2278582,"lon":-73.7357758,"ts":"2022-09-07T13:13:27Z","tz":-5,"tags":{"climbing":"crag","name":"Bridge Buttress","sport":"climbing","type":"site"}},"1088787783":{"lat":46.2259574,"lon":-73.7402662,"ts":"2022-08-24T11:47:46Z","tz":-5,"tags":{"climbing:bolts":"8","climbing:grade:uiaa":"5-","climbing:sport":"yes","name":"Granny Z","sport":"climbing"}},"5964749764":{"lat":46.196226,"lon":-73.6897961,"ts":"2018-10-15T00:55:57Z","tz":-5,"tags":{"climbing":"crag","name":"Aux 4 Sommets","sport":"climbing"}},"8677555318":{"lat":46.285334,"lon":-73.783665,"ts":"2021-04-28T20:51:50Z","tz":-5,"tags":{"climbing":"route_bottom","climbing:bolts":"5","climbing:grade:uiaa":"9-","climbing:length":"10.0","climbing:sport":"yes","name":"Caporal","sport":"climbing"}},"8677555319":{"lat":46.285521,"lon":-73.78265,"ts":"2021-04-28T20:51:43Z","tz":-5,"tags":{"climbing":"route_bottom","climbing:bolts":"6","climbing:grade:uiaa":"6-","climbing:length":"20.0","climbing:mixed":"yes","climbing:trad":"yes","name":"Fantastic Voyage","sport":"climbing"}},"8677555320":{"lat":46.285549,"lon":-73.782499,"ts":"2021-04-28T20:51:41Z","tz":-5,"tags":{"climbing":"route_bottom","climbing:bolts":"7","climbing:grade:uiaa":"7+","climbing:length":"20.0","climbing:sport":"yes","name":"Young Americans","sport":"climbing"}},"8677557217":{"lat":46.285497,"lon":-73.783182,"ts":"2021-04-28T20:51:44Z","tz":-5,"tags":{"climbing":"route_bottom","climbing:bolts":"7","climbing:grade:uiaa":"6","climbing:length":"15.0","climbing:sport":"yes","name":"Flammenwerfer","sport":"climbing"}},"8677557218":{"lat":46.2855044,"lon":-73.7825428,"ts":"2021-04-28T20:30:59Z","tz":-5,"tags":{"climbing":"crag","climbing:grade:uiaa:max":"8-","climbing:grade:uiaa:min":"7+","climbing:length:max":"20","climbing:length:min":"20","climbing:routes":"5","climbing:sport":"yes","climbing:trad":"yes","name":"Bowie Wall","sport":"climbing"}},"8677557317":{"lat":46.285459,"lon":-73.7833,"ts":"2021-04-28T20:51:45Z","tz":-5,"tags":{"climbing":"route_bottom","climbing:bolts":"7","climbing:grade:uiaa":"9-","climbing:length":"12.0","climbing:trad":"yes","name":"Face sud","sport":"climbing"}},"8677557318":{"lat":46.2853291,"lon":-73.7837021,"ts":"2021-04-28T20:30:59Z","tz":-5,"tags":{"climbing":"route_bottom","climbing:bolts":"3","climbing:grade:uiaa":"5-","climbing:length":"5.0","climbing:sport":"yes","name":"Jeu d'enfant","sport":"climbing"}},"8677557319":{"lat":46.285534,"lon":-73.782619,"ts":"2021-04-28T20:51:42Z","tz":-5,"tags":{"climbing":"route_bottom","climbing:bolts":"8","climbing:grade:uiaa":"6-","climbing:length":"20.0","climbing:sport":"yes","name":"Weeping Wall","sport":"climbing"}},"8677557320":{"lat":46.2853924,"lon":-73.7834897,"ts":"2021-04-28T20:30:59Z","tz":-5,"tags":{"climbing":"route_bottom","climbing:bolts":"1","climbing:grade:uiaa":"7","climbing:length":"18.0","climbing:trad":"yes","name":"Hotter with Your Pants On","sport":"climbing"}},"8677557321":{"lat":46.285555,"lon":-73.782594,"ts":"2021-04-28T20:51:41Z","tz":-5,"tags":{"climbing":"route_bottom","climbing:bolts":"2","climbing:grade:uiaa":"6-","climbing:length":"20.0","climbing:trad":"yes","name":"Future Legends","sport":"climbing"}},"8677557322":{"lat":46.285424,"lon":-73.783381,"ts":"2021-04-28T20:51:46Z","tz":-5,"tags":{"climbing":"route_bottom","climbing:bolts":"8","climbing:grade:uiaa":"9-","climbing:length":"18.0","climbing:sport":"yes","name":"Under Pressure","sport":"climbing"}},"8677557323":{"lat":46.285346,"lon":-73.783621,"ts":"2021-04-28T20:51:49Z","tz":-5,"tags":{"climbing":"route_bottom","climbing:bolts":"1","climbing:grade:uiaa":"7+","climbing:length":"18.0","climbing:sport":"yes","climbing:trad":"yes","name":"Arsenal","sport":"climbing"}},"8677557325":{"lat":46.285237,"lon":-73.7840767,"ts":"2021-04-28T20:30:59Z","tz":-5,"tags":{"climbing":"route_bottom","climbing:bolts":"8","climbing:grade:uiaa":"8","climbing:length":"20.0","name":"Scellement seulement","sport":"climbing"}},"8677557326":{"lat":46.285265,"lon":-73.783956,"ts":"2021-04-28T20:51:53Z","tz":-5,"tags":{"climbing":"route_bottom","climbing:grade:uiaa":"10-","climbing:sport":"yes","name":"Corroboration Fautive","sport":"climbing"}},"8677557327":{"lat":46.285282,"lon":-73.783874,"ts":"2021-04-28T20:51:52Z","tz":-5,"tags":{"climbing":"route_bottom","climbing:bolts":"1","climbing:grade:uiaa":"6","climbing:length":"25.0","climbing:trad":"yes","name":"Temple of Doom","sport":"climbing"}},"8677557328":{"lat":46.285306,"lon":-73.783801,"ts":"2021-04-28T20:51:51Z","tz":-5,"tags":{"climbing":"route_bottom","climbing:bolts":"9","climbing:grade:uiaa":"6","climbing:length":"20.0","climbing:sport":"yes","name":"Snowbirds","sport":"climbing"}},"8677557329":{"lat":46.2853191,"lon":-73.7837422,"ts":"2021-04-28T20:30:59Z","tz":-5,"tags":{"climbing":"route_bottom","climbing:bolts":"9","climbing:grade:uiaa":"7-","climbing:length":"20.0","climbing:sport":"yes","name":"Indiana Jones","sport":"climbing"}},"8677557417":{"lat":46.285377,"lon":-73.783528,"ts":"2021-04-28T20:51:48Z","tz":-5,"tags":{"climbing":"route_bottom","climbing:bolts":"7","climbing:grade:uiaa":"8-","climbing:length":"18.0","climbing:sport":"yes","name":"The Mole","sport":"climbing"}},"8677557418":{"lat":46.2854852,"lon":-73.7832172,"ts":"2021-04-28T20:30:59Z","tz":-5,"tags":{"climbing":"route_bottom","climbing:bolts":"9","climbing:grade:uiaa":"5+","climbing:length":"15.0","climbing:sport":"yes","name":"Trampled Under Foot","sport":"climbing"}},"8677557419":{"lat":46.285404,"lon":-73.783453,"ts":"2021-04-28T20:51:47Z","tz":-5,"tags":{"climbing":"route_bottom","climbing:bolts":"2","climbing:grade:uiaa":"6-","climbing:length":"18.0","climbing:trad":"yes","name":"Un cadeau du Grec","sport":"climbing"}},"8677557420":{"lat":46.285415,"lon":-73.783409,"ts":"2021-04-28T20:51:47Z","tz":-5,"tags":{"climbing":"route_bottom","climbing:bolts":"2","climbing:grade:uiaa":"6-","climbing:length":"5.0","climbing:sport":"yes","name":"Voies d'accès","sport":"climbing"}},"8677557422":{"lat":46.2852506,"lon":-73.7840367,"ts":"2021-04-28T20:30:59Z","tz":-5,"tags":{"climbing":"route_bottom","climbing:bolts":"2","climbing:grade:uiaa":"7-","climbing:length":"20.0","climbing:trad":"yes","name":"Le Birdie","sport":"climbing"}},"8677557423":{"lat":46.285293,"lon":-73.783841,"ts":"2021-04-28T20:51:51Z","tz":-5,"tags":{"climbing":"route_bottom","climbing:bolts":"10","climbing:grade:uiaa":"7+","climbing:length":"20.0","climbing:sport":"yes","name":"Faute de procédure","sport":"climbing"}},"8677557424":{"lat":46.2852875,"lon":-73.7835444,"ts":"2021-04-28T20:30:59Z","tz":-5,"tags":{"climbing":"crag","climbing:grade:uiaa:max":"8","climbing:grade:uiaa:min":"7-","climbing:length:max":"25","climbing:length:min":"20","climbing:routes":"9","climbing:sport":"yes","climbing:trad":"yes","name":"Centre-gauche","sport":"climbing"}},"8677557517":{"lat":46.28553,"lon":-73.782477,"ts":"2021-04-28T20:51:42Z","tz":-5,"tags":{"climbing":"route_bottom","climbing:bolts":"7","climbing:grade:uiaa":"8-","climbing:length":"20.0","climbing:sport":"yes","name":"The China Girl Curse","sport":"climbing"}},"8677557518":{"lat":46.2853595,"lon":-73.7835722,"ts":"2021-04-28T20:30:59Z","tz":-5,"tags":{"climbing":"route_bottom","climbing:length":"18.0","climbing:sport":"yes","name":"Colonel Why Not","sport":"climbing"}},"8677557519":{"lat":46.285442,"lon":-73.783349,"ts":"2021-04-28T20:51:45Z","tz":-5,"tags":{"climbing":"route_bottom","climbing:grade:uiaa":"7","climbing:length":"20.0","climbing:sport":"yes","name":"Nom inconnu","sport":"climbing"}},"8677557617":{"lat":46.285256,"lon":-73.783994,"ts":"2021-04-28T20:51:54Z","tz":-5,"tags":{"climbing":"route_bottom","climbing:bolts":"8","climbing:grade:uiaa":"9","climbing:length":"20.0","climbing:sport":"yes","name":"Beau Cadeau","sport":"climbing"}},"8677557717":{"lat":46.285274,"lon":-73.783912,"ts":"2021-04-28T20:51:52Z","tz":-5,"tags":{"climbing":"route_bottom","climbing:bolts":"11","climbing:grade:uiaa":"8-","climbing:length":"25.0","climbing:sport":"yes","name":"Inspiration","sport":"climbing"}},"8677588803":{"lat":46.285472,"lon":-73.783263,"ts":"2021-04-28T20:51:44Z","tz":-5,"tags":{"climbing":"route_bottom","climbing:bolts":"8","climbing:grade:uiaa":"7","climbing:length":"12.0","climbing:sport":"yes","name":"Snig Attack","sport":"climbing"}},"8677663217":{"lat":46.285317,"lon":-73.783769,"ts":"2021-04-28T20:51:50Z","tz":-5,"tags":{"climbing":"route_bottom","climbing:bolts":"2","climbing:grade:uiaa":"6-","climbing:trad":"yes","ele":"6.0","name":"Cadence","sport":"climbing"}},"9955136102":{"lat":46.2264318,"lon":-73.7385925,"ts":"2022-08-24T00:15:29Z","tz":-5,"tags":{"climbing":"route_bottom","climbing:grade:uiaa":"4+","climbing:trad":"yes","name":"Pushing Left","sport":"climbing"}},"9955136103":{"lat":46.2264577,"lon":-73.7385326,"ts":"2022-08-15T16:02:38Z","tz":-5,"tags":{"climbing":"route_bottom","climbing:grade:uiaa":"5","climbing:trad":"yes","name":"Camaraderie","sport":"climbing"}},"9955136104":{"lat":46.2264884,"lon":-73.7384646,"ts":"2022-08-15T16:02:38Z","tz":-5,"tags":{"climbing":"route_bottom","climbing:grade:uiaa":"5-","climbing:trad":"yes","name":"Mycologie Grecque","sport":"climbing"}},"9955136105":{"lat":46.2265073,"lon":-73.7384272,"ts":"2022-08-15T16:02:38Z","tz":-5,"tags":{"climbing":"route_bottom","climbing:grade:uiaa":"5-","climbing:trad":"yes","name":"Hestia (tu d'la bière icitte)","sport":"climbing"}},"9955136106":{"lat":46.2265149,"lon":-73.7384054,"ts":"2022-08-15T16:02:38Z","tz":-5,"tags":{"climbing":"route_bottom","climbing:grade:uiaa":"5-","climbing:trad":"yes","name":"Brosse-à-foin","sport":"climbing"}},"9955136107":{"lat":46.226535,"lon":-73.7383582,"ts":"2022-08-24T11:47:46Z","tz":-5,"tags":{"climbing":"route_bottom","climbing:bolts":"5","climbing:grade:uiaa":"5","climbing:trad":"yes","name":"Mondiale","sport":"climbing"}},"9955136108":{"lat":46.2265756,"lon":-73.7382624,"ts":"2022-08-15T16:02:38Z","tz":-5,"tags":{"climbing":"route_bottom","climbing:bolts":"8","climbing:grade:uiaa":"5-","climbing:sport":"yes","name":"Roger à l'école","sport":"climbing"}},"9955136109":{"lat":46.2265949,"lon":-73.7382202,"ts":"2022-08-15T16:02:38Z","tz":-5,"tags":{"climbing":"route_bottom","climbing:grade:uiaa":"4+","climbing:trad":"yes","name":"Travail à la chaîne","sport":"climbing"}},"9955519176":{"lat":46.226607,"lon":-73.7381913,"ts":"2022-08-15T19:05:37Z","tz":-5,"tags":{"climbing":"route_bottom","climbing:grade:uiaa":"5","climbing:trad":"yes","name":"La crapaudière","sport":"climbing"}},"9955519177":{"lat":46.2266218,"lon":-73.7381608,"ts":"2022-08-24T11:47:46Z","tz":-5,"tags":{"climbing":"route_bottom","climbing:bolts":"5","climbing:grade:uiaa":"5","climbing:trad":"yes","name":"La Marcelline","sport":"climbing"}},"9955519178":{"lat":46.2266323,"lon":-73.7381354,"ts":"2022-08-15T19:05:37Z","tz":-5,"tags":{"climbing":"route_bottom","climbing:grade:uiaa":"5","climbing:trad":"yes","name":"Lévy-tation","sport":"climbing"}},"9955519179":{"lat":46.2266407,"lon":-73.7381184,"ts":"2022-08-15T19:05:37Z","tz":-5,"tags":{"climbing":"route_bottom","climbing:grade:uiaa":"5","climbing:trad":"yes","name":"Pomos","sport":"climbing"}},"9955519180":{"lat":46.2266536,"lon":-73.7380887,"ts":"2022-08-15T19:05:37Z","tz":-5,"tags":{"climbing":"route_bottom","climbing:grade:uiaa":"5-","climbing:trad":"yes","name":"Chrysops","sport":"climbing"}},"9955519181":{"lat":46.2266678,"lon":-73.7380553,"ts":"2022-08-15T19:05:37Z","tz":-5,"tags":{"climbing":"route_bottom","climbing:grade:uiaa":"5-","climbing:trad":"yes","name":"Lasso of Hestia","sport":"climbing"}},"9955519182":{"lat":46.2266755,"lon":-73.7380386,"ts":"2022-08-15T19:05:37Z","tz":-5,"tags":{"climbing":"route_bottom","climbing:grade:uiaa":"5","climbing:trad":"yes","name":"Les Pierres Roulantes","sport":"climbing"}},"9955519183":{"lat":46.2266825,"lon":-73.7380226,"ts":"2022-08-15T19:05:37Z","tz":-5,"tags":{"climbing":"route_bottom","climbing:grade:uiaa":"4+","climbing:trad":"yes","name":"Reash Test Dummy","sport":"climbing"}},"9955519184":{"lat":46.2266893,"lon":-73.7380072,"ts":"2022-08-15T19:05:37Z","tz":-5,"tags":{"climbing":"route_bottom","climbing:grade:uiaa":"4+","climbing:trad":"yes","name":"Nom Inconnu","sport":"climbing"}},"9955519185":{"lat":46.226699,"lon":-73.7379827,"ts":"2022-08-24T11:47:46Z","tz":-5,"tags":{"climbing":"route_bottom","climbing:bolts":"4","climbing:grade:uiaa":"4+","climbing:trad":"yes","name":"Pathos aux toasts","sport":"climbing"}},"9973598399":{"lat":46.2259106,"lon":-73.7396564,"ts":"2022-09-06T13:28:45Z","tz":-5,"tags":{"climbing":"route_bottom","climbing:grade:uiaa":"9","climbing:trad":"yes","name":"Chainsaw","sport":"climbing"}},"9973598400":{"lat":46.2258947,"lon":-73.7396294,"ts":"2022-09-06T13:28:45Z","tz":-5,"tags":{"climbing":"route_bottom","climbing:bolts":"13","climbing:grade:uiaa":"9-","climbing:sport":"yes","name":"Réaction en chaîne","sport":"climbing"}},"9973598401":{"lat":46.2259136,"lon":-73.7395932,"ts":"2022-09-06T13:28:45Z","tz":-5,"tags":{"climbing":"route_bottom","climbing:bolts":"3","climbing:grade:uiaa":"7","climbing:trad":"yes","name":"Papie's Corner","sport":"climbing"}},"9973598402":{"lat":46.2258957,"lon":-73.7395412,"ts":"2022-09-06T13:28:45Z","tz":-5,"tags":{"climbing":"route_bottom","climbing:bolts":"9","climbing:grade:uiaa":"7-","climbing:sport":"yes","name":"Flies Never Die","sport":"climbing"}},"9973598403":{"lat":46.2259165,"lon":-73.7394933,"ts":"2022-09-06T13:28:45Z","tz":-5,"tags":{"climbing":"route_bottom","climbing:grade:uiaa":"5","climbing:trad":"yes","name":"Brûlots festifs","sport":"climbing"}},"9973598404":{"lat":46.2259209,"lon":-73.7394806,"ts":"2022-09-06T13:28:45Z","tz":-5,"tags":{"climbing":"route_bottom","climbing:grade:uiaa":"5-","climbing:trad":"yes","name":"La Chouette d'Athènes","sport":"climbing"}},"9973611655":{"lat":46.2258224,"lon":-73.7399258,"ts":"2022-09-06T13:28:45Z","tz":-5,"tags":{"climbing":"route_bottom","climbing:grade:uiaa":"6","climbing:trad":"yes","name":"Le spectre du passé","sport":"climbing"}},"9973611656":{"lat":46.2258337,"lon":-73.7399106,"ts":"2022-09-06T13:28:45Z","tz":-5,"tags":{"climbing":"route_bottom","climbing:grade:uiaa":"5","climbing:trad":"yes","name":"Revenant","sport":"climbing"}},"9973611657":{"lat":46.2258369,"lon":-73.7398839,"ts":"2022-09-06T13:28:45Z","tz":-5,"tags":{"climbing":"route_bottom","climbing:bolts":"8","climbing:grade:uiaa":"6","climbing:trad":"yes","name":"Déesse de la lune","sport":"climbing"}},"9973611658":{"lat":46.2258509,"lon":-73.7398663,"ts":"2022-09-06T13:28:45Z","tz":-5,"tags":{"climbing":"route_bottom","climbing:grade:uiaa":"5-","climbing:trad":"yes","name":"Matain sauvage","sport":"climbing"}},"9973611659":{"lat":46.2258682,"lon":-73.7398457,"ts":"2022-09-06T13:28:45Z","tz":-5,"tags":{"climbing":"route_bottom","climbing:bolts":"7","climbing:grade:uiaa":"6-","climbing:trad":"yes","name":"Paraskevi Dekatreis","sport":"climbing"}},"9973611660":{"lat":46.2258989,"lon":-73.739831,"ts":"2022-09-06T13:28:45Z","tz":-5,"tags":{"climbing":"route_bottom","climbing:grade:uiaa":"5","climbing:trad":"yes","name":"Le dièdre du fantôme","sport":"climbing"}},"9973611661":{"lat":46.2258908,"lon":-73.7398123,"ts":"2022-09-06T13:28:45Z","tz":-5,"tags":{"climbing":"route_bottom","climbing:grade:uiaa":"8","climbing:trad":"yes","name":"New Beginnings","sport":"climbing"}},"9973611662":{"lat":46.2258846,"lon":-73.7397977,"ts":"2022-09-06T13:28:45Z","tz":-5,"tags":{"climbing":"route_bottom","climbing:bolts":"7","climbing:grade:uiaa":"10","climbing:sport":"yes","name":"Troie","sport":"climbing"}},"9973611663":{"lat":46.2258662,"lon":-73.7397589,"ts":"2022-09-06T13:28:45Z","tz":-5,"tags":{"climbing":"route_bottom","climbing:bolts":"7","climbing:grade:uiaa":"8","climbing:sport":"yes","name":"Le pilier du temps","sport":"climbing"}},"9973611664":{"lat":46.2258751,"lon":-73.7397383,"ts":"2022-09-06T13:28:45Z","tz":-5,"tags":{"climbing":"route_bottom","climbing:bolts":"5","climbing:grade:uiaa":"6+","climbing:sport":"yes","name":"Moderation","sport":"climbing"}},"9974699415":{"lat":46.2259248,"lon":-73.7402987,"ts":"2022-09-07T13:13:27Z","tz":-5,"tags":{"climbing":"route_bottom","climbing:bolts":"8","climbing:grade:uiaa":"5-","climbing:sport":"yes","name":"Granny Z","sport":"climbing"}},"9974699416":{"lat":46.22599,"lon":-73.7402338,"ts":"2022-09-07T13:13:27Z","tz":-5,"tags":{"climbing":"route_top","climbing:bolts":"8","climbing:grade:uiaa":"5-","climbing:sport":"yes","name":"Granny Z","sport":"climbing"}},"9974777738":{"lat":46.2260309,"lon":-73.7403108,"ts":"2022-09-06T13:28:45Z","tz":-5,"tags":{"climbing":"route_bottom","climbing:bolts":"2","climbing:grade:uiaa":"6","climbing:trad":"yes","name":"Poussière d'étoiles","sport":"climbing"}},"9974777739":{"lat":46.2260393,"lon":-73.7402846,"ts":"2022-09-06T13:28:45Z","tz":-5,"tags":{"climbing":"route_bottom","climbing:bolts":"11","climbing:grade:uiaa":"7-","climbing:sport":"yes","name":"Étoile noir","sport":"climbing"}},"9974777740":{"lat":46.2260529,"lon":-73.740248,"ts":"2022-09-06T13:28:45Z","tz":-5,"tags":{"climbing":"route_bottom","climbing:bolts":"1","climbing:grade:uiaa":"5+","climbing:trad":"yes","name":"La guerre des étoiles","sport":"climbing"}},"9974777741":{"lat":46.2260429,"lon":-73.7402336,"ts":"2022-09-06T13:28:45Z","tz":-5,"tags":{"climbing":"route_bottom","climbing:bolts":"8","climbing:sport":"yes","name":"Medusa","sport":"climbing"}},"9974777742":{"lat":46.2260336,"lon":-73.7402202,"ts":"2022-09-06T13:28:45Z","tz":-5,"tags":{"climbing":"route_bottom","climbing:bolts":"11","climbing:grade:uiaa":"7-","climbing:sport":"yes","name":"Étoile noir","sport":"climbing"}},"9974777743":{"lat":46.2260247,"lon":-73.7402078,"ts":"2022-09-06T13:28:45Z","tz":-5,"tags":{"climbing":"route_bottom","climbing:bolts":"9","climbing:grade:uiaa":"10+","climbing:sport":"yes","name":"Héraclès","sport":"climbing"}},"9974777744":{"lat":46.2260152,"lon":-73.7401948,"ts":"2022-09-06T13:28:45Z","tz":-5,"tags":{"climbing":"route_bottom","climbing:bolts":"11","climbing:grade:uiaa":"9","climbing:sport":"yes","name":"Grooveopolis","sport":"climbing"}},"9974777747":{"lat":46.2260052,"lon":-73.7401811,"ts":"2022-09-06T13:28:45Z","tz":-5,"tags":{"climbing":"route_bottom","climbing:bolts":"8","climbing:grade:uiaa":"10-","climbing:sport":"yes","name":"Le labyrinthe du roi Minos","sport":"climbing"}},"9974777748":{"lat":46.2259922,"lon":-73.7401591,"ts":"2022-09-06T13:28:45Z","tz":-5,"tags":{"climbing":"route_bottom","climbing:bolts":"14","climbing:grade:uiaa":"7","climbing:sport":"yes","name":"Dualité","sport":"climbing"}},"9974777749":{"lat":46.2259924,"lon":-73.7401472,"ts":"2022-09-06T13:28:45Z","tz":-5,"tags":{"climbing":"route_bottom","climbing:bolts":"2","climbing:grade:uiaa":"6-","climbing:length":"32","climbing:trad":"yes","name":"Rogervirus","sport":"climbing"}},"9974777750":{"lat":46.2259878,"lon":-73.7401412,"ts":"2022-09-06T13:28:45Z","tz":-5,"tags":{"climbing":"route_bottom","climbing:bolts":"13","climbing:grade:uiaa":"9","climbing:trad":"yes","name":"L'odyssée","sport":"climbing"}},"9974777751":{"lat":46.2259815,"lon":-73.7401342,"ts":"2022-09-06T13:28:45Z","tz":-5,"tags":{"climbing":"route_bottom","climbing:bolts":"14","climbing:grade:uiaa":"10","climbing:sport":"yes","name":"La ballade de Joe Hun","sport":"climbing"}},"9974880007":{"lat":46.2259621,"lon":-73.7401137,"ts":"2022-09-06T13:28:45Z","tz":-5,"tags":{"climbing":"route_bottom","climbing:grade:uiaa":"9","climbing:trad":"yes","name":"La grande traversé","sport":"climbing"}},"9974880008":{"lat":46.2259704,"lon":-73.7400989,"ts":"2022-09-06T13:28:45Z","tz":-5,"tags":{"climbing":"route_bottom","climbing:bolts":"7","climbing:grade:uiaa":"8","climbing:trad":"yes","name":"Sun Snake","sport":"climbing"}},"9974880009":{"lat":46.2259548,"lon":-73.7401039,"ts":"2022-09-06T13:28:45Z","tz":-5,"tags":{"climbing":"route_bottom","climbing:bolts":"2","climbing:grade:uiaa":"6-","climbing:trad":"yes","name":"Gravelle Ludique","sport":"climbing"}},"9974880010":{"lat":46.225938,"lon":-73.7400867,"ts":"2022-09-06T13:28:45Z","tz":-5,"tags":{"climbing":"route_bottom","climbing:bolts":"6","climbing:grade:uiaa":"8+","climbing:sport":"yes","name":"Trad Police","sport":"climbing"}},"9974880011":{"lat":46.2259443,"lon":-73.7400747,"ts":"2022-09-06T13:28:45Z","tz":-5,"tags":{"climbing":"route_bottom","climbing:bolts":"13","climbing:grade:uiaa":"9-","climbing:sport":"yes","name":"Rain Gods","sport":"climbing"}},"9974880012":{"lat":46.2259325,"lon":-73.7400779,"ts":"2022-09-06T13:28:45Z","tz":-5,"tags":{"climbing":"route_bottom","climbing:grade:uiaa":"7","climbing:trad":"yes","name":"Passage Hazardous","sport":"climbing"}},"9974880013":{"lat":46.2259122,"lon":-73.7400525,"ts":"2022-09-06T13:28:45Z","tz":-5,"tags":{"climbing":"route_bottom","climbing:bolts":"6","climbing:grade:uiaa":"8+","climbing:trad":"yes","name":"Outbreak","sport":"climbing"}},"9974880014":{"lat":46.2258925,"lon":-73.7400293,"ts":"2022-09-06T13:28:45Z","tz":-5,"tags":{"climbing":"route_bottom","climbing:grade:uiaa":"7","climbing:trad":"yes","name":"Distanciation","sport":"climbing"}},"9974880015":{"lat":46.2258711,"lon":-73.7400043,"ts":"2022-09-06T13:28:45Z","tz":-5,"tags":{"climbing":"route_bottom","climbing:bolts":"14","climbing:grade:uiaa":"10-","climbing:sport":"yes","name":"Vol de mort","sport":"climbing"}},"9974880016":{"lat":46.2258465,"lon":-73.7399705,"ts":"2022-09-06T13:28:45Z","tz":-5,"tags":{"climbing":"route_bottom","climbing:grade:uiaa":"8-","climbing:trad":"yes","name":"Sacrifice saignant","sport":"climbing"}},"9974909117":{"lat":46.2258256,"lon":-73.7399382,"ts":"2022-09-06T13:28:45Z","tz":-5,"tags":{"climbing":"route_bottom","climbing:bolts":"8","climbing:grade:uiaa":"8","climbing:trad":"yes","name":"Flaming Chariot","sport":"climbing"}},"9974981744":{"lat":46.22602,"lon":-73.7410422,"ts":"2022-09-06T13:28:45Z","tz":-5,"tags":{"climbing":"route_bottom","climbing:bolts":"15","climbing:grade:uiaa":"8-","climbing:sport":"yes","name":"The Business","sport":"climbing"}},"9974981745":{"lat":46.2260233,"lon":-73.7410322,"ts":"2022-09-06T13:28:45Z","tz":-5,"tags":{"climbing":"route_bottom","climbing:bolts":"15","climbing:grade:uiaa":"6+","climbing:sport":"yes","name":"Safety Dance","sport":"climbing"}},"9975168325":{"lat":46.2260309,"lon":-73.7410154,"ts":"2022-09-06T13:28:45Z","tz":-5,"tags":{"climbing":"route_bottom","climbing:grade:uiaa":"5+","climbing:trad":"yes","name":"Reine des Phéaciens","sport":"climbing"}},"9975168326":{"lat":46.2260229,"lon":-73.7410068,"ts":"2022-09-06T13:28:45Z","tz":-5,"tags":{"climbing":"route_bottom","climbing:grade:uiaa":"6-","climbing:trad":"yes","name":"Croc Challenge","sport":"climbing"}},"9975168327":{"lat":46.2260186,"lon":-73.7410032,"ts":"2022-09-06T13:28:45Z","tz":-5,"tags":{"climbing":"route_bottom","climbing:bolts":"6","climbing:grade:uiaa":"6","climbing:trad":"yes","name":"L'indécision","sport":"climbing"}},"9975168328":{"lat":46.2260162,"lon":-73.7409997,"ts":"2022-09-06T13:28:45Z","tz":-5,"tags":{"climbing":"route_bottom","climbing:grade:uiaa":"5","climbing:trad":"yes","name":"Birthday Boy","sport":"climbing"}},"9975168332":{"lat":46.225996,"lon":-73.740977,"ts":"2022-09-06T13:28:45Z","tz":-5,"tags":{"climbing":"route_bottom","climbing:bolts":"6","climbing:grade:uiaa":"7+","climbing:trad":"yes","name":"Tites népaules","sport":"climbing"}},"9975168333":{"lat":46.2259841,"lon":-73.740959,"ts":"2022-09-06T13:28:45Z","tz":-5,"tags":{"climbing":"route_bottom","climbing:bolts":"8","climbing:grade:uiaa":"7+","climbing:sport":"yes","name":"Gravité Lunaire","sport":"climbing"}},"9975168336":{"lat":46.225972,"lon":-73.7409448,"ts":"2022-09-06T13:28:45Z","tz":-5,"tags":{"climbing":"route_bottom","climbing:bolts":"7","climbing:grade:uiaa":"9+","climbing:sport":"yes","name":"Le poids du monde","sport":"climbing"}},"9975168337":{"lat":46.2259645,"lon":-73.740924,"ts":"2022-09-06T13:28:45Z","tz":-5,"tags":{"climbing":"route_bottom","climbing:bolts":"8","climbing:grade:uiaa":"8+","climbing:sport":"yes","name":"Apesanteur","sport":"climbing"}},"9975168338":{"lat":46.2259683,"lon":-73.7409031,"ts":"2022-09-06T13:28:45Z","tz":-5,"tags":{"climbing":"route_bottom","climbing:bolts":"8","climbing:grade:uiaa":"7","climbing:sport":"yes","name":"Promenade dans l'espace","sport":"climbing"}},"9975168339":{"lat":46.2259728,"lon":-73.7408897,"ts":"2022-09-06T13:28:45Z","tz":-5,"tags":{"climbing":"route_bottom","climbing:bolts":"8","climbing:grade:uiaa":"7-","climbing:sport":"yes","name":"Montagne russe binaire","sport":"climbing"}},"9975168340":{"lat":46.2259804,"lon":-73.7408736,"ts":"2022-09-06T13:28:45Z","tz":-5,"tags":{"climbing":"route_bottom","climbing:grade:uiaa":"5+","climbing:trad":"yes","name":"Attaque en règle","sport":"climbing"}},"9975168341":{"lat":46.2259874,"lon":-73.7408597,"ts":"2022-09-06T13:28:45Z","tz":-5,"tags":{"climbing":"route_bottom","climbing:bolts":"2","climbing:grade:uiaa":"6-","climbing:trad":"yes","name":"La revanche des vauriens","sport":"climbing"}},"9975168342":{"lat":46.2259963,"lon":-73.7408506,"ts":"2022-09-06T13:28:45Z","tz":-5,"tags":{"climbing":"route_bottom","climbing:grade:uiaa":"5-","climbing:trad":"yes","name":"Winter Way","sport":"climbing"}},"9975168343":{"lat":46.2259955,"lon":-73.7408396,"ts":"2022-09-06T13:28:45Z","tz":-5,"tags":{"climbing":"route_bottom","climbing:bolts":"4","climbing:grade:uiaa":"6-","climbing:trad":"yes","name":"La rousse est douce","sport":"climbing"}},"9975168344":{"lat":46.2260001,"lon":-73.7408256,"ts":"2022-09-06T13:28:45Z","tz":-5,"tags":{"climbing":"route_bottom","climbing:bolts":"5","climbing:grade:uiaa":"6+","climbing:trad":"yes","name":"La poune","sport":"climbing"}},"9975168345":{"lat":46.226004,"lon":-73.7408123,"ts":"2022-09-06T13:28:45Z","tz":-5,"tags":{"climbing":"route_bottom","climbing:grade:uiaa":"6-","climbing:trad":"yes","name":"La ptit traverse","sport":"climbing"}},"9975168346":{"lat":46.2260074,"lon":-73.7407992,"ts":"2022-09-06T13:28:45Z","tz":-5,"tags":{"climbing":"route_bottom","climbing:bolts":"10","climbing:grade:uiaa":"6","climbing:sport":"yes","name":"Les pierres d'Atlas","sport":"climbing"}},"9975168350":{"lat":46.2260228,"lon":-73.7407461,"ts":"2022-09-06T13:28:45Z","tz":-5,"tags":{"climbing":"route_bottom","climbing:bolts":"0","climbing:grade:uiaa":"7-","climbing:trad":"yes","name":"Scylla","sport":"climbing"}},"9975168351":{"lat":46.2260186,"lon":-73.74076,"ts":"2022-09-06T13:28:45Z","tz":-5,"tags":{"climbing":"route_bottom","climbing:bolts":"6","climbing:grade:uiaa":"7","climbing:sport":"yes","name":"Charybde","sport":"climbing"}},"9975168352":{"lat":46.2260255,"lon":-73.7407342,"ts":"2022-09-06T13:28:45Z","tz":-5,"tags":{"climbing":"route_bottom","climbing:bolts":"4","climbing:grade:uiaa":"6","climbing:sport":"yes","name":"Know your Eneny","sport":"climbing"}},"9977461020":{"lat":46.2259127,"lon":-73.7412967,"ts":"2022-09-06T13:28:45Z","tz":-5,"tags":{"climbing":"route_bottom","climbing:bolts":"11","climbing:grade:uiaa":"7+","climbing:sport":"yes","name":"Lanaubière","sport":"climbing"}},"9977461021":{"lat":46.2259203,"lon":-73.7412819,"ts":"2022-09-06T13:28:45Z","tz":-5,"tags":{"climbing":"route_bottom","climbing:grade:uiaa":"5","climbing:trad":"yes","name":"Buffet Humain","sport":"climbing"}},"9977461022":{"lat":46.2259258,"lon":-73.7412577,"ts":"2022-09-06T13:28:45Z","tz":-5,"tags":{"climbing":"route_bottom","climbing:bolts":"3","climbing:grade:uiaa":"6+","climbing:trad":"yes","name":"Prince des ténèbres","sport":"climbing"}},"9977461023":{"lat":46.2259303,"lon":-73.7412475,"ts":"2022-09-06T13:28:45Z","tz":-5,"tags":{"climbing":"route_bottom","climbing:grade:uiaa":"6-","climbing:trad":"yes","name":"Slash the slash","sport":"climbing"}},"9977461024":{"lat":46.2259414,"lon":-73.7412518,"ts":"2022-09-06T13:28:45Z","tz":-5,"tags":{"climbing":"route_bottom","climbing:grade:uiaa":"5+","climbing:trad":"yes","name":"Mark's Running Shoes","sport":"climbing"}},"9977461025":{"lat":46.2259399,"lon":-73.7412312,"ts":"2022-09-06T13:28:45Z","tz":-5,"tags":{"climbing":"route_bottom","climbing:bolts":"10","climbing:grade:uiaa":"7+","climbing:sport":"yes","name":"Vol Local","sport":"climbing"}},"9977461026":{"lat":46.2259459,"lon":-73.7412171,"ts":"2022-09-06T13:28:45Z","tz":-5,"tags":{"climbing":"route_bottom","climbing:bolts":"7","climbing:grade:uiaa":"7","climbing:trad":"yes","name":"Country Club","sport":"climbing"}},"9977461027":{"lat":46.2259595,"lon":-73.7411911,"ts":"2022-09-06T13:28:45Z","tz":-5,"tags":{"climbing":"route_bottom","climbing:bolts":"6","climbing:grade:uiaa":"7","climbing:trad":"yes","name":"La mort d'Antaeus","sport":"climbing"}},"9977461028":{"lat":46.2259652,"lon":-73.7411788,"ts":"2022-09-06T13:28:45Z","tz":-5,"tags":{"climbing":"route_bottom","climbing:bolts":"12","climbing:grade:uiaa":"7+","climbing:sport":"yes","name":"Phénix","sport":"climbing"}},"9977461029":{"lat":46.2259707,"lon":-73.7411668,"ts":"2022-09-06T13:28:45Z","tz":-5,"tags":{"climbing":"route_bottom","climbing:bolts":"8","climbing:grade:uiaa":"7+","climbing:trad":"yes","name":"Red Velvet","sport":"climbing"}},"9977461030":{"lat":46.2259825,"lon":-73.7411241,"ts":"2022-09-06T13:28:45Z","tz":-5,"tags":{"climbing":"route_bottom","climbing:grade:uiaa":"6","climbing:trad":"yes","name":"l'indélogeable","sport":"climbing"}},"9977461031":{"lat":46.2259928,"lon":-73.7411054,"ts":"2022-09-06T13:28:45Z","tz":-5,"tags":{"climbing":"route_bottom","climbing:bolts":"13","climbing:grade:uiaa":"8-","climbing:sport":"yes","name":"White Walker","sport":"climbing"}},"9977461032":{"lat":46.2260061,"lon":-73.7410779,"ts":"2022-09-06T13:28:45Z","tz":-5,"tags":{"climbing":"route_bottom","climbing:grade:uiaa":"6","climbing:trad":"yes","name":"Milwaukee","sport":"climbing"}},"9977461033":{"lat":46.2260202,"lon":-73.7410756,"ts":"2022-09-06T13:44:48Z","tz":-5,"tags":{"climbing":"route_bottom","climbing:bolts":"3","climbing:grade:uiaa":"6+","climbing:trad":"yes","name":"Cybèle","sport":"climbing"}},"9977461034":{"lat":46.2260279,"lon":-73.7410642,"ts":"2022-09-06T17:33:33Z","tz":-5,"tags":{"climbing":"route_bottom","climbing:bolts":"16","climbing:grade:uiaa":"5+","climbing:length":"35","climbing:sport":"yes","name":"In 2 The Void","sport":"climbing"}},"10004311531":{"lat":46.2255669,"lon":-73.7426341,"ts":"2022-09-06T13:44:48Z","tz":-5,"tags":{"climbing":"route_bottom","climbing:bolts":"4","climbing:grade:uiaa":"6","climbing:trad":"yes","name":"Amazia","sport":"climbing"}},"10004311538":{"lat":46.2255541,"lon":-73.7425901,"ts":"2022-09-06T13:44:48Z","tz":-5,"tags":{"climbing":"route_bottom","climbing:bolts":"7","climbing:grade:uiaa":"6+","climbing:sport":"yes","name":"Maui","sport":"climbing"}},"10004311539":{"lat":46.2255566,"lon":-73.7425782,"ts":"2022-09-06T13:44:48Z","tz":-5,"tags":{"climbing":"route_bottom","climbing:bolts":"7","climbing:grade:uiaa":"7-","climbing:sport":"yes","name":"Te-Fiti","sport":"climbing"}},"10004311540":{"lat":46.2255617,"lon":-73.7425652,"ts":"2022-09-06T13:44:48Z","tz":-5,"tags":{"climbing":"route_bottom","climbing:bolts":"7","climbing:grade:uiaa":"6-","climbing:sport":"yes","name":"Selvatika","sport":"climbing"}},"10004311541":{"lat":46.2255695,"lon":-73.7425563,"ts":"2022-09-06T13:44:48Z","tz":-5,"tags":{"climbing":"route_bottom","climbing:bolts":"7","climbing:grade:uiaa":"5+","climbing:sport":"yes","name":"InnUUnni","sport":"climbing"}},"10004562691":{"lat":46.2256059,"lon":-73.7424677,"ts":"2022-09-06T15:55:55Z","tz":-5,"tags":{"climbing":"route_bottom","climbing:grade:uiaa":"5","climbing:length":"65","climbing:multipitch":"yes","climbing:pitches":"2","climbing:trad":"yes","name":"Sélène","sport":"climbing"}},"10004562692":{"lat":46.2256085,"lon":-73.7424477,"ts":"2022-09-06T15:55:55Z","tz":-5,"tags":{"climbing":"route_bottom","climbing:grade:uiaa":"5+","climbing:length":"50","climbing:multipitch":"yes","climbing:pitches":"2","climbing:trad":"yes","name":"Sorcellerie","sport":"climbing"}},"10004562693":{"lat":46.2256508,"lon":-73.7423778,"ts":"2022-09-06T15:55:55Z","tz":-5,"tags":{"climbing":"route_bottom","climbing:grade:uiaa":"5+","climbing:length":"70","climbing:multipitch":"yes","climbing:pitches":"2","climbing:trad":"yes","name":"Apollo","sport":"climbing"}},"10004562698":{"lat":46.2256771,"lon":-73.7423242,"ts":"2022-09-06T15:55:55Z","tz":-5,"tags":{"climbing":"route_bottom","climbing:grade:uiaa":"5","climbing:length":"70","climbing:multipitch":"yes","climbing:pitches":"2","climbing:trad":"yes","name":"Le rêve de Poséidon","sport":"climbing"}},"10004562699":{"lat":46.2257047,"lon":-73.7422718,"ts":"2022-09-06T15:55:55Z","tz":-5,"tags":{"climbing":"route_bottom","climbing:grade:uiaa":"6-","climbing:length":"60","climbing:multipitch":"yes","climbing:pitches":"2","climbing:trad":"yes","name":"Les anges gardienes","sport":"climbing"}},"10004562700":{"lat":46.2257103,"lon":-73.7421876,"ts":"2022-09-06T15:55:55Z","tz":-5,"tags":{"climbing":"route_bottom","climbing:bolts":"11","climbing:grade:uiaa":"8-","climbing:sport":"yes","name":"Hypérion","sport":"climbing"}},"10004562701":{"lat":46.2257237,"lon":-73.7423167,"ts":"2022-09-06T15:55:55Z","tz":-5,"tags":{"climbing":"route_bottom","climbing:bolts":"10","climbing:grade:uiaa":"7","climbing:sport":"yes","name":"Hypérion (pitch 2)","sport":"climbing"}},"10004562702":{"lat":46.2257306,"lon":-73.7422955,"ts":"2022-09-06T15:55:55Z","tz":-5,"tags":{"climbing":"route_bottom","climbing:bolts":"10","climbing:grade:uiaa":"7","climbing:sport":"yes","name":"Ouranos","sport":"climbing"}},"10004562703":{"lat":46.2257414,"lon":-73.742273,"ts":"2022-09-06T15:55:55Z","tz":-5,"tags":{"climbing":"route_bottom","climbing:bolts":"0","climbing:grade:uiaa":"7","climbing:sport":"yes","name":"Onze Onze","sport":"climbing"}},"10004640302":{"lat":46.2258349,"lon":-73.7419521,"ts":"2022-09-06T16:24:31Z","tz":-5,"tags":{"climbing":"route_bottom","climbing:bolts":"19","climbing:grade:uiaa":"6+","climbing:length":"35","climbing:sport":"yes","name":"Calypso","sport":"climbing"}},"10004640303":{"lat":46.2258285,"lon":-73.7419325,"ts":"2022-09-06T16:24:31Z","tz":-5,"tags":{"climbing":"route_bottom","climbing:bolts":"8","climbing:grade:uiaa":"7","climbing:length":"35","climbing:trad":"yes","name":"Pan-Z","sport":"climbing"}},"10004640304":{"lat":46.2258207,"lon":-73.7419119,"ts":"2022-09-06T16:24:31Z","tz":-5,"tags":{"climbing":"route_bottom","climbing:bolts":"11","climbing:grade:uiaa":"6","climbing:sport":"yes","name":"La branche d'Olivier","sport":"climbing"}},"10004640305":{"lat":46.2258153,"lon":-73.741887,"ts":"2022-09-06T16:24:31Z","tz":-5,"tags":{"climbing":"route_bottom","climbing:bolts":"10","climbing:grade:uiaa":"7+","climbing:sport":"yes","name":"Demon et Pithias","sport":"climbing"}},"10004640306":{"lat":46.2258328,"lon":-73.7418525,"ts":"2022-09-06T16:24:31Z","tz":-5,"tags":{"climbing":"route_bottom","climbing:grade:uiaa":"5+","climbing:trad":"yes","name":"Poing de départ","sport":"climbing"}},"10004640307":{"lat":46.2258378,"lon":-73.7418411,"ts":"2022-09-06T16:24:31Z","tz":-5,"tags":{"climbing":"route_bottom","climbing:grade:uiaa":"6-","climbing:trad":"yes","name":"Uzo","sport":"climbing"}},"10004640308":{"lat":46.2258449,"lon":-73.7418298,"ts":"2022-09-06T16:24:31Z","tz":-5,"tags":{"climbing":"route_bottom","name":"Unknown","sport":"climbing"}},"10004640309":{"lat":46.225851,"lon":-73.7418164,"ts":"2022-09-06T16:24:31Z","tz":-5,"tags":{"climbing":"route_bottom","climbing:bolts":"7","climbing:grade:uiaa":"7-","climbing:trad":"yes","name":"Le repaire des épeires","sport":"climbing"}},"10004640310":{"lat":46.2258581,"lon":-73.7418025,"ts":"2022-09-06T16:24:31Z","tz":-5,"tags":{"climbing":"route_bottom","climbing:bolts":"7","climbing:grade:uiaa":"6-","climbing:trad":"yes","name":"Pauvre toi, Sisyphe","sport":"climbing"}},"10004672688":{"lat":46.2259046,"lon":-73.7416829,"ts":"2022-09-06T17:05:50Z","tz":-5,"tags":{"climbing":"route_bottom","climbing:bolts":"10","climbing:grade:uiaa":"9","climbing:sport":"yes","name":"La marge","sport":"climbing"}},"10004672689":{"lat":46.2259,"lon":-73.7416737,"ts":"2022-09-06T17:05:50Z","tz":-5,"tags":{"climbing":"route_bottom","climbing:bolts":"10","climbing:grade:uiaa":"8+","climbing:sport":"yes","name":"Page blanche","sport":"climbing"}},"10004672690":{"lat":46.2258962,"lon":-73.741666,"ts":"2022-09-06T17:05:50Z","tz":-5,"tags":{"climbing":"route_bottom","climbing:bolts":"10","climbing:grade:uiaa":"8-","climbing:sport":"yes","name":"Flyer","sport":"climbing"}},"10004672691":{"lat":46.2258891,"lon":-73.7416526,"ts":"2022-09-06T17:05:50Z","tz":-5,"tags":{"climbing":"route_bottom","climbing:bolts":"12","climbing:grade:uiaa":"7+","climbing:sport":"yes","name":"Jhon Rambo","sport":"climbing"}},"10004672692":{"lat":46.225887,"lon":-73.7416387,"ts":"2022-09-06T17:05:50Z","tz":-5,"tags":{"climbing":"route_bottom","climbing:bolts":"15","climbing:grade:uiaa":"7-","climbing:sport":"yes","name":"Tomber sur Dédale","sport":"climbing"}},"10004672693":{"lat":46.2258995,"lon":-73.7415671,"ts":"2022-09-06T17:05:50Z","tz":-5,"tags":{"climbing":"route_bottom","climbing:bolts":"12","climbing:grade:uiaa":"6+","climbing:sport":"yes","name":"Sacrée Ariane","sport":"climbing"}},"10004672694":{"lat":46.2259012,"lon":-73.741555,"ts":"2022-09-06T17:05:50Z","tz":-5,"tags":{"climbing":"route_bottom","climbing:bolts":"10","climbing:grade:uiaa":"8-","climbing:sport":"yes","name":"Midi Icare","sport":"climbing"}},"10004672695":{"lat":46.2259038,"lon":-73.7415433,"ts":"2022-09-06T17:05:50Z","tz":-5,"tags":{"climbing":"route_bottom","climbing:bolts":"10","climbing:grade:uiaa":"9-","climbing:sport":"yes","name":"Icarquillé","sport":"climbing"}},"10004672696":{"lat":46.2259081,"lon":-73.7415178,"ts":"2022-09-06T17:05:50Z","tz":-5,"tags":{"climbing":"route_bottom","climbing:bolts":"8","climbing:grade:uiaa":"7-","climbing:trad":"yes","name":"Microclimat","sport":"climbing"}},"10004672697":{"lat":46.2259036,"lon":-73.7415087,"ts":"2022-09-06T17:05:50Z","tz":-5,"tags":{"climbing":"route_bottom","climbing:bolts":"11","climbing:grade:uiaa":"6+","climbing:sport":"yes","name":"E = mc2","sport":"climbing"}},"10004672698":{"lat":46.2258967,"lon":-73.7414996,"ts":"2022-09-06T17:05:50Z","tz":-5,"tags":{"climbing":"route_bottom","climbing:bolts":"10","climbing:grade:uiaa":"6-","climbing:sport":"yes","name":"Wallbreaker","sport":"climbing"}},"10004672702":{"lat":46.2258903,"lon":-73.7414901,"ts":"2022-09-06T17:05:50Z","tz":-5,"tags":{"climbing":"route_bottom","climbing:bolts":"11","climbing:grade:uiaa":"7","climbing:sport":"yes","name":"Deux novembre","sport":"climbing"}},"10004672703":{"lat":46.2258817,"lon":-73.7414673,"ts":"2022-09-06T17:05:50Z","tz":-5,"tags":{"climbing":"route_bottom","climbing:bolts":"3","climbing:grade:uiaa":"7+","climbing:length":"35","climbing:trad":"yes","name":"Far Side","sport":"climbing"}},"10004672704":{"lat":46.2258859,"lon":-73.7414816,"ts":"2022-09-06T17:05:50Z","tz":-5,"tags":{"climbing":"route_bottom","climbing:bolts":"11","climbing:grade:uiaa":"8-","climbing:sport":"yes","name":"Oscar","sport":"climbing"}},"10004672705":{"lat":46.2258829,"lon":-73.7414465,"ts":"2022-09-06T17:05:50Z","tz":-5,"tags":{"climbing":"route_bottom","climbing:bolts":"9","climbing:grade:uiaa":"10-","climbing:sport":"yes","name":"Brightside","sport":"climbing"}},"10004672706":{"lat":46.2258846,"lon":-73.7414304,"ts":"2022-09-06T17:05:50Z","tz":-5,"tags":{"climbing":"route_bottom","climbing:bolts":"8","climbing:grade:uiaa":"8+","climbing:sport":"yes","name":"Darkside","sport":"climbing"}},"10004672707":{"lat":46.2258998,"lon":-73.7413927,"ts":"2022-09-06T17:05:50Z","tz":-5,"tags":{"climbing":"route_bottom","climbing:bolts":"10","climbing:grade:uiaa":"6","climbing:sport":"yes","name":"Escargot","sport":"climbing"}},"10004672708":{"lat":46.2258951,"lon":-73.7413872,"ts":"2022-09-06T17:05:50Z","tz":-5,"tags":{"climbing":"route_bottom","climbing:bolts":"2","climbing:grade:uiaa":"7-","climbing:trad":"yes","name":"Deucalion","sport":"climbing"}},"10004672709":{"lat":46.2258898,"lon":-73.7413805,"ts":"2022-09-06T17:05:50Z","tz":-5,"tags":{"climbing":"route_bottom","climbing:bolts":"6","climbing:grade:uiaa":"8+","climbing:sport":"yes","name":"En feu","sport":"climbing"}},"10004672710":{"lat":46.2258842,"lon":-73.7413603,"ts":"2022-09-06T17:05:50Z","tz":-5,"tags":{"climbing":"route_bottom","climbing:bolts":"6","climbing:grade:uiaa":"8-","climbing:sport":"yes","name":"De-livre Prometheus","sport":"climbing"}},"10004672711":{"lat":46.225887,"lon":-73.7413476,"ts":"2022-09-06T17:05:50Z","tz":-5,"tags":{"climbing":"route_bottom","climbing:grade:uiaa":"8","climbing:trad":"yes","name":"La Piedra Sangrante","sport":"climbing"}},"10004732726":{"lat":46.2278336,"lon":-73.735828,"ts":"2022-09-06T17:11:33Z","tz":-5,"tags":{"climbing":"route_bottom","climbing:bolts":"4","climbing:grade:uiaa":"6","climbing:trad":"yes","name":"Margaret's Secret","sport":"climbing"}},"10004732727":{"lat":46.2278563,"lon":-73.7357759,"ts":"2022-09-06T17:11:33Z","tz":-5,"tags":{"climbing":"route_bottom","climbing:grade:uiaa":"5+","climbing:trad":"yes","name":"A Walk in the Woods","sport":"climbing"}},"10004732728":{"lat":46.2278829,"lon":-73.7357237,"ts":"2022-09-06T17:11:33Z","tz":-5,"tags":{"climbing":"route_bottom","climbing:bolts":"7","climbing:grade:uiaa":"9-","climbing:sport":"yes","name":"Mondiale","sport":"climbing"}}}