{"11175850875":{"lat":33.940965,"lon":109.1284289,"ts":"2023-09-08T04:09:46Z","tz":8,"tags":{"leisure":"sports_centre","name":"天水岩D区","sport":"climbing"}},"11175850876":{"lat":33.9396361,"lon":109.1260865,"ts":"2023-09-08T04:09:46Z","tz":8,"tags":{"leisure":"sports_centre","name":"天水岩C区","sport":"climbing"}},"11175850877":{"lat":33.9419098,"lon":109.1223377,"ts":"2023-09-08T04:09:46Z","tz":8,"tags":{"leisure":"sports_centre","name":"天水岩A区","sport":"climbing"}},"11175850878":{"lat":33.9380751,"lon":109.1259533,"ts":"2023-09-08T04:09:46Z","tz":8,"tags":{"leisure":"sports_centre","name":"天水岩E区","sport":"climbing"}},"11175877738":{"lat":33.9447605,"lon":109.1209659,"ts":"2023-09-08T04:06:12Z","tz":8,"tags":{"leisure":"sports_centre","name":"九仙阁岩场","sport":"climbing"}}}