{"4807302967":{"lat":-44.6534614,"lon":168.9639346,"ts":"2017-04-21T09:55:50Z","tz":12,"tags":{"name":"Hospital Flat","sport":"climbing"}},"4807303213":{"lat":-44.6494248,"lon":168.9598701,"ts":"2017-04-21T09:55:42Z","tz":12,"tags":{"name":"Diamond Lake","sport":"climbing"}},"4807303518":{"lat":-44.6550212,"lon":168.9534826,"ts":"2017-04-21T09:56:52Z","tz":12,"tags":{"name":"Climbing","sport":"climbing"}},"6268654999":{"lat":-44.6535687,"lon":168.9484474,"ts":"2019-02-09T21:17:32Z","tz":12,"tags":{"name":"far side","sport":"climbing"}},"6268659871":{"lat":-44.6537524,"lon":168.9482079,"ts":"2019-02-09T21:21:23Z","tz":12,"tags":{"name":"Really far side","sport":"climbing"}},"6268748769":{"lat":-44.6522029,"lon":168.9486895,"ts":"2019-02-09T22:01:57Z","tz":12,"tags":{"name":"Al cove","sport":"climbing"}},"6268754058":{"lat":-44.6511057,"lon":168.9495876,"ts":"2019-02-09T22:06:23Z","tz":12,"tags":{"name":"roadside attraction","sport":"climbing"}},"8879695220":{"lat":-44.6569626,"lon":168.9534171,"ts":"2024-03-16T09:28:39Z","tz":12,"tags":{"name":"Riverside Climbing Crag","natural":"cliff","sport":"climbing"}},"12430698490":{"lat":-44.6487519,"lon":168.928729,"ts":"2024-12-18T13:23:47Z","tz":12,"tags":{"email":"info@wildwire.co.nz","fee":"yes","name":"Wild Wire","note":"Probably should tag this as highway=via_ferrata rather than sport=climbing","sport":"climbing","website":"https://www.wildwire.co.nz/"}}}