{"1746887278":{"lat":-33.8136775,"lon":20.0914738,"ts":"2021-02-21T15:11:35Z","tz":2,"tags":{"climbing:sport":"23","name":"Legoland","natural":"cliff","sport":"climbing"}},"1746888019":{"lat":-33.7834106,"lon":20.0991968,"ts":"2012-05-09T18:17:00Z","tz":2,"tags":{"name":"Scoop","sport":"climbing","tourism":"attraction"}},"1746888020":{"lat":-33.780208,"lon":20.1035562,"ts":"2021-04-02T21:37:11Z","tz":2,"tags":{"name":"Cauldron","sport":"climbing","tourism":"attraction"}},"1746888026":{"lat":-33.8139193,"lon":20.1145935,"ts":"2012-10-01T11:24:33Z","tz":2,"tags":{"name":"Heaven","sport":"climbing","tourism":"attraction"}},"1936277071":{"lat":-33.7979289,"lon":20.101379,"ts":"2021-03-20T08:53:18Z","tz":2,"tags":{"name":"The Steeple","sport":"climbing","tourism":"attraction"}},"1936277076":{"lat":-33.7933654,"lon":20.1014185,"ts":"2015-10-05T05:47:03Z","tz":2,"tags":{"name":"The Alley","sport":"climbing","tourism":"attraction"}},"1936277077":{"lat":-33.8064297,"lon":20.1065289,"ts":"2012-09-28T06:03:12Z","tz":2,"tags":{"name":"Shooting Gallery","sport":"climbing","tourism":"attraction"}},"1936277078":{"lat":-33.8124751,"lon":20.1051406,"ts":"2012-09-28T06:03:12Z","tz":2,"tags":{"name":"Rose Bowl","sport":"climbing","tourism":"attraction"}},"1936277079":{"lat":-33.8118065,"lon":20.1079408,"ts":"2012-09-28T06:03:12Z","tz":2,"tags":{"name":"Joe's Garage","sport":"climbing","tourism":"attraction"}},"1936277080":{"lat":-33.8133393,"lon":20.111374,"ts":"2012-09-28T06:03:12Z","tz":2,"tags":{"name":"Vision","sport":"climbing","tourism":"attraction"}},"1943788764":{"lat":-33.8124438,"lon":20.0980442,"ts":"2020-11-03T11:39:41Z","tz":2,"tags":{"climbing:sport":"8","name":"Forest Crag","natural":"cliff","sport":"climbing"}},"1947429992":{"lat":-33.8119267,"lon":20.1064126,"ts":"2012-10-05T12:47:02Z","tz":2,"tags":{"name":"Lineup","sport":"climbing","tourism":"attraction"}},"1969847841":{"lat":-33.821832,"lon":20.1490924,"ts":"2012-10-17T13:31:03Z","tz":2,"tags":{"name":"Lost World Crag","sport":"climbing","tourism":"attraction"}},"2794123827":{"lat":-33.7745496,"lon":20.1181941,"ts":"2021-01-27T13:01:38Z","tz":2,"tags":{"name":"Supertubes Crag","sport":"climbing","tourism":"attraction"}},"3772815977":{"lat":-33.7762314,"lon":20.1161697,"ts":"2015-10-05T05:50:33Z","tz":2,"tags":{"name":"Waterworld Crag","sport":"climbing","tourism":"attraction"}},"3772815978":{"lat":-33.7729812,"lon":20.1208663,"ts":"2015-10-05T05:50:33Z","tz":2,"tags":{"name":"Palace Crag","sport":"climbing","tourism":"attraction"}},"3772815979":{"lat":-33.7715047,"lon":20.1162448,"ts":"2015-10-05T05:50:33Z","tz":2,"tags":{"name":"Uriah Crag","sport":"climbing","tourism":"attraction"}}}