{"702784662":{"lat":39.7915807,"lon":2.7764382,"ts":"2022-04-19T13:12:17Z","tz":1,"tags":{"leisure":"sports_centre","name":"zona d'escalada Ca'n Nyic","sport":"climbing","wheelchair":"no"}},"702876824":{"lat":39.834862,"lon":2.7704998,"ts":"2018-04-12T04:17:42Z","tz":1,"tags":{"alt_name":"es Tres Xaps","ele":"348","name":"el Queixal","natural":"peak","source":"Landsat","sport":"climbing"}},"1304330366":{"lat":39.7177068,"lon":2.5990695,"ts":"2024-01-08T10:34:54Z","tz":1,"tags":{"name":"Valldemossa","rock":"limestone","sport":"climbing","type":"cliff","website":"https://www.rockfax.com/databases/results_crag.html?id=295"}},"1304332906":{"lat":39.6924173,"lon":2.6351142,"ts":"2019-10-11T13:37:40Z","tz":1,"tags":{"name":"S'Estret - Sector Pasión","sport":"climbing"}},"1304332908":{"lat":39.6919431,"lon":2.6363878,"ts":"2019-10-11T13:37:40Z","tz":1,"tags":{"name":"S'Estret - Sector Cuarentón","sport":"climbing"}},"1304332913":{"lat":39.69159,"lon":2.6361678,"ts":"2020-02-17T15:12:00Z","tz":1,"tags":{"name":"S'Estret - Sector Mario","sport":"climbing"}},"1336515240":{"lat":39.8082528,"lon":2.7071044,"ts":"2021-03-30T08:40:50Z","tz":1,"tags":{"climbing:rock":"limestone","name":"es penyal Bernat de s'Illeta","natural":"peak","sport":"climbing"}},"2426020343":{"lat":39.8029342,"lon":2.6952569,"ts":"2023-01-15T19:23:40Z","tz":1,"tags":{"name":"Port de Sóller","name:ca":"Port de Sóller","sport":"climbing"}},"2618845877":{"lat":39.7173736,"lon":2.7487662,"ts":"2014-01-11T18:13:18Z","tz":1,"tags":{"sport":"climbing"}},"3904968428":{"lat":39.6975355,"lon":2.7198321,"ts":"2016-01-13T15:45:37Z","tz":1,"tags":{"leisure":"sports_centre","name":"zona d'escalada Fraguel","sport":"climbing"}},"3944223016":{"lat":39.8054184,"lon":2.6961248,"ts":"2023-01-15T19:24:30Z","tz":1,"tags":{"climbing:deepwater":"yes","climbing:sport":"yes","leisure":"sports_centre","name":"zona d'escalada Port de Sóller","name:ca":"zona d'escalada Port de Sóller","sport":"climbing","wheelchair":"no"}},"3944253427":{"lat":39.6946761,"lon":2.6729801,"ts":"2024-01-08T10:34:54Z","tz":1,"tags":{"climbing:grade:uiaa:max":"9-","climbing:grade:uiaa:min":"4+","climbing:multipitch":"yes","climbing:routes":"30+","climbing:sport":"yes","climbing:trad":"1","leisure":"sports_centre","name":"Sa Gúbia - zona d'escalada","sport":"climbing"}},"5309918133":{"lat":39.7288422,"lon":2.7951171,"ts":"2024-01-08T10:16:27Z","tz":1,"tags":{"climbing:sport":"yes","name":"Zona d'escalada - Sector Chorreras","name:ca":"Zona d'escalada - Sector Chorreras","sport":"climbing"}},"5318197043":{"lat":39.6929996,"lon":2.6335876,"ts":"2018-01-03T11:02:41Z","tz":1,"tags":{"name":"S'estret - Sector Cabra Zombi","sport":"climbing"}},"5318197300":{"lat":39.6926931,"lon":2.631182,"ts":"2018-01-03T11:04:04Z","tz":1,"tags":{"name":"S'estret - Sector Mejicano","sport":"climbing"}},"5318241498":{"lat":39.6915485,"lon":2.6297356,"ts":"2018-01-03T11:30:57Z","tz":1,"tags":{"name":"S'estret - Sector Xurasco","sport":"climbing"}},"5321793230":{"lat":39.6482498,"lon":2.5603187,"ts":"2018-01-05T10:34:52Z","tz":1,"tags":{"name":"Sa Cova - Sector Es Verger","sport":"climbing"}},"6294501595":{"lat":39.6939234,"lon":2.6733859,"ts":"2021-03-04T10:09:06Z","tz":1,"tags":{"climbing:grade:uiaa:max":"9-","climbing:grade:uiaa:min":"4+","climbing:routes":"12","leisure":"sports_centre","name":"Sa Gúbia Sector Potaje Español","sport":"climbing"}},"6294505033":{"lat":39.6935447,"lon":2.673976,"ts":"2021-03-04T10:09:06Z","tz":1,"tags":{"climbing:grade:uiaa:max":"7","climbing:grade:uiaa:min":"5","climbing:routes":"5","leisure":"sports_centre","name":"Sa Gúbia - Sector Silicona","sport":"climbing"}},"6294517289":{"lat":39.6965466,"lon":2.6731861,"ts":"2019-06-03T10:15:01Z","tz":1,"tags":{"leisure":"sports_centre","name":"Sa Gúbia - Cara Oeste","sport":"climbing"}},"6294517290":{"lat":39.6954713,"lon":2.6732853,"ts":"2019-06-03T10:15:01Z","tz":1,"tags":{"leisure":"sports_centre","name":"Sa Gúbia - Albahida","sport":"climbing"}},"6294517291":{"lat":39.6953268,"lon":2.6738808,"ts":"2019-06-03T10:15:01Z","tz":1,"tags":{"leisure":"sports_centre","name":"Sa Gúbia - Sector Bomberos","sport":"climbing"}},"6294517292":{"lat":39.6950689,"lon":2.6741919,"ts":"2020-06-21T16:33:16Z","tz":1,"tags":{"leisure":"sports_centre","name":"Sa Gúbia - Sector Princesa","sport":"climbing"}},"6294517293":{"lat":39.6942836,"lon":2.6738204,"ts":"2019-06-03T10:15:01Z","tz":1,"tags":{"leisure":"sports_centre","name":"Sa Gúbia - Sector Isla Bonita","sport":"climbing"}},"6294517294":{"lat":39.6937108,"lon":2.6735629,"ts":"2020-06-21T16:33:16Z","tz":1,"tags":{"leisure":"sports_centre","name":"Sa Gúbia - Sector Excàlibur","sport":"climbing"}},"6294517295":{"lat":39.6931546,"lon":2.672081,"ts":"2019-06-03T10:15:01Z","tz":1,"tags":{"leisure":"sports_centre","name":"Sa Gúbia - Paret dels Coloms","sport":"climbing"}},"11499702121":{"lat":39.7298023,"lon":2.7946022,"ts":"2024-01-08T10:16:27Z","tz":1,"tags":{"climbing:sport":"yes","name":"Zona d'escalada - Sector del Medio","name:ca":"Zona d'escalada - Sector del Medio","sport":"climbing"}},"11499702122":{"lat":39.7333075,"lon":2.7920555,"ts":"2024-01-08T10:16:27Z","tz":1,"tags":{"climbing:sport":"yes","name":"Zona d'escalada - Paret de sa Porta","name:ca":"Zona d'escalada - Paret de sa Porta","sport":"climbing"}},"11499745492":{"lat":39.6911671,"lon":2.6362519,"ts":"2024-01-08T10:34:54Z","tz":1,"tags":{"name":"S'Estret - Sector Pipe","sport":"climbing"}},"11499745493":{"lat":39.6909425,"lon":2.6369643,"ts":"2024-01-08T10:34:54Z","tz":1,"tags":{"name":"S'Estret - Sector Pasión","sport":"climbing"}}}