{"666721219":{"lat":33.29947,"lon":-111.0696418,"ts":"2024-09-24T05:58:53Z","tz":-7,"tags":{"area":"yes","climbing":"crag","name":"Lower Looner Land","sport":"climbing","website":"https://www.mountainproject.com/area/105902484/lower-looner-land"}},"1317804876":{"lat":33.3049106,"lon":-111.077244,"ts":"2024-09-24T05:58:53Z","tz":-7,"tags":{"area":"yes","climbing":"crag","name":"Atlantis","sport":"climbing","website":"https://www.mountainproject.com/area/105792118/atlantis"}},"1317805236":{"lat":33.3102727,"lon":-111.0684486,"ts":"2024-09-24T06:04:16Z","tz":-7,"tags":{"area":"yes","climbing":"crag","name":"The Pond","sport":"climbing","website":"https://www.mountainproject.com/area/105788092/the-pond"}},"1317805553":{"lat":33.3086742,"lon":-111.0629948,"ts":"2024-09-24T06:04:16Z","tz":-7,"tags":{"area":"yes","climbing":"crag","name":"Diamond Buttress","sport":"climbing","website":"https://www.mountainproject.com/area/119791709/diamond-buttress"}},"1317805554":{"lat":33.3088575,"lon":-111.0620214,"ts":"2024-09-24T06:04:16Z","tz":-7,"tags":{"area":"yes","climbing":"crag","name":"Wounded Knee Wall","sport":"climbing","website":"https://www.mountainproject.com/area/108014587/wounded-knee-wall"}},"1338767480":{"lat":33.2981036,"lon":-111.0723348,"ts":"2024-11-29T03:53:12Z","tz":-7,"tags":{"area":"yes","climbing":"crag","name":"The Magma Gardens","sport":"climbing"}},"12383665222":{"lat":33.2869281,"lon":-111.0586788,"ts":"2024-11-29T03:53:12Z","tz":-7,"tags":{"area":"yes","climbing":"crag","name":"Z-Bop Area","sport":"climbing"}}}