{"11986771":{"lat":50.9639373,"lon":14.0821221,"ts":"2024-12-17T19:21:56Z","tz":1,"tags":{"climbing":"area","climbing:trad":"yes","name":"Rathener Gebiet","type":"site"}},"11986772":{"lat":50.9615996,"lon":14.1299175,"ts":"2024-12-22T16:56:51Z","tz":1,"tags":{"climbing":"area","name":"Brandgebiet","type":"site"}},"18431082":{"lat":50.9584374,"lon":14.0963222,"ts":"2024-12-17T19:06:58Z","tz":1,"tags":{"climbing":"crag","climbing:grade:saxon:min":"III","climbing:rock":"sandstone","climbing:summit_log":"yes","climbing:trad":"yes","name":"Gamrigscheibe","sport":"climbing","type":"site","wikimedia_commons":"File:Gamrigscheibe.jpg"}},"18431150":{"lat":50.9586082,"lon":14.0967948,"ts":"2024-12-17T19:13:58Z","tz":1,"tags":{"climbing":"crag","climbing:grade:saxon:min":"V","climbing:rock":"sandstone","climbing:summit_log":"yes","climbing:trad":"yes","name":"Gamrigkegel","sport":"climbing","type":"site","wikimedia_commons":"File:Gamrigkegel.jpg"}},"18431211":{"lat":50.9588905,"lon":14.0964704,"ts":"2024-12-17T19:21:56Z","tz":1,"tags":{"climbing":"crag","climbing:grade:saxon:min":"I","climbing:rock":"sandstone","climbing:summit_log":"yes","climbing:trad":"yes","name":"Heidestein","sport":"climbing","type":"site","wikimedia_commons":"File:Heidestein_south_face.jpg"}},"35424857":{"lat":50.9657652,"lon":14.0860346,"ts":"2023-07-02T10:01:45Z","tz":1,"tags":{"climbing":"route","climbing:grade:saxon":"I","climbing:rock":"sandstone"}},"35427009":{"lat":50.9627797,"lon":14.0861727,"ts":"2009-06-04T10:09:03Z","tz":1,"tags":{"climbing":"route","climbing:rock":"sandstone"}},"251874414":{"lat":50.9758696,"lon":14.0999553,"ts":"2025-01-27T07:22:43Z","tz":1,"tags":{"climbing:grade:saxon:min":"II","climbing:rock":"sandstone","climbing:summit_log":"yes","climbing:trad":"yes","name":"Ameise","natural":"peak","sport":"climbing"}},"251874415":{"lat":50.9753306,"lon":14.1006715,"ts":"2025-01-27T07:22:43Z","tz":1,"tags":{"climbing:grade:saxon:min":"II","climbing:rock":"sandstone","climbing:summit_log":"yes","climbing:trad":"yes","name":"Ameisenwand","natural":"peak","sport":"climbing"}},"251874418":{"lat":50.9646039,"lon":14.1078407,"ts":"2021-02-27T19:57:55Z","tz":1,"tags":{"climbing:grade:saxon:min":"II","climbing:rock":"sandstone","climbing:summit_log":"yes","climbing:trad":"yes","name":"Anstand","natural":"peak","note":"check and delete this note if correct; object was imported from http://www.wandern-saechsische-schweiz.de/","sport":"climbing"}},"251874430":{"lat":50.9654707,"lon":14.1066772,"ts":"2021-02-27T19:57:55Z","tz":1,"tags":{"climbing:grade:saxon:min":"III","climbing:rock":"sandstone","climbing:summit_log":"yes","climbing:trad":"yes","name":"Auerhahnfels","natural":"peak","sport":"climbing"}},"251874431":{"lat":50.9605087,"lon":14.128136,"ts":"2021-02-27T19:57:55Z","tz":1,"tags":{"climbing:grade:saxon:min":"V","climbing:rock":"sandstone","climbing:summit_log":"yes","climbing:trad":"yes","name":"August","natural":"peak","sport":"climbing"}},"251874482":{"lat":50.9588165,"lon":14.1295388,"ts":"2021-02-27T19:57:55Z","tz":1,"tags":{"climbing:grade:saxon:min":"III","climbing:rock":"sandstone","climbing:summit_log":"yes","climbing:trad":"yes","name":"Brandkopf","natural":"peak","sport":"climbing"}},"251874483":{"lat":50.974636,"lon":14.103994,"ts":"2021-02-27T19:57:55Z","tz":1,"tags":{"climbing:grade:saxon:min":"V","climbing:rock":"sandstone","climbing:summit_log":"yes","climbing:trad":"yes","name":"Brandpyramide","natural":"peak","sport":"climbing"}},"251874484":{"lat":50.9601217,"lon":14.1290791,"ts":"2021-02-27T19:57:55Z","tz":1,"tags":{"climbing:grade:saxon:min":"IV","climbing:rock":"sandstone","climbing:summit_log":"yes","climbing:trad":"yes","name":"Brandturm","natural":"peak","sport":"climbing"}},"251874503":{"lat":50.9588847,"lon":14.1192785,"ts":"2021-02-27T19:57:55Z","tz":1,"tags":{"climbing:grade:saxon:min":"IV","climbing:rock":"sandstone","climbing:summit_log":"yes","climbing:trad":"yes","name":"Dezemberturm","natural":"peak","sport":"climbing"}},"251874517":{"lat":50.9685122,"lon":14.106047,"ts":"2021-02-27T19:57:55Z","tz":1,"tags":{"climbing:grade:saxon:min":"VIIa","climbing:rock":"sandstone","climbing:summit_log":"yes","climbing:trad":"yes","name":"Clementine","natural":"peak","sport":"climbing"}},"251874536":{"lat":50.9611275,"lon":14.1178184,"ts":"2021-02-27T19:57:55Z","tz":1,"tags":{"climbing:grade:saxon:min":"I","climbing:rock":"sandstone","climbing:summit_log":"yes","climbing:trad":"yes","name":"Einsamer Stein","natural":"peak","note":"check and delete this note if correct; object was imported from http://www.wandern-saechsische-schweiz.de/","sport":"climbing"}},"251874540":{"lat":50.962526,"lon":14.1222729,"ts":"2021-02-27T19:57:55Z","tz":1,"tags":{"climbing:grade:saxon:min":"III","climbing:rock":"sandstone","climbing:summit_log":"yes","climbing:trad":"yes","name":"Drillingsturm","natural":"peak","sport":"climbing"}},"251874552":{"lat":50.9688545,"lon":14.1057563,"ts":"2021-02-27T19:57:55Z","tz":1,"tags":{"climbing:grade:saxon:min":"I","climbing:rock":"sandstone","climbing:summit_log":"yes","climbing:trad":"yes","name":"Elefant","natural":"peak","sport":"climbing"}},"251874585":{"lat":50.9620461,"lon":14.1292987,"ts":"2025-01-27T07:22:43Z","tz":1,"tags":{"access:conditional":"no @ (Jan 15-Aug 15)","climbing:grade:saxon:min":"III","climbing:rock":"sandstone","climbing:summit_log":"yes","climbing:trad":"yes","name":"Forstgrabenwand","natural":"peak","sport":"climbing"}},"251874586":{"lat":50.9635378,"lon":14.1310852,"ts":"2020-12-06T18:06:00Z","tz":1,"tags":{"climbing:grade:saxon:min":"II","climbing:rock":"sandstone","climbing:summit_log":"yes","climbing:trad":"yes","name":"Forstgrabenturm","natural":"peak","sport":"climbing"}},"251874598":{"lat":50.96158,"lon":14.1216228,"ts":"2021-02-27T19:57:55Z","tz":1,"tags":{"climbing:grade:saxon:min":"III","climbing:rock":"sandstone","climbing:summit_log":"yes","climbing:trad":"yes","name":"Glatter Steinturm","natural":"peak","sport":"climbing"}},"251874600":{"lat":50.9649541,"lon":14.1094369,"ts":"2021-02-27T19:57:55Z","tz":1,"tags":{"climbing:grade:saxon:min":"III","climbing:rock":"sandstone","climbing:summit_log":"yes","climbing:trad":"yes","name":"Gespaltene Zinne","natural":"peak","note":"check and delete this note if correct; object was imported from http://www.wandern-saechsische-schweiz.de/","sport":"climbing"}},"251874603":{"lat":50.9589734,"lon":14.1176734,"ts":"2021-02-27T19:57:55Z","tz":1,"tags":{"climbing:grade:saxon:min":"V","climbing:rock":"sandstone","climbing:summit_log":"yes","climbing:trad":"yes","name":"Geyergucke","natural":"peak","sport":"climbing"}},"251874630":{"lat":50.9776989,"lon":14.1049035,"ts":"2021-02-27T19:57:55Z","tz":1,"tags":{"climbing:grade:saxon:min":"IV","climbing:rock":"sandstone","climbing:summit_log":"yes","climbing:trad":"yes","importance":"1.5","name":"Großer Halben","natural":"peak","sport":"climbing"}},"251874641":{"lat":50.9701949,"lon":14.1061583,"ts":"2021-02-27T19:57:55Z","tz":1,"tags":{"climbing:grade:saxon:min":"V","climbing:rock":"sandstone","climbing:summit_log":"yes","climbing:trad":"yes","name":"Grüner Stein","natural":"peak","sport":"climbing"}},"251874668":{"lat":50.9593614,"lon":14.1160098,"ts":"2021-02-27T19:57:55Z","tz":1,"tags":{"climbing:grade:saxon:min":"IV","climbing:rock":"sandstone","climbing:summit_log":"yes","climbing:trad":"yes","name":"Hans-Arno-Stein","natural":"peak","sport":"climbing"}},"251874683":{"lat":50.9798232,"lon":14.1008367,"ts":"2021-02-27T19:57:55Z","tz":1,"tags":{"climbing:grade:saxon:min":"III","climbing:rock":"sandstone","climbing:summit_log":"yes","climbing:trad":"yes","name":"Hocksteinturm","natural":"peak","sport":"climbing"}},"251874746":{"lat":50.9769208,"lon":14.1044113,"ts":"2021-02-27T19:57:55Z","tz":1,"tags":{"climbing:grade:saxon:min":"V","climbing:rock":"sandstone","climbing:summit_log":"yes","climbing:trad":"yes","name":"Kleiner Halben","natural":"peak","sport":"climbing"}},"251874792":{"lat":50.9653359,"lon":14.1129273,"ts":"2021-02-27T19:57:55Z","tz":1,"tags":{"climbing:grade:saxon:min":"III","climbing:rock":"sandstone","climbing:summit_log":"yes","climbing:trad":"yes","name":"Kobold","natural":"peak","note":"check and delete this note if correct; object was imported from http://www.wandern-saechsische-schweiz.de/","sport":"climbing"}},"251874860":{"lat":50.9690018,"lon":14.105174,"ts":"2021-02-27T19:57:55Z","tz":1,"tags":{"climbing:grade:saxon:min":"I","climbing:rock":"sandstone","climbing:summit_log":"yes","climbing:trad":"yes","name":"Nashorn","natural":"peak","sport":"climbing"}},"251874865":{"lat":50.9638634,"lon":14.1127077,"ts":"2021-02-27T19:57:55Z","tz":1,"tags":{"climbing:grade:saxon:min":"III","climbing:rock":"sandstone","climbing:summit_log":"yes","climbing:trad":"yes","name":"Neuwegkanzel","natural":"peak","note":"check and delete this note if correct; object was imported from http://www.wandern-saechsische-schweiz.de/","sport":"climbing"}},"251874896":{"lat":50.9647988,"lon":14.1103456,"ts":"2021-02-27T19:57:55Z","tz":1,"tags":{"climbing:grade:saxon:min":"I","climbing:rock":"sandstone","climbing:summit_log":"yes","climbing:trad":"yes","name":"Panoramafels","natural":"peak","sport":"climbing"}},"251874897":{"lat":50.964492,"lon":14.1081844,"ts":"2021-02-27T19:57:55Z","tz":1,"tags":{"climbing:grade:saxon:min":"IV","climbing:rock":"sandstone","climbing:summit_log":"yes","climbing:trad":"yes","name":"Pantinenturm","natural":"peak","sport":"climbing"}},"251874932":{"lat":50.9670181,"lon":14.1057589,"ts":"2021-02-27T19:57:55Z","tz":1,"tags":{"climbing:grade:saxon:min":"III","climbing:rock":"sandstone","climbing:summit_log":"yes","climbing:trad":"yes","name":"Polenzwacht","natural":"peak","note":"check and delete this note if correct; object was imported from http://www.wandern-saechsische-schweiz.de/","ref":"21","sport":"climbing","website":"http://www.teufelsturm.de/wege/suche.php?gipfelnr=533"}},"251874933":{"lat":50.9631901,"lon":14.1077033,"ts":"2021-02-27T19:57:55Z","tz":1,"tags":{"climbing:grade:saxon:min":"V","climbing:rock":"sandstone","climbing:summit_log":"yes","climbing:trad":"yes","name":"Polenztalbarbarine","natural":"peak","sport":"climbing"}},"251874935":{"lat":50.9622437,"lon":14.1081377,"ts":"2021-02-27T19:57:55Z","tz":1,"tags":{"climbing:grade:saxon:min":"II","climbing:rock":"sandstone","climbing:summit_log":"yes","climbing:trad":"yes","name":"Polenztalwächter","natural":"peak","sport":"climbing"}},"251874970":{"lat":50.9630531,"lon":14.1142599,"ts":"2023-10-22T17:33:44Z","tz":1,"tags":{"climbing:grade:saxon:min":"IV","climbing:rock":"sandstone","climbing:summit_log":"yes","climbing:trad":"yes","name":"Saugrundwächter","natural":"peak","note":"check and delete this note if correct; object was imported from http://www.wandern-saechsische-schweiz.de/","sport":"climbing"}},"251874983":{"lat":50.965378,"lon":14.1084249,"ts":"2021-08-08T22:11:04Z","tz":1,"tags":{"climbing:grade:saxon:min":"III","climbing:rock":"sandstone","climbing:summit_log":"yes","climbing:trad":"yes","name":"Räumichtturm","natural":"peak","sport":"climbing"}},"251875015":{"lat":50.9647485,"lon":14.1163504,"ts":"2025-01-27T07:22:43Z","tz":1,"tags":{"climbing:grade:saxon:min":"II","climbing:rock":"sandstone","climbing:summit_log":"yes","climbing:trad":"yes","name":"Silvesterturm","natural":"peak","sport":"climbing"}},"251875030":{"lat":50.9618861,"lon":14.1213685,"ts":"2021-02-27T19:57:55Z","tz":1,"tags":{"climbing:grade:saxon:min":"IV","climbing:rock":"sandstone","climbing:summit_log":"yes","climbing:trad":"yes","name":"Spund","natural":"peak","sport":"climbing"}},"251875034":{"lat":50.9719036,"lon":14.1057877,"ts":"2021-02-27T19:57:55Z","tz":1,"tags":{"climbing:grade:saxon:min":"VI","climbing:rock":"sandstone","climbing:summit_log":"yes","climbing:trad":"yes","name":"Steinbruchnadel","natural":"peak","sport":"climbing"}},"251875073":{"lat":50.9627906,"lon":14.1147577,"ts":"2021-02-27T19:57:55Z","tz":1,"tags":{"climbing:grade:saxon:min":"III","climbing:rock":"sandstone","climbing:summit_log":"yes","climbing:trad":"yes","name":"Schwarzwildturm","natural":"peak","note":"check and delete this note if correct; object was imported from http://www.wandern-saechsische-schweiz.de/","sport":"climbing"}},"251875084":{"lat":50.9624381,"lon":14.1158209,"ts":"2021-02-27T19:57:55Z","tz":1,"tags":{"climbing:grade:saxon:min":"VIIb","climbing:rock":"sandstone","climbing:summit_log":"yes","climbing:trad":"yes","name":"Verlassener Turm","natural":"peak","note":"check and delete this note if correct; object was imported from http://www.wandern-saechsische-schweiz.de/","sport":"climbing"}},"251875157":{"lat":50.9617624,"lon":14.1216513,"ts":"2021-02-27T19:57:55Z","tz":1,"tags":{"climbing:grade:saxon:min":"VI","climbing:rock":"sandstone","climbing:summit_log":"yes","climbing:trad":"yes","name":"Tonne","natural":"peak","sport":"climbing"}},"251875179":{"lat":50.9607576,"lon":14.1120752,"ts":"2021-02-27T19:57:55Z","tz":1,"tags":{"climbing:grade:saxon:min":"II","climbing:rock":"sandstone","climbing:summit_log":"yes","climbing:trad":"yes","name":"Winkelturm","natural":"peak","sport":"climbing"}},"310122311":{"lat":50.9628388,"lon":14.0862804,"ts":"2019-02-26T21:12:25Z","tz":1,"tags":{"climbing":"route_bottom"}},"310123075":{"lat":50.9656066,"lon":14.0859412,"ts":"2019-01-26T11:30:42Z","tz":1,"tags":{"climbing":"route_bottom"}},"323194259":{"lat":50.9660775,"lon":14.0841129,"ts":"2021-02-27T19:57:55Z","tz":1,"tags":{"climbing:grade:saxon:min":"III","climbing:rock":"sandstone","climbing:summit_log":"yes","climbing:trad":"yes","name":"Lokomotive-Dom","natural":"peak","sport":"climbing"}},"415548254":{"lat":50.9659288,"lon":14.0844689,"ts":"2021-02-27T19:57:55Z","tz":1,"tags":{"climbing:grade:saxon:min":"V","climbing:rock":"sandstone","climbing:summit_log":"yes","climbing:trad":"yes","name":"Lokomotive-Esse","natural":"peak","sport":"climbing"}},"415548258":{"lat":50.9658414,"lon":14.0849157,"ts":"2021-11-23T14:38:25Z","tz":1,"tags":{"climbing:grade:saxon:min":"I","climbing:rock":"sandstone","climbing:summit_log":"yes","climbing:trad":"yes","name":"Lamm","natural":"peak","sport":"climbing"}},"415548261":{"lat":50.9654348,"lon":14.0865709,"ts":"2024-10-28T17:06:28Z","tz":1,"tags":{"climbing:grade:saxon:min":"II","climbing:rock":"sandstone","climbing:summit_log":"yes","climbing:trad":"yes","name":"Imker","natural":"peak","sport":"climbing","summit:cross":"no","summit:register":"yes"}},"415548262":{"lat":50.9659298,"lon":14.0857896,"ts":"2021-02-27T19:57:55Z","tz":1,"tags":{"climbing:grade:saxon:min":"III","climbing:rock":"sandstone","climbing:summit_log":"yes","climbing:trad":"yes","name":"Honigsteinnadel","natural":"peak","sport":"climbing"}},"415548263":{"lat":50.9659906,"lon":14.0860058,"ts":"2021-05-28T16:35:02Z","tz":1,"tags":{"climbing:grade:saxon:min":"I","climbing:rock":"sandstone","climbing:summit_log":"yes","climbing:trad":"yes","name":"Honigstein","natural":"peak","sport":"climbing"}},"415548278":{"lat":50.9659331,"lon":14.0860996,"ts":"2019-01-26T11:30:42Z","tz":1,"tags":{"climbing":"route_top"}},"415570416":{"lat":50.9630901,"lon":14.0827586,"ts":"2021-02-27T19:57:55Z","tz":1,"tags":{"climbing:grade:saxon:min":"II","climbing:rock":"sandstone","climbing:summit_log":"yes","climbing:trad":"yes","importance":"1.0","name":"Talwächter","natural":"peak","source":"GPS on top","sport":"climbing","wikidata":"Q15222727","wikipedia":"de:Talwächter"}},"415570439":{"lat":50.9632228,"lon":14.0844679,"ts":"2021-02-27T19:57:55Z","tz":1,"tags":{"climbing:grade:saxon:min":"IV","climbing:rock":"sandstone","climbing:summit_log":"yes","climbing:trad":"yes","importance":"-3.0","name":"Lithostein","natural":"peak","source":"GPS on top","sport":"climbing"}},"429484008":{"lat":50.9589873,"lon":14.0968246,"ts":"2021-02-27T19:57:55Z","tz":1,"tags":{"climbing:grade:saxon:min":"VI","climbing:rock":"sandstone","climbing:summit_log":"yes","climbing:trad":"yes","name":"Gamrigwächter","natural":"peak","source":"estimate","sport":"climbing"}},"502164474":{"lat":50.9645746,"lon":14.074072,"ts":"2020-12-06T18:06:00Z","tz":1,"tags":{"climbing:grade:saxon:min":"V","climbing:rock":"sandstone","climbing:summit_log":"yes","climbing:trad":"yes","name":"Wehlnadel","natural":"peak","source":"rough estimate, local knowledge","sport":"climbing"}},"502164494":{"lat":50.9642516,"lon":14.0759612,"ts":"2020-12-06T18:06:00Z","tz":1,"tags":{"climbing:grade:saxon:min":"I","climbing:rock":"sandstone","climbing:summit_log":"yes","climbing:trad":"yes","name":"Hinterer Gansfelsen","natural":"peak","sport":"climbing"}},"502164495":{"lat":50.9642491,"lon":14.0762216,"ts":"2020-12-06T18:06:00Z","tz":1,"tags":{"climbing:grade:saxon:min":"I","climbing:rock":"sandstone","climbing:summit_log":"yes","climbing:trad":"yes","name":"Mittlerer Gansfelsen","natural":"peak","sport":"climbing"}},"502164496":{"lat":50.964098,"lon":14.0763702,"ts":"2020-12-06T18:06:00Z","tz":1,"tags":{"climbing:grade:saxon:min":"II","climbing:rock":"sandstone","climbing:summit_log":"yes","climbing:trad":"yes","name":"Vorderer Gansfelsen","natural":"peak","source":"gps on top","sport":"climbing"}},"502164497":{"lat":50.9645531,"lon":14.0751506,"ts":"2020-12-06T18:06:00Z","tz":1,"tags":{"climbing:grade:saxon:min":"I","climbing:rock":"sandstone","climbing:summit_log":"yes","climbing:trad":"yes","name":"Plattenstein","natural":"peak","source":"GPS survey on top","sport":"climbing"}},"528673541":{"lat":50.9620072,"lon":14.087499,"ts":"2021-02-27T19:57:55Z","tz":1,"tags":{"climbing:grade:saxon:min":"I","climbing:rock":"sandstone","climbing:summit_log":"yes","climbing:trad":"yes","name":"Feldwand","natural":"peak","source":"rough estimate from view from Tuerkenkopf","sport":"climbing"}},"528673620":{"lat":50.9625061,"lon":14.0852116,"ts":"2024-12-24T13:09:24Z","tz":1,"tags":{"climbing":"crag","climbing:grade:saxon:min":"I","climbing:rock":"sandstone","climbing:summit_log":"yes","climbing:trad":"yes","name":"Westlicher Feldkopf","natural":"peak","source":"GPS on top","sport":"climbing"}},"528673630":{"lat":50.9622163,"lon":14.0861307,"ts":"2024-12-24T13:09:24Z","tz":1,"tags":{"climbing":"crag","climbing:grade:saxon:min":"I","climbing:rock":"sandstone","climbing:summit_log":"yes","climbing:trad":"yes","importance":"-1.0","name":"Östlicher Feldkopf","natural":"peak","source":"GPS on top","sport":"climbing"}},"529970140":{"lat":50.9641921,"lon":14.0769408,"ts":"2020-12-06T18:06:00Z","tz":1,"tags":{"climbing:grade:saxon:min":"II","climbing:rock":"sandstone","climbing:summit_log":"yes","climbing:trad":"yes","name":"Gansriff","natural":"peak","sport":"climbing"}},"529970142":{"lat":50.964416,"lon":14.0772407,"ts":"2020-12-06T18:06:00Z","tz":1,"tags":{"climbing:grade:saxon:min":"V","climbing:rock":"sandstone","climbing:summit_log":"yes","climbing:trad":"yes","name":"Gansscheibe","natural":"peak","sport":"climbing"}},"529970147":{"lat":50.96593,"lon":14.0763344,"ts":"2021-02-27T19:57:55Z","tz":1,"tags":{"climbing:grade:saxon:min":"II","climbing:rock":"sandstone","climbing:summit_log":"yes","climbing:trad":"yes","name":"Eule","natural":"peak","sport":"climbing"}},"670704416":{"lat":50.9660179,"lon":14.0767,"ts":"2021-02-27T19:57:55Z","tz":1,"tags":{"climbing:grade:saxon:min":"V","climbing:rock":"sandstone","climbing:summit_log":"yes","climbing:trad":"yes","name":"Höllenhund","natural":"peak","sport":"climbing"}},"671927168":{"lat":50.9616587,"lon":14.0728959,"ts":"2020-12-06T18:06:00Z","tz":1,"tags":{"alt_name":"Große Steinschleuder","climbing:grade:saxon:min":"I","climbing:rock":"sandstone","climbing:summit_log":"yes","climbing:trad":"yes","name":"Steinschleuder","natural":"peak","sport":"climbing"}},"671927170":{"lat":50.9617919,"lon":14.0726534,"ts":"2020-12-06T18:06:00Z","tz":1,"tags":{"climbing:grade:saxon:min":"IV","climbing:rock":"sandstone","climbing:summit_log":"yes","climbing:trad":"yes","name":"Jahrhundertturm","natural":"peak","sport":"climbing"}},"671927171":{"lat":50.9612625,"lon":14.0764344,"ts":"2021-02-27T19:57:55Z","tz":1,"tags":{"alt_name":"Mönchstein","climbing:grade:saxon:min":"III","climbing:rock":"sandstone","climbing:summit_log":"yes","climbing:trad":"yes","name":"Mönch","natural":"peak","sport":"climbing","wikidata":"Q1411723","wikipedia":"de:Mönch (Fels)"}},"671927173":{"lat":50.9618559,"lon":14.0724488,"ts":"2024-02-18T17:18:08Z","tz":1,"tags":{"climbing:grade:saxon:min":"IV","climbing:rock":"sandstone","climbing:summit_log":"yes","climbing:trad":"yes","name":"Sieberturm","natural":"peak","sport":"climbing","summit:cross":"no"}},"671927174":{"lat":50.9612998,"lon":14.0688405,"ts":"2025-01-04T19:41:32Z","tz":1,"tags":{"climbing:grade:saxon:min":"III","climbing:rock":"sandstone","climbing:summit_log":"yes","climbing:trad":"yes","image":"https://commons.wikimedia.org/wiki/File:Wartturm_-_S%C3%A4chsische_Schweiz_1.JPG","name":"Wartturm","natural":"peak","sport":"climbing","wikidata":"Q1421315","wikipedia":"de:Wartturm (Fels)"}},"703396054":{"lat":50.9626664,"lon":14.0860284,"ts":"2024-12-24T13:09:24Z","tz":1,"tags":{"climbing":"crag","climbing:grade:saxon:min":"I","climbing:rock":"sandstone","climbing:summit_log":"yes","climbing:trad":"yes","name":"Honigsteinkopf","natural":"peak","sport":"climbing"}},"703396068":{"lat":50.9636819,"lon":14.0875535,"ts":"2021-02-27T19:57:55Z","tz":1,"tags":{"climbing:grade:saxon:min":"II","climbing:rock":"sandstone","climbing:summit_log":"yes","climbing:trad":"yes","name":"Maiturm","natural":"peak","source":"rough estimate","sport":"climbing"}},"703396141":{"lat":50.9630557,"lon":14.0873303,"ts":"2024-12-24T13:09:24Z","tz":1,"tags":{"climbing":"crag","climbing:grade:saxon:min":"IV","climbing:rock":"sandstone","climbing:summit_log":"yes","climbing:trad":"yes","name":"Honigsteinscheibe","natural":"peak","source":"rough estimate","sport":"climbing"}},"740503615":{"lat":50.964466,"lon":14.0740193,"ts":"2020-12-06T18:06:00Z","tz":1,"tags":{"climbing:grade:saxon:min":"III","climbing:rock":"sandstone","climbing:summit_log":"yes","climbing:trad":"yes","name":"Bergfreundeturm","natural":"peak","source":"rough estimate, local knowledge","sport":"climbing"}},"740503625":{"lat":50.9649393,"lon":14.0749256,"ts":"2020-12-06T18:06:00Z","tz":1,"tags":{"climbing:grade:saxon:min":"III","climbing:rock":"sandstone","climbing:summit_log":"yes","climbing:trad":"yes","name":"Gänseei","natural":"peak","sport":"climbing"}},"937193404":{"lat":50.961973,"lon":14.0657354,"ts":"2020-12-06T18:06:00Z","tz":1,"tags":{"climbing:grade:saxon:min":"IV","climbing:rock":"sandstone","climbing:summit_log":"yes","climbing:trad":"yes","name":"Hirschgrundkegel","natural":"peak","sport":"climbing"}},"989128524":{"lat":50.9605968,"lon":14.1084814,"ts":"2021-02-27T19:57:55Z","tz":1,"tags":{"climbing:grade:saxon:min":"II","climbing:rock":"sandstone","climbing:summit_log":"yes","climbing:trad":"yes","name":"Osterspitze","natural":"peak","sport":"climbing","website":"https://www.nationalpark-saechsische-schweiz.de/besucherinformation/klettern/klettergebiete/brandgebiet/"}},"1106394182":{"lat":50.9753523,"lon":14.103235,"ts":"2021-02-27T19:57:55Z","tz":1,"tags":{"climbing:grade:saxon:min":"II","climbing:rock":"sandstone","climbing:summit_log":"yes","climbing:trad":"yes","name":"Drachenkopf","natural":"peak","sport":"climbing"}},"1106394188":{"lat":50.9680762,"lon":14.1065207,"ts":"2021-02-27T19:57:55Z","tz":1,"tags":{"climbing:grade:saxon:min":"II","climbing:rock":"sandstone","climbing:summit_log":"yes","climbing:trad":"yes","name":"Schluchtturm","natural":"peak","sport":"climbing"}},"1106394196":{"lat":50.9668586,"lon":14.1060013,"ts":"2021-02-27T19:57:55Z","tz":1,"tags":{"climbing:grade:saxon:min":"I","climbing:rock":"sandstone","climbing:summit_log":"yes","climbing:trad":"yes","name":"Kolosseum","natural":"peak","sport":"climbing"}},"1106394207":{"lat":50.971137,"lon":14.1071936,"ts":"2021-02-27T19:57:55Z","tz":1,"tags":{"climbing:grade:saxon:min":"VIIb","climbing:rock":"sandstone","climbing:summit_log":"yes","climbing:trad":"yes","name":"Steinbruchturm","natural":"peak","sport":"climbing"}},"1106394210":{"lat":50.9751496,"lon":14.1034039,"ts":"2021-02-27T19:57:55Z","tz":1,"tags":{"climbing:grade:saxon:min":"II","climbing:rock":"sandstone","climbing:summit_log":"yes","climbing:trad":"yes","name":"Riesenechse","natural":"peak","sport":"climbing"}},"1503467487":{"lat":50.9618884,"lon":14.0693431,"ts":"2020-12-06T18:06:00Z","tz":1,"tags":{"climbing:grade:saxon:min":"III","climbing:rock":"sandstone","climbing:summit_log":"yes","climbing:trad":"yes","name":"Margaretenspitze","natural":"peak","sport":"climbing"}},"1503467488":{"lat":50.961851,"lon":14.0692513,"ts":"2020-12-06T18:06:00Z","tz":1,"tags":{"climbing:grade:saxon:min":"II","climbing:rock":"sandstone","climbing:summit_log":"yes","climbing:trad":"yes","name":"Musketier","natural":"peak","sport":"climbing"}},"1503467492":{"lat":50.9618386,"lon":14.0694037,"ts":"2022-07-07T11:23:45Z","tz":1,"tags":{"climbing:grade:saxon:min":"III","climbing:rock":"sandstone","climbing:summit_log":"yes","climbing:trad":"yes","name":"Torsteiner Turm","natural":"peak","sport":"climbing","summit:register":"yes"}},"1521539136":{"lat":50.9663226,"lon":14.106298,"ts":"2021-02-27T19:57:55Z","tz":1,"tags":{"climbing:grade:saxon:min":"III","climbing:rock":"sandstone","climbing:summit_log":"yes","climbing:trad":"yes","name":"Falkenwarte","natural":"peak","sport":"climbing"}},"1560931456":{"lat":50.9600614,"lon":14.1302468,"ts":"2020-12-06T18:06:00Z","tz":1,"tags":{"climbing:grade:saxon:min":"I","climbing:rock":"sandstone","climbing:summit_log":"yes","climbing:trad":"yes","name":"Dastellochturm","natural":"peak","sport":"climbing"}},"1560931461":{"lat":50.9598042,"lon":14.1300683,"ts":"2024-05-05T13:09:46Z","tz":1,"tags":{"climbing:grade:saxon:min":"II","climbing:rock":"sandstone","climbing:summit_log":"yes","climbing:trad":"yes","image":"https://photos.komoot.de/www/7v/7vm7o9sipvkp9cpufis6c9x04yy75izi-p450436083-full/18f48ab1172?width=3072&height=2304&crop=false&q=70","name":"Hunskirchlerspitze","natural":"peak","sport":"climbing"}},"1630005723":{"lat":50.9798554,"lon":14.1007557,"ts":"2021-02-27T19:57:55Z","tz":1,"tags":{"climbing:grade:saxon:min":"V","climbing:rock":"sandstone","climbing:summit_log":"yes","climbing:trad":"yes","name":"Hocksteinnadel","natural":"peak","sport":"climbing"}},"1742974354":{"lat":50.9654606,"lon":14.0705618,"ts":"2021-02-27T19:57:55Z","tz":1,"tags":{"climbing:grade:saxon:min":"II","climbing:rock":"sandstone","climbing:summit_log":"yes","climbing:trad":"yes","name":"Grenadierturm","natural":"peak","sport":"climbing"}},"1987816381":{"lat":50.963898,"lon":14.0650352,"ts":"2020-12-06T18:06:00Z","tz":1,"tags":{"climbing:grade:saxon:min":"III","climbing:rock":"sandstone","climbing:summit_log":"yes","climbing:trad":"yes","name":"Assistent","natural":"peak","source":"bing","sport":"climbing"}},"1987816388":{"lat":50.9640835,"lon":14.0648671,"ts":"2020-12-06T18:06:00Z","tz":1,"tags":{"climbing:grade:saxon:min":"V","climbing:rock":"sandstone","climbing:summit_log":"yes","climbing:trad":"yes","name":"Doktor","natural":"peak","source":"bing","sport":"climbing"}},"1987816410":{"lat":50.9632717,"lon":14.0652364,"ts":"2020-12-06T18:06:00Z","tz":1,"tags":{"climbing:grade:saxon:min":"III","climbing:rock":"sandstone","climbing:summit_log":"yes","climbing:trad":"yes","name":"Hinterer Hirschgrundturm","natural":"peak","source":"bing","sport":"climbing"}},"1987816417":{"lat":50.9630922,"lon":14.06406,"ts":"2020-12-06T18:06:00Z","tz":1,"tags":{"climbing:grade:saxon:min":"VIIb","climbing:rock":"sandstone","climbing:summit_log":"yes","climbing:trad":"yes","name":"Hirschgrundscheibe","natural":"peak","source":"bing","sport":"climbing"}},"1987816419":{"lat":50.9616751,"lon":14.0670282,"ts":"2020-12-06T18:06:00Z","tz":1,"tags":{"climbing:grade:saxon:min":"II","climbing:rock":"sandstone","climbing:summit_log":"yes","climbing:trad":"yes","name":"Hirschgrundwarte","natural":"peak","source":"bing","sport":"climbing"}},"1987816421":{"lat":50.9614376,"lon":14.0644352,"ts":"2020-12-06T18:06:00Z","tz":1,"tags":{"climbing:grade:saxon:min":"II","climbing:rock":"sandstone","climbing:summit_log":"yes","climbing:trad":"yes","name":"Kraxelbrüderscheibe","natural":"peak","source":"bing","sport":"climbing"}},"1987816426":{"lat":50.9618576,"lon":14.0664695,"ts":"2020-12-06T18:06:00Z","tz":1,"tags":{"climbing:grade:saxon:min":"II","climbing:rock":"sandstone","climbing:summit_log":"yes","climbing:trad":"yes","name":"Lochturm","natural":"peak","source":"bing","sport":"climbing"}},"1987816433":{"lat":50.9626346,"lon":14.065565,"ts":"2020-12-06T18:06:00Z","tz":1,"tags":{"climbing:grade:saxon:min":"III","climbing:rock":"sandstone","climbing:summit_log":"yes","climbing:trad":"yes","name":"Mittlerer Hirschgrundturm","natural":"peak","source":"bing","sport":"climbing"}},"1987816458":{"lat":50.9640654,"lon":14.0650855,"ts":"2020-12-06T18:06:00Z","tz":1,"tags":{"climbing:grade:saxon:min":"V","climbing:rock":"sandstone","climbing:summit_log":"yes","climbing:trad":"yes","name":"Patient","natural":"peak","source":"bing","sport":"climbing"}},"1987816462":{"lat":50.9617896,"lon":14.0643436,"ts":"2020-12-06T18:06:00Z","tz":1,"tags":{"climbing:grade:saxon:min":"V","climbing:rock":"sandstone","climbing:summit_log":"yes","climbing:trad":"yes","name":"Querkopf","natural":"peak","source":"bing","sport":"climbing"}},"1987816463":{"lat":50.961938,"lon":14.0661162,"ts":"2020-12-06T18:06:00Z","tz":1,"tags":{"climbing:grade:saxon:min":"III","climbing:rock":"sandstone","climbing:summit_log":"yes","climbing:trad":"yes","name":"Scherge","natural":"peak","source":"bing","sport":"climbing"}},"1987816467":{"lat":50.9622706,"lon":14.0658453,"ts":"2020-12-06T18:06:00Z","tz":1,"tags":{"climbing:grade:saxon:min":"II","climbing:rock":"sandstone","climbing:summit_log":"yes","climbing:trad":"yes","name":"Vorderer Hirschgrundturm","natural":"peak","source":"bing","sport":"climbing"}},"1987816473":{"lat":50.9629356,"lon":14.065612,"ts":"2020-12-06T18:06:00Z","tz":1,"tags":{"climbing:grade:saxon:min":"II","climbing:rock":"sandstone","climbing:summit_log":"yes","climbing:trad":"yes","name":"Wilddieb","natural":"peak","source":"bing","sport":"climbing"}},"1987818317":{"lat":50.9612394,"lon":14.0684121,"ts":"2020-12-06T18:06:00Z","tz":1,"tags":{"climbing:grade:saxon:min":"V","climbing:rock":"sandstone","climbing:summit_log":"yes","climbing:trad":"yes","name":"Adolf-Hermann-Fels","natural":"peak","source":"bing","sport":"climbing"}},"1987818318":{"lat":50.9619475,"lon":14.0691826,"ts":"2020-12-06T18:06:00Z","tz":1,"tags":{"climbing:grade:saxon:min":"IV","climbing:rock":"sandstone","climbing:summit_log":"yes","climbing:trad":"yes","name":"Bergpirat","natural":"peak","source":"bing","sport":"climbing"}},"1987835706":{"lat":50.9619023,"lon":14.0707066,"ts":"2020-12-06T18:06:00Z","tz":1,"tags":{"climbing:grade:saxon:min":"IV","climbing:rock":"sandstone","climbing:summit_log":"yes","climbing:trad":"yes","name":"Basteiturm","natural":"peak","source":"bing","sport":"climbing"}},"1987835713":{"lat":50.9615784,"lon":14.07551,"ts":"2019-02-10T08:46:53Z","tz":1,"tags":{"climbing:abseiling":"1","climbing:grade:saxon:min":"II","climbing:rock":"sandstone","climbing:summit_log":"yes","climbing:trad":"yes","name":"Biene","natural":"peak","source":"GPS on top","sport":"climbing"}},"1987835717":{"lat":50.9617817,"lon":14.0733126,"ts":"2020-12-06T18:06:00Z","tz":1,"tags":{"climbing:grade:saxon:min":"VIIb","climbing:rock":"sandstone","climbing:summit_log":"yes","climbing:trad":"yes","name":"Langer Israel","natural":"peak","source":"bing","sport":"climbing"}},"1987835725":{"lat":50.9615153,"lon":14.0736417,"ts":"2020-12-06T18:06:00Z","tz":1,"tags":{"alt_name":"Kleine Steinschleuder","climbing:grade:saxon:min":"III","climbing:rock":"sandstone","climbing:summit_log":"yes","climbing:trad":"yes","name":"Neurathener Felsentor","natural":"peak","source":"bing","sport":"climbing"}},"1987835732":{"lat":50.961741,"lon":14.0734636,"ts":"2020-12-06T18:06:00Z","tz":1,"tags":{"climbing:grade:saxon:min":"VI","climbing:rock":"sandstone","climbing:summit_log":"yes","climbing:trad":"yes","name":"Reh","natural":"peak","source":"bing","sport":"climbing"}},"1987835739":{"lat":50.9608535,"lon":14.0755482,"ts":"2024-02-19T14:53:13Z","tz":1,"tags":{"climbing:grade:saxon:min":"VI","climbing:rock":"sandstone","climbing:summit_log":"yes","climbing:trad":"yes","name":"Tiedgestein","natural":"peak","source":"bing","sport":"climbing","wikidata":"Q25388720"}},"1987835753":{"lat":50.9619428,"lon":14.0750197,"ts":"2022-07-27T08:43:22Z","tz":1,"tags":{"climbing:grade:saxon:min":"IV","climbing:rock":"sandstone","climbing:summit_log":"yes","climbing:trad":"yes","name":"Verlorener Turm","natural":"peak","source":"bing","sport":"climbing"}},"1988539694":{"lat":50.9620599,"lon":14.0730462,"ts":"2020-12-06T18:06:00Z","tz":1,"tags":{"climbing:grade:saxon:min":"VI","climbing:rock":"sandstone","climbing:summit_log":"yes","climbing:trad":"yes","name":"Basteischluchtturm","natural":"peak","source":"bing","sport":"climbing"}},"1988539695":{"lat":50.9629746,"lon":14.0732287,"ts":"2020-12-06T18:06:00Z","tz":1,"tags":{"climbing:grade:saxon:min":"IV","climbing:rock":"sandstone","climbing:summit_log":"yes","climbing:trad":"yes","name":"Großer Wehlturm","natural":"peak","source":"bing","sport":"climbing"}},"1988539696":{"lat":50.9627435,"lon":14.0732439,"ts":"2020-12-06T18:06:00Z","tz":1,"tags":{"climbing:grade:saxon:min":"IV","climbing:rock":"sandstone","climbing:summit_log":"yes","climbing:trad":"yes","name":"Kleiner Wehlturm","natural":"peak","source":"bing","sport":"climbing"}},"1988539697":{"lat":50.9627718,"lon":14.073052,"ts":"2020-12-06T18:06:00Z","tz":1,"tags":{"climbing:grade:saxon:min":"II","climbing:rock":"sandstone","climbing:summit_log":"yes","climbing:trad":"yes","name":"Mittlerer Wehlturm","natural":"peak","source":"bing","sport":"climbing"}},"1988539699":{"lat":50.9626157,"lon":14.0731648,"ts":"2020-12-06T18:06:00Z","tz":1,"tags":{"climbing:grade:saxon:min":"III","climbing:rock":"sandstone","climbing:summit_log":"yes","climbing:trad":"yes","name":"Wehlkopf","natural":"peak","source":"bing","sport":"climbing"}},"1988611532":{"lat":50.9628529,"lon":14.072675,"ts":"2020-12-06T18:06:00Z","tz":1,"tags":{"climbing:grade:saxon:min":"III","climbing:rock":"sandstone","climbing:summit_log":"yes","climbing:trad":"yes","name":"Ferdinandturm","natural":"peak","source":"bing","sport":"climbing"}},"1988611539":{"lat":50.9628332,"lon":14.0726073,"ts":"2020-12-06T18:06:00Z","tz":1,"tags":{"climbing:grade:saxon:min":"V","climbing:rock":"sandstone","climbing:summit_log":"yes","climbing:trad":"yes","name":"Pate","natural":"peak","source":"bing","sport":"climbing"}},"1988611544":{"lat":50.9630592,"lon":14.0725593,"ts":"2020-12-06T18:06:00Z","tz":1,"tags":{"climbing:grade:saxon:min":"III","climbing:rock":"sandstone","climbing:summit_log":"yes","climbing:trad":"yes","name":"Taufstein","natural":"peak","source":"bing","sport":"climbing"}},"1988665452":{"lat":50.9633311,"lon":14.071731,"ts":"2020-12-06T18:06:00Z","tz":1,"tags":{"climbing:grade:saxon:min":"VI","climbing:rock":"sandstone","climbing:summit_log":"yes","climbing:trad":"yes","name":"Basteiwächter","natural":"peak","source":"bing","sport":"climbing"}},"1988665454":{"lat":50.9645448,"lon":14.0738226,"ts":"2020-12-06T18:06:00Z","tz":1,"tags":{"climbing:grade:saxon:min":"III","climbing:rock":"sandstone","climbing:summit_log":"yes","climbing:trad":"yes","name":"Bergfreund","natural":"peak","source":"bing","sport":"climbing"}},"1988665455":{"lat":50.9630397,"lon":14.0718989,"ts":"2020-12-06T18:06:00Z","tz":1,"tags":{"climbing:grade:saxon:min":"V","climbing:rock":"sandstone","climbing:summit_log":"yes","climbing:trad":"yes","name":"Felsensportturm","natural":"peak","source":"bing","sport":"climbing"}},"1988665456":{"lat":50.9630903,"lon":14.0716177,"ts":"2020-12-06T18:06:00Z","tz":1,"tags":{"climbing:grade:saxon:min":"VI","climbing:rock":"sandstone","climbing:summit_log":"yes","climbing:trad":"yes","name":"Felsensternscheibe","natural":"peak","source":"bing","sport":"climbing"}},"1988665458":{"lat":50.964018,"lon":14.0767128,"ts":"2020-12-06T18:06:00Z","tz":1,"tags":{"climbing:grade:saxon:min":"III","climbing:rock":"sandstone","climbing:summit_log":"yes","climbing:trad":"yes","name":"Ganskopf","natural":"peak","source":"bing","sport":"climbing"}},"1988665459":{"lat":50.964734,"lon":14.0738145,"ts":"2020-12-06T18:06:00Z","tz":1,"tags":{"climbing:grade:saxon:min":"II","climbing:rock":"sandstone","climbing:summit_log":"yes","climbing:trad":"yes","name":"Schalk","natural":"peak","source":"bing","sport":"climbing"}},"1988665461":{"lat":50.9642409,"lon":14.0740907,"ts":"2020-12-06T18:06:00Z","tz":1,"tags":{"climbing:grade:saxon:min":"V","climbing:rock":"sandstone","climbing:summit_log":"yes","climbing:trad":"yes","name":"Souffleur","natural":"peak","source":"bing","sport":"climbing"}},"1988665462":{"lat":50.9649295,"lon":14.0731513,"ts":"2020-12-06T18:06:00Z","tz":1,"tags":{"climbing:grade:saxon:min":"II","climbing:rock":"sandstone","climbing:summit_log":"yes","climbing:trad":"yes","name":"Statist","natural":"peak","source":"bing","sport":"climbing"}},"1988665463":{"lat":50.9629799,"lon":14.0718333,"ts":"2020-12-06T18:06:00Z","tz":1,"tags":{"climbing:grade:saxon:min":"IV","climbing:rock":"sandstone","climbing:summit_log":"yes","climbing:trad":"yes","name":"Zugvogelspitze","natural":"peak","source":"bing","sport":"climbing"}},"1990016422":{"lat":50.9649415,"lon":14.0763434,"ts":"2020-12-06T18:06:00Z","tz":1,"tags":{"climbing:grade:saxon:min":"III","climbing:rock":"sandstone","climbing:summit_log":"yes","climbing:trad":"yes","name":"Emir","natural":"peak","source":"bing","sport":"climbing"}},"1990016439":{"lat":50.9645663,"lon":14.0762101,"ts":"2020-12-06T18:06:00Z","tz":1,"tags":{"climbing:grade:saxon:min":"III","climbing:rock":"sandstone","climbing:summit_log":"yes","climbing:trad":"yes","name":"Gansturm","natural":"peak","source":"bing","sport":"climbing"}},"1990016447":{"lat":50.9653524,"lon":14.0757271,"ts":"2024-05-22T12:08:54Z","tz":1,"tags":{"climbing:grade:saxon:min":"I","climbing:rock":"sandstone","climbing:summit_log":"yes","climbing:trad":"yes","name":"Kulisse","natural":"peak","source":"bing","sport":"climbing"}},"1990016453":{"lat":50.9653486,"lon":14.0755251,"ts":"2020-12-06T18:06:00Z","tz":1,"tags":{"climbing:grade:saxon:min":"V","climbing:rock":"sandstone","climbing:summit_log":"yes","climbing:trad":"yes","name":"Raaber Kegel","natural":"peak","source":"bing","sport":"climbing"}},"1990016461":{"lat":50.9654418,"lon":14.0758227,"ts":"2020-12-06T18:06:00Z","tz":1,"tags":{"climbing:grade:saxon:min":"VIIa","climbing:rock":"sandstone","climbing:summit_log":"yes","climbing:trad":"yes","name":"Raaber Nadel","natural":"peak","source":"bing","sport":"climbing"}},"1990016466":{"lat":50.9652254,"lon":14.0758152,"ts":"2020-12-06T18:06:00Z","tz":1,"tags":{"climbing:grade:saxon:min":"V","climbing:rock":"sandstone","climbing:summit_log":"yes","climbing:trad":"yes","name":"Raaber Scheibe","natural":"peak","source":"bing","sport":"climbing"}},"1990016478":{"lat":50.9652515,"lon":14.0762186,"ts":"2020-12-06T18:06:00Z","tz":1,"tags":{"climbing:grade:saxon:min":"VIIb","climbing:rock":"sandstone","climbing:summit_log":"yes","climbing:trad":"yes","name":"Raaber Säule","natural":"peak","source":"bing","sport":"climbing"}},"1990016484":{"lat":50.9651494,"lon":14.0767668,"ts":"2020-12-06T18:06:00Z","tz":1,"tags":{"climbing:grade:saxon:min":"IV","climbing:rock":"sandstone","climbing:summit_log":"yes","climbing:trad":"yes","name":"Raaber Turm","natural":"peak","source":"bing","sport":"climbing"}},"1990016490":{"lat":50.9653593,"lon":14.0759886,"ts":"2020-12-06T18:06:00Z","tz":1,"tags":{"climbing:grade:saxon:min":"III","climbing:rock":"sandstone","climbing:summit_log":"yes","climbing:trad":"yes","name":"Raaber Wand","natural":"peak","source":"bing","sport":"climbing"}},"1990016496":{"lat":50.964974,"lon":14.0760365,"ts":"2020-12-06T18:06:00Z","tz":1,"tags":{"climbing:grade:saxon:min":"II","climbing:rock":"sandstone","climbing:summit_log":"yes","climbing:trad":"yes","name":"Scheich","natural":"peak","source":"bing","sport":"climbing"}},"1990016504":{"lat":50.9648006,"lon":14.0763143,"ts":"2020-12-06T18:06:00Z","tz":1,"tags":{"climbing:grade:saxon:min":"II","climbing:rock":"sandstone","climbing:summit_log":"yes","climbing:trad":"yes","name":"Suleika","natural":"peak","source":"bing","sport":"climbing"}},"1990016518":{"lat":50.9650807,"lon":14.076164,"ts":"2020-12-06T18:06:00Z","tz":1,"tags":{"climbing:grade:saxon:min":"V","climbing:rock":"sandstone","climbing:summit_log":"yes","climbing:trad":"yes","name":"Trockener Turm","natural":"peak","source":"bing","sport":"climbing"}},"2122886021":{"lat":50.9766442,"lon":14.1087558,"ts":"2020-12-06T18:06:00Z","tz":1,"tags":{"climbing:grade:saxon:min":"VI","climbing:rock":"sandstone","climbing:summit_log":"yes","climbing:trad":"yes","name":"Bärengartenscheibe","natural":"peak","sport":"climbing"}},"2260819397":{"lat":50.9673524,"lon":14.0787741,"ts":"2021-03-07T12:11:41Z","tz":1,"tags":{"climbing:grade:saxon:min":"II","climbing:rock":"sandstone","climbing:summit_log":"yes","climbing:trad":"yes","name":"Admiral","natural":"peak","sport":"climbing"}},"2260819399":{"lat":50.9665181,"lon":14.0789841,"ts":"2021-02-27T19:57:55Z","tz":1,"tags":{"climbing:grade:saxon:min":"IV","climbing:rock":"sandstone","climbing:summit_log":"yes","climbing:trad":"yes","name":"Amselgrundnadel","natural":"peak","sport":"climbing"}},"2260819400":{"lat":50.969292,"lon":14.0766368,"ts":"2021-02-27T19:57:55Z","tz":1,"tags":{"climbing:grade:saxon:min":"II","climbing:rock":"sandstone","climbing:summit_log":"yes","climbing:trad":"yes","name":"Amselgrundturm","natural":"peak","sport":"climbing"}},"2260819401":{"lat":50.9657477,"lon":14.0794658,"ts":"2021-02-27T19:57:55Z","tz":1,"tags":{"climbing:grade:saxon:min":"VI","climbing:rock":"sandstone","climbing:summit_log":"yes","climbing:trad":"yes","name":"Amselspitze","natural":"peak","sport":"climbing"}},"2260819404":{"lat":50.9626799,"lon":14.0719326,"ts":"2021-02-27T19:57:55Z","tz":1,"tags":{"climbing:grade:saxon:min":"III","climbing:rock":"sandstone","climbing:summit_log":"yes","climbing:trad":"yes","name":"Aschelochturm","natural":"peak","sport":"climbing"}},"2260819406":{"lat":50.9604034,"lon":14.128501,"ts":"2021-02-27T19:57:55Z","tz":1,"tags":{"climbing:grade:saxon:min":"II","climbing:rock":"sandstone","climbing:summit_log":"yes","climbing:trad":"yes","name":"Auguste","natural":"peak","sport":"climbing"}},"2260819407":{"lat":50.965698,"lon":14.0717597,"ts":"2021-02-27T19:57:55Z","tz":1,"tags":{"climbing:grade:saxon:min":"V","climbing:rock":"sandstone","climbing:summit_log":"yes","climbing:trad":"yes","name":"Axelturm","natural":"peak","sport":"climbing"}},"2260819409":{"lat":50.9651351,"lon":14.1110345,"ts":"2021-02-27T19:57:55Z","tz":1,"tags":{"climbing:grade:saxon:min":"I","climbing:rock":"sandstone","climbing:summit_log":"yes","climbing:trad":"yes","name":"Begangsteigriff","natural":"peak","sport":"climbing"}},"2260819413":{"lat":50.9660467,"lon":14.0709714,"ts":"2021-02-27T19:57:55Z","tz":1,"tags":{"climbing:grade:saxon:min":"III","climbing:rock":"sandstone","climbing:summit_log":"yes","climbing:trad":"yes","name":"Bierturm","natural":"peak","sport":"climbing"}},"2260819429":{"lat":50.9659257,"lon":14.0779891,"ts":"2021-02-27T19:57:55Z","tz":1,"tags":{"climbing:grade:saxon:min":"IV","climbing:rock":"sandstone","climbing:summit_log":"yes","climbing:trad":"yes","name":"Flax","natural":"peak","sport":"climbing"}},"2260819438":{"lat":50.9651382,"lon":14.070813,"ts":"2021-02-27T19:57:55Z","tz":1,"tags":{"climbing:grade:saxon:min":"IV","climbing:rock":"sandstone","climbing:summit_log":"yes","climbing:trad":"yes","name":"Grafenspitze","natural":"peak","sport":"climbing"}},"2260819440":{"lat":50.9661042,"lon":14.0779533,"ts":"2021-02-27T19:57:55Z","tz":1,"tags":{"climbing:grade:saxon:min":"IV","climbing:rock":"sandstone","climbing:summit_log":"yes","climbing:trad":"yes","name":"Große-Gans-Wächter","natural":"peak","sport":"climbing"}},"2260819453":{"lat":50.9660021,"lon":14.0859087,"ts":"2021-02-27T19:57:55Z","tz":1,"tags":{"climbing:grade:saxon:min":"II","climbing:rock":"sandstone","climbing:summit_log":"yes","climbing:trad":"yes","name":"Honigsteinturm","natural":"peak","sport":"climbing"}},"2260819456":{"lat":50.9653393,"lon":14.0718033,"ts":"2021-02-27T19:57:55Z","tz":1,"tags":{"climbing:grade:saxon:min":"V","climbing:rock":"sandstone","climbing:summit_log":"yes","climbing:trad":"yes","name":"Kanzelscheibe","natural":"peak","sport":"climbing"}},"2260819469":{"lat":50.9655514,"lon":14.079482,"ts":"2021-02-27T19:57:55Z","tz":1,"tags":{"climbing:grade:saxon:min":"II","climbing:rock":"sandstone","climbing:summit_log":"yes","climbing:trad":"yes","name":"Maxl","natural":"peak","sport":"climbing"}},"2260819473":{"lat":50.9663112,"lon":14.1147973,"ts":"2021-05-04T18:45:50Z","tz":1,"tags":{"climbing:grade:saxon:min":"V","climbing:rock":"sandstone","climbing:summit_log":"yes","climbing:trad":"yes","name":"Neuwegwand","natural":"peak","sport":"climbing"}},"2260819491":{"lat":50.9695513,"lon":14.0748375,"ts":"2021-02-27T19:57:55Z","tz":1,"tags":{"climbing:grade:saxon:min":"VI","climbing:rock":"sandstone","climbing:summit_log":"yes","climbing:trad":"yes","name":"Schwedenscheibe","natural":"peak","sport":"climbing"}},"2260819492":{"lat":50.969764,"lon":14.0747833,"ts":"2023-06-27T15:13:50Z","tz":1,"tags":{"climbing:grade:saxon:min":"V","climbing:rock":"sandstone","climbing:summit_log":"yes","climbing:trad":"yes","name":"Schwedenturm","natural":"peak","sport":"climbing","wikidata":"Q925344","wikipedia":"de:Schwedenturm (Fels)"}},"2260819494":{"lat":50.9660519,"lon":14.0772732,"ts":"2021-02-27T19:57:55Z","tz":1,"tags":{"climbing:grade:saxon:min":"III","climbing:rock":"sandstone","climbing:summit_log":"yes","climbing:trad":"yes","name":"Sechserturm","natural":"peak","sport":"climbing"}},"2260819503":{"lat":50.9660479,"lon":14.0778719,"ts":"2021-02-27T19:57:55Z","tz":1,"tags":{"climbing:grade:saxon:min":"IV","climbing:rock":"sandstone","climbing:summit_log":"yes","climbing:trad":"yes","name":"Struppi","natural":"peak","sport":"climbing"}},"2260819507":{"lat":50.9603177,"lon":14.1312012,"ts":"2020-12-06T18:06:00Z","tz":1,"tags":{"climbing:grade:saxon:min":"VIIa","climbing:rock":"sandstone","climbing:summit_log":"yes","climbing:trad":"yes","name":"Tiefer-Grund-Turm","natural":"peak","sport":"climbing"}},"2260819509":{"lat":50.968538,"lon":14.077936,"ts":"2021-02-27T19:57:55Z","tz":1,"tags":{"climbing:grade:saxon:min":"IV","climbing:rock":"sandstone","climbing:summit_log":"yes","climbing:trad":"yes","name":"Totenkirchl","natural":"peak","sport":"climbing"}},"2260819516":{"lat":50.9657582,"lon":14.079242,"ts":"2021-02-27T19:57:55Z","tz":1,"tags":{"climbing:grade:saxon:min":"III","climbing:rock":"sandstone","climbing:summit_log":"yes","climbing:trad":"yes","name":"Vexiernadel","natural":"peak","sport":"climbing"}},"2260819517":{"lat":50.9661979,"lon":14.0793582,"ts":"2021-02-27T19:57:55Z","tz":1,"tags":{"climbing:grade:saxon:min":"VI","climbing:rock":"sandstone","climbing:summit_log":"yes","climbing:trad":"yes","name":"Vexierturm","natural":"peak","sport":"climbing"}},"2260819519":{"lat":50.9659528,"lon":14.0705017,"ts":"2021-02-27T19:57:55Z","tz":1,"tags":{"climbing:grade:saxon:min":"II","climbing:rock":"sandstone","climbing:summit_log":"yes","climbing:trad":"yes","name":"Wassermann","natural":"peak","sport":"climbing"}},"2260819521":{"lat":50.9649137,"lon":14.0710136,"ts":"2021-02-27T19:57:55Z","tz":1,"tags":{"climbing:grade:saxon:min":"V","climbing:rock":"sandstone","climbing:summit_log":"yes","climbing:trad":"yes","name":"Wehlgrundspitze","natural":"peak","sport":"climbing"}},"2260819522":{"lat":50.9650088,"lon":14.0708492,"ts":"2021-02-27T19:57:55Z","tz":1,"tags":{"climbing:grade:saxon:min":"V","climbing:rock":"sandstone","climbing:summit_log":"yes","climbing:trad":"yes","name":"Wehlgrundwächter","natural":"peak","sport":"climbing"}},"2260819523":{"lat":50.9636846,"lon":14.0711073,"ts":"2021-02-27T19:57:55Z","tz":1,"tags":{"climbing:grade:saxon:min":"II","climbing:rock":"sandstone","climbing:summit_log":"yes","climbing:trad":"yes","name":"Wehlhorn","natural":"peak","sport":"climbing"}},"2260819526":{"lat":50.9657859,"lon":14.0780476,"ts":"2021-02-27T19:57:55Z","tz":1,"tags":{"climbing:grade:saxon:min":"IV","climbing:rock":"sandstone","climbing:summit_log":"yes","climbing:trad":"yes","name":"Westlicher Turm der Jugend","natural":"peak","sport":"climbing"}},"2260819531":{"lat":50.9647102,"lon":14.0703851,"ts":"2021-02-27T19:57:55Z","tz":1,"tags":{"climbing:grade:saxon:min":"III","climbing:rock":"sandstone","climbing:summit_log":"yes","climbing:trad":"yes","name":"Witzbold","natural":"peak","sport":"climbing"}},"2260819536":{"lat":50.9647647,"lon":14.0700861,"ts":"2021-02-27T19:57:55Z","tz":1,"tags":{"climbing:grade:saxon:min":"III","climbing:rock":"sandstone","climbing:summit_log":"yes","climbing:trad":"yes","name":"Zitronenkopf","natural":"peak","sport":"climbing"}},"2262043675":{"lat":50.9704112,"lon":14.1040571,"ts":"2021-02-27T19:57:55Z","tz":1,"tags":{"climbing:grade:saxon:min":"II","climbing:rock":"sandstone","climbing:summit_log":"yes","climbing:trad":"yes","name":"Berken-von-der-Duba-Wacht","natural":"peak","sport":"climbing"}},"2262043679":{"lat":50.9666088,"lon":14.0835255,"ts":"2021-02-27T19:57:55Z","tz":1,"tags":{"climbing:grade:saxon:min":"II","climbing:rock":"sandstone","climbing:summit_log":"yes","climbing:trad":"yes","name":"Bienenkorb","natural":"peak","sport":"climbing"}},"2262043716":{"lat":50.965438,"lon":14.0790017,"ts":"2021-02-27T19:57:55Z","tz":1,"tags":{"climbing:grade:saxon:min":"II","climbing:rock":"sandstone","climbing:summit_log":"yes","climbing:trad":"yes","name":"Dresdner Turm","natural":"peak","sport":"climbing"}},"2271811826":{"lat":50.9668478,"lon":14.0830376,"ts":"2021-02-27T19:57:55Z","tz":1,"tags":{"climbing:grade:saxon:min":"III","climbing:rock":"sandstone","climbing:summit_log":"yes","climbing:trad":"yes","name":"Storchnest","natural":"peak","sport":"climbing"}},"2274002260":{"lat":50.9644172,"lon":14.0694363,"ts":"2021-02-27T19:57:55Z","tz":1,"tags":{"climbing:grade:saxon:min":"VI","climbing:rock":"sandstone","climbing:summit_log":"yes","climbing:trad":"yes","name":"Hinterer Basteiturm","natural":"peak","sport":"climbing"}},"2274002274":{"lat":50.9636146,"lon":14.0704386,"ts":"2021-02-27T19:57:55Z","tz":1,"tags":{"climbing:grade:saxon:min":"II","climbing:rock":"sandstone","climbing:summit_log":"yes","climbing:trad":"yes","name":"Höhlenturm","natural":"peak","sport":"climbing"}},"2274002275":{"lat":50.9662237,"lon":14.0764523,"ts":"2021-02-27T19:57:55Z","tz":1,"tags":{"climbing:grade:saxon:min":"VI","climbing:rock":"sandstone","climbing:summit_log":"yes","climbing:trad":"yes","name":"Höllenhundscheibe","natural":"peak","sport":"climbing"}},"2274002276":{"lat":50.965781,"lon":14.0776206,"ts":"2021-02-27T19:57:55Z","tz":1,"tags":{"climbing:grade:saxon:min":"V","climbing:rock":"sandstone","climbing:summit_log":"yes","climbing:trad":"yes","name":"Höllenhundwächter","natural":"peak","sport":"climbing"}},"2274002281":{"lat":50.9674716,"lon":14.0786386,"ts":"2021-03-07T12:11:41Z","tz":1,"tags":{"climbing:grade:saxon:min":"III","climbing:rock":"sandstone","climbing:summit_log":"yes","climbing:trad":"yes","name":"Klabautermann","natural":"peak","sport":"climbing"}},"2274002288":{"lat":50.9660177,"lon":14.0778321,"ts":"2021-02-27T19:57:55Z","tz":1,"tags":{"climbing:grade:saxon:min":"IV","climbing:rock":"sandstone","climbing:summit_log":"yes","climbing:trad":"yes","name":"Krümel","natural":"peak","sport":"climbing"}},"2274002291":{"lat":50.9654162,"lon":14.0852031,"ts":"2021-02-27T19:57:55Z","tz":1,"tags":{"climbing:grade:saxon:min":"III","climbing:rock":"sandstone","climbing:summit_log":"yes","climbing:trad":"yes","name":"Lammscheibe","natural":"peak","sport":"climbing"}},"2274002296":{"lat":50.9658774,"lon":14.0776225,"ts":"2021-02-27T19:57:55Z","tz":1,"tags":{"climbing:grade:saxon:min":"IV","climbing:rock":"sandstone","climbing:summit_log":"yes","climbing:trad":"yes","name":"Maitürmchen","natural":"peak","sport":"climbing"}},"2274002300":{"lat":50.9657543,"lon":14.0771975,"ts":"2021-02-27T19:57:55Z","tz":1,"tags":{"climbing:grade:saxon:min":"IV","climbing:rock":"sandstone","climbing:summit_log":"yes","climbing:trad":"yes","name":"Mittlerer Höllenhundturm","natural":"peak","sport":"climbing"}},"2274002313":{"lat":50.9660037,"lon":14.0776553,"ts":"2021-02-27T19:57:55Z","tz":1,"tags":{"climbing:grade:saxon:min":"III","climbing:rock":"sandstone","climbing:summit_log":"yes","climbing:trad":"yes","name":"Mücke","natural":"peak","sport":"climbing"}},"2274002336":{"lat":50.9654578,"lon":14.0720192,"ts":"2021-02-27T19:57:55Z","tz":1,"tags":{"climbing:grade:saxon:min":"III","climbing:rock":"sandstone","climbing:summit_log":"yes","climbing:trad":"yes","name":"Pavillonwächter","natural":"peak","sport":"climbing"}},"2274002361":{"lat":50.96532,"lon":14.07958,"ts":"2021-02-27T19:57:55Z","tz":1,"tags":{"climbing:grade:saxon:min":"II","climbing:rock":"sandstone","climbing:summit_log":"yes","climbing:trad":"yes","name":"Rathener Warte","natural":"peak","sport":"climbing"}},"2274002382":{"lat":50.9646419,"lon":14.069467,"ts":"2021-02-27T19:57:55Z","tz":1,"tags":{"climbing:grade:saxon:min":"II","climbing:rock":"sandstone","climbing:summit_log":"yes","climbing:trad":"yes","name":"Schneider Wibbel","natural":"peak","sport":"climbing"}},"2274002387":{"lat":50.9627027,"lon":14.0723856,"ts":"2021-02-27T19:57:55Z","tz":1,"tags":{"climbing:grade:saxon:min":"III","climbing:rock":"sandstone","climbing:summit_log":"yes","climbing:trad":"yes","name":"Schwarze Säule","natural":"peak","sport":"climbing"}},"2274002443":{"lat":50.9611815,"lon":14.1305082,"ts":"2020-12-06T18:06:00Z","tz":1,"tags":{"climbing:grade:saxon:min":"II","climbing:rock":"sandstone","climbing:summit_log":"yes","climbing:trad":"yes","name":"Tiefe Wand","natural":"peak","sport":"climbing"}},"2274002444":{"lat":50.9605191,"lon":14.1309987,"ts":"2020-12-06T18:06:00Z","tz":1,"tags":{"climbing:grade:saxon:min":"VIIa","climbing:rock":"sandstone","climbing:summit_log":"yes","climbing:trad":"yes","name":"Tiefer-Grund-Wächter","natural":"peak","sport":"climbing"}},"2274002464":{"lat":50.9657084,"lon":14.0772422,"ts":"2021-02-27T19:57:55Z","tz":1,"tags":{"climbing:grade:saxon:min":"VI","climbing:rock":"sandstone","climbing:summit_log":"yes","climbing:trad":"yes","name":"Vorderer Höllenhundturm","natural":"peak","sport":"climbing"}},"2274002524":{"lat":50.9649081,"lon":14.1001842,"ts":"2021-02-27T19:57:55Z","tz":1,"tags":{"climbing:grade:saxon:min":"V","climbing:rock":"sandstone","climbing:summit_log":"yes","climbing:trad":"yes","name":"Ziegenrückenturm","natural":"peak","sport":"climbing"}},"2384481791":{"lat":50.965354,"lon":14.0787773,"ts":"2021-02-27T19:57:55Z","tz":1,"tags":{"climbing:grade:saxon:min":"II","climbing:rock":"sandstone","climbing:summit_log":"yes","climbing:trad":"yes","name":"Luginsland","natural":"peak","sport":"climbing"}},"2485281921":{"lat":50.9640941,"lon":14.1137532,"ts":"2021-02-27T19:57:55Z","tz":1,"tags":{"climbing:grade:saxon:min":"II","climbing:rock":"sandstone","climbing:summit_log":"yes","climbing:trad":"yes","name":"Saugrundspitze","natural":"peak","sport":"climbing"}},"2720687863":{"lat":50.9645385,"lon":14.0707651,"ts":"2021-02-27T19:57:55Z","tz":1,"tags":{"climbing:grade:saxon:min":"VIIa","climbing:rock":"sandstone","climbing:summit_log":"yes","climbing:trad":"yes","name":"Wehlscheibe","natural":"peak","sport":"climbing"}},"3626781688":{"lat":50.9640404,"lon":14.0695943,"ts":"2021-02-27T19:57:55Z","tz":1,"tags":{"climbing:grade:saxon:min":"V","climbing:rock":"sandstone","climbing:summit_log":"yes","climbing:trad":"yes","name":"Doppelkopf","natural":"peak","sport":"climbing"}},"3626781689":{"lat":50.9643926,"lon":14.0692826,"ts":"2021-02-27T19:57:55Z","tz":1,"tags":{"climbing:grade:saxon:min":"III","climbing:rock":"sandstone","climbing:summit_log":"yes","climbing:trad":"yes","name":"Wehlkegel","natural":"peak","sport":"climbing"}},"4267971718":{"lat":50.9620547,"lon":14.0727658,"ts":"2020-12-06T18:06:00Z","tz":1,"tags":{"climbing:grade:saxon:min":"IV","climbing:rock":"sandstone","climbing:summit_log":"yes","climbing:trad":"yes","name":"Rudolf-Holtz-Turm","natural":"peak","source":"bing","sport":"climbing"}},"4424239551":{"lat":50.9654751,"lon":14.0725456,"ts":"2020-12-06T18:06:00Z","tz":1,"tags":{"climbing:grade:saxon:min":"IV","climbing:rock":"sandstone","climbing:summit_log":"yes","climbing:trad":"yes","name":"Echse","natural":"peak","source":"bing","sport":"climbing"}},"4424239552":{"lat":50.9654179,"lon":14.0724852,"ts":"2020-12-06T18:06:00Z","tz":1,"tags":{"climbing:grade:saxon:min":"V","climbing:rock":"sandstone","climbing:summit_log":"yes","climbing:trad":"yes","name":"Habicht","natural":"peak","source":"bing","sport":"climbing"}},"4781561981":{"lat":50.9619637,"lon":14.1097906,"ts":"2021-07-08T13:40:27Z","tz":1,"tags":{"climbing:grade:saxon:min":"III","climbing:rock":"sandstone","climbing:summit_log":"yes","climbing:trad":"yes","name":"Archipel","natural":"peak","sport":"climbing"}},"5097220138":{"lat":50.9658882,"lon":14.0770444,"ts":"2021-02-27T19:57:55Z","tz":1,"tags":{"climbing:grade:saxon:min":"III","climbing:rock":"sandstone","climbing:summit_log":"yes","climbing:trad":"yes","name":"Hinterer Höllenhundturm","natural":"peak","sport":"climbing"}},"6306628642":{"lat":50.9621895,"lon":14.0865152,"ts":"2021-07-09T12:34:27Z","tz":1,"tags":{"climbing:grade:saxon:min":"III","climbing:rock":"sandstone","climbing:summit_log":"yes","climbing:trad":"yes","importance":"1.0","name":"Türkenkopf","natural":"peak","source":"GPS on top","sport":"climbing"}},"6407565271":{"lat":50.9793989,"lon":14.1083015,"ts":"2023-09-04T05:41:59Z","tz":1,"tags":{"leisure":"sports","name":"Kletterwand","sport":"climbing"}},"6600270432":{"lat":50.965658,"lon":14.078168,"ts":"2021-02-27T19:57:55Z","tz":1,"tags":{"climbing:grade:saxon:min":"III","climbing:rock":"sandstone","climbing:summit_log":"yes","climbing:trad":"yes","name":"Östlicher Turm der Jugend","natural":"peak","sport":"climbing"}},"8994336936":{"lat":50.9650269,"lon":14.1089101,"ts":"2021-08-09T21:56:54Z","tz":1,"tags":{"climbing:grade:saxon:min":"III","climbing:rock":"sandstone","climbing:trad":"yes","name":"Archipel","natural":"peak","sport":"climbing"}},"12426846984":{"lat":50.9585726,"lon":14.0967719,"ts":"2024-12-17T19:13:58Z","tz":1,"tags":{"climbing":"route_bottom","climbing:grade:saxon":"V","name":"Alter Weg"}},"12426846985":{"lat":50.9585952,"lon":14.0967039,"ts":"2024-12-17T19:13:58Z","tz":1,"tags":{"climbing":"route_bottom","climbing:grade:saxon":"V","name":"Südweg"}},"12426866147":{"lat":50.9587869,"lon":14.0965747,"ts":"2024-12-17T19:21:56Z","tz":1,"tags":{"climbing":"route_bottom","climbing:grade:saxon":"III","name":"Alter Weg"}},"12426866148":{"lat":50.9587988,"lon":14.0964801,"ts":"2024-12-17T19:27:41Z","tz":1,"tags":{"climbing":"route_bottom","climbing:grade:saxon":"III","name":"Südwestrippe","wikimedia_commons:2":"File:Heidestein_south_face.jpg","wikimedia_commons:2:path":"0.747,0.928|0.649,0.449|0.747,0.416|0.489,0.033"}},"12426866149":{"lat":50.9588108,"lon":14.0964566,"ts":"2024-12-17T19:21:56Z","tz":1,"tags":{"climbing":"route_bottom","climbing:grade:saxon":"VIIb","name":"Fragezeichen"}},"12426866150":{"lat":50.9588151,"lon":14.0964384,"ts":"2024-12-17T19:21:56Z","tz":1,"tags":{"climbing":"route_bottom","climbing:grade:saxon":"VIIa","name":"Abendreibung"}}}