{"10583595":{"lat":50.710813,"lon":14.211889,"ts":"2020-10-19T13:10:02Z","tz":1,"tags":{"climbing":"route","name":"Via Ferrata Vrabinec","route":"via_ferrata","type":"route","via_ferrata_scale":"3"}},"10592357":{"lat":50.6903539,"lon":14.1132258,"ts":"2022-10-18T18:57:56Z","tz":1,"tags":{"climbing":"route","name":"Via Ferrata Poustevna","route":"via_ferrata","type":"route","via_ferrata_scale":"3"}},"14723608":{"lat":50.6746978,"lon":14.1611399,"ts":"2022-10-23T15:48:17Z","tz":1,"tags":{"architect":"Karel Bělina","climbing":"route","name":"Via Ferrata Povrly","route":"via_ferrata","type":"route","via_ferrata_scale":"3"}},"17432679":{"lat":50.6342377,"lon":14.0719783,"ts":"2024-06-16T21:29:39Z","tz":1,"tags":{"climbing":"crag","name":"Stěna svahu","site":"climbing","sport":"climbing","type":"site","website":"https://www.horosvaz.cz/skaly-skala-88/","wikimedia_commons":"File:Brná - Vrcholová věž2.jpg"}},"17435700":{"lat":50.6342978,"lon":14.0722663,"ts":"2024-06-16T21:17:25Z","tz":1,"tags":{"climbing":"crag","name":"Vrcholová věž","site":"climbing","sport":"climbing","type":"site","website":"https://www.horosvaz.cz/skaly-skala-87/","wikimedia_commons":"File:Brná - Vrcholová věž.jpg","wikimedia_commons:2":"File:Brná - Vrcholová věž2.jpg"}},"17654707":{"lat":50.6517075,"lon":14.1731547,"ts":"2024-10-09T15:24:42Z","tz":1,"tags":{"climbing":"crag","name":"Sokolí stěna","site":"climbing","sport":"climbing","type":"site","website":"https://www.horosvaz.cz/skaly-skala-16423/"}},"700792148":{"lat":50.7106391,"lon":14.2117263,"ts":"2019-07-01T07:50:44Z","tz":1,"tags":{"natural":"cliff","sport":"climbing"}},"700792149":{"lat":50.7106425,"lon":14.2112751,"ts":"2019-07-01T07:50:44Z","tz":1,"tags":{"natural":"cliff","sport":"climbing"}},"700792151":{"lat":50.7109626,"lon":14.2120224,"ts":"2019-07-01T07:50:44Z","tz":1,"tags":{"natural":"cliff","sport":"climbing"}},"4129952484":{"lat":50.5869202,"lon":14.0844677,"ts":"2016-04-18T09:12:01Z","tz":1,"tags":{"name":"Bivaková stěna","natural":"rock","sport":"climbing"}},"4129952485":{"lat":50.5865533,"lon":14.0861316,"ts":"2016-04-18T09:12:01Z","tz":1,"tags":{"name":"Bobek","natural":"rock","sport":"climbing"}},"4129952486":{"lat":50.5862475,"lon":14.0843926,"ts":"2016-04-18T09:12:02Z","tz":1,"tags":{"name":"Galerie","natural":"rock","sport":"climbing"}},"4129952487":{"lat":50.5866699,"lon":14.0839443,"ts":"2016-04-18T09:12:02Z","tz":1,"tags":{"name":"Hroch","natural":"rock","sport":"climbing"}},"4129952488":{"lat":50.5863038,"lon":14.0842769,"ts":"2016-04-18T09:12:02Z","tz":1,"tags":{"name":"Hruška","natural":"rock","sport":"climbing"}},"4129953589":{"lat":50.5866315,"lon":14.0860164,"ts":"2016-04-18T09:12:02Z","tz":1,"tags":{"name":"Malá krkavčí stěna","natural":"rock","sport":"climbing"}},"4129953591":{"lat":50.586905,"lon":14.084775,"ts":"2016-04-18T09:12:02Z","tz":1,"tags":{"name":"Polární stěna","natural":"rock","sport":"climbing"}},"4129953592":{"lat":50.586142,"lon":14.084706,"ts":"2016-04-18T09:12:02Z","tz":1,"tags":{"name":"Velká krkavčí stěna","natural":"rock","sport":"climbing"}},"4129953593":{"lat":50.5867261,"lon":14.0840462,"ts":"2016-04-18T09:12:02Z","tz":1,"tags":{"name":"Špunt","natural":"rock","sport":"climbing"}},"11793038553":{"lat":50.6342632,"lon":14.0721194,"ts":"2024-04-05T14:16:49Z","tz":1,"tags":{"climbing":"route_bottom","climbing:grade:uiaa":"3","name":"Okrajová cesta","sport":"climbing"}},"11793038554":{"lat":50.6342574,"lon":14.0721001,"ts":"2024-04-05T14:16:49Z","tz":1,"tags":{"climbing":"route_bottom","climbing:grade:uiaa":"3","name":"Krajní cesta","sport":"climbing"}},"11793038555":{"lat":50.6342512,"lon":14.0720757,"ts":"2024-04-05T14:16:49Z","tz":1,"tags":{"climbing":"route_bottom","climbing:grade:uiaa":"4","name":"Abeceda","sport":"climbing"}},"11793038556":{"lat":50.6342461,"lon":14.0720507,"ts":"2024-04-05T14:16:49Z","tz":1,"tags":{"climbing":"route_bottom","climbing:grade:uiaa":"3","name":"Slabikář","sport":"climbing"}},"11793038557":{"lat":50.6342435,"lon":14.0720246,"ts":"2024-04-05T14:16:49Z","tz":1,"tags":{"climbing":"route_bottom","climbing:grade:uiaa":"3","name":"Obyčejná levá","sport":"climbing"}},"11793038558":{"lat":50.6342412,"lon":14.0719974,"ts":"2024-04-05T14:16:49Z","tz":1,"tags":{"climbing":"route_bottom","climbing:grade:uiaa":"3","name":"Obyčejná pravá","sport":"climbing"}},"11793038559":{"lat":50.6342383,"lon":14.071973,"ts":"2024-04-05T14:16:49Z","tz":1,"tags":{"climbing":"route_bottom","climbing:grade:uiaa":"4","name":"Jackova cesta","sport":"climbing"}},"11793038560":{"lat":50.6342342,"lon":14.0719542,"ts":"2024-04-05T14:16:49Z","tz":1,"tags":{"climbing":"route_bottom","climbing:grade:uiaa":"4","name":"Ořechová","sport":"climbing"}},"11793038561":{"lat":50.6342295,"lon":14.07194,"ts":"2024-04-05T14:16:49Z","tz":1,"tags":{"climbing":"route_bottom","climbing:grade:uiaa":"4","name":"Břečťanová","sport":"climbing"}},"11793038562":{"lat":50.634224,"lon":14.0719201,"ts":"2024-04-05T14:16:49Z","tz":1,"tags":{"climbing":"route_bottom","climbing:grade:uiaa":"4","name":"Pěkná cesta","sport":"climbing"}},"11793038563":{"lat":50.634216,"lon":14.0718934,"ts":"2024-06-16T21:32:59Z","tz":1,"tags":{"climbing":"route_bottom","climbing:grade:uiaa":"4","name":"Cvičná cesta","sport":"climbing","wikimedia_commons":"File:Brná - Vrcholová věž2.jpg","wikimedia_commons:path":"0.003,0.408|0.177,0.185"}},"11793038564":{"lat":50.6342134,"lon":14.0718622,"ts":"2024-06-16T21:32:59Z","tz":1,"tags":{"climbing":"route_bottom","climbing:grade:uiaa":"5","name":"Americká cesta","sport":"climbing","wikimedia_commons":"File:Brná - Vrcholová věž2.jpg","wikimedia_commons:path":"0.066,0.893|0.094,0.502B|0.192,0.295B|0.243,0.203B|0.24,0.158A"}},"11793038565":{"lat":50.6342122,"lon":14.0718372,"ts":"2024-06-16T21:32:59Z","tz":1,"tags":{"climbing":"route_bottom","climbing:grade:uiaa":"4","name":"Zarostlá","sport":"climbing","wikimedia_commons":"File:Brná - Vrcholová věž2.jpg","wikimedia_commons:path":"0.385,0.966|0.366,0.445|0.385,0.216"}},"11794990194":{"lat":50.6343215,"lon":14.0723768,"ts":"2024-06-16T21:23:54Z","tz":1,"tags":{"climbing":"route_bottom","climbing:grade:uiaa":"5","name":"Francouzský model","sport":"climbing","website":"https://www.horosvaz.cz/skaly-cesta-1284/","wikimedia_commons":"File:Brná - Vrcholová věž2.jpg","wikimedia_commons:path":"0.64,0.988|0.55,0.575B|0.5,0.395B|0.47,0.32B|0.464,0.257B|0.443,0.074A"}},"11794990195":{"lat":50.6343197,"lon":14.0723683,"ts":"2024-04-06T07:14:41Z","tz":1,"tags":{"climbing":"route_bottom","climbing:grade:uiaa":"6","name":"Matěchova cesta - VARIANTA BŘIŠNÍ TANEC","sport":"climbing","website":"https://www.horosvaz.cz/skaly-cesta-1276/"}},"11794990196":{"lat":50.6343179,"lon":14.0723598,"ts":"2024-06-16T21:23:54Z","tz":1,"tags":{"climbing":"route_bottom","climbing:grade:uiaa":"5","name":"Matěchova cesta","sport":"climbing","website":"https://www.horosvaz.cz/skaly-cesta-1286/","wikimedia_commons":"File:Brná - Vrcholová věž2.jpg","wikimedia_commons:path":"0.89,0.956|0.712,0.499|0.569,0.379|0.51,0.21|0.443,0.074A"}},"11794990197":{"lat":50.634316,"lon":14.0723513,"ts":"2024-04-06T07:14:41Z","tz":1,"tags":{"climbing":"route_bottom","climbing:grade:uiaa":"5","name":"Matěchova cesta - varianta","sport":"climbing","website":"https://www.horosvaz.cz/skaly-cesta-1285/"}},"11794990198":{"lat":50.6343142,"lon":14.0723428,"ts":"2024-04-06T07:14:41Z","tz":1,"tags":{"climbing":"route_bottom","climbing:grade:uiaa":"5+","name":"Strašilka","sport":"climbing","website":"https://www.horosvaz.cz/skaly-cesta-115993/"}},"11794990199":{"lat":50.6343124,"lon":14.0723343,"ts":"2024-04-06T07:14:41Z","tz":1,"tags":{"climbing":"route_bottom","climbing:grade:uiaa":"6","name":"Direttissima","sport":"climbing","website":"https://www.horosvaz.cz/skaly-cesta-1275/"}},"11794990200":{"lat":50.6343105,"lon":14.0723258,"ts":"2024-04-06T07:14:41Z","tz":1,"tags":{"climbing":"route_bottom","climbing:grade:uiaa":"5","name":"Mlezákova spára","sport":"climbing","website":"https://www.horosvaz.cz/skaly-cesta-1287/"}},"11794990201":{"lat":50.6343087,"lon":14.0723173,"ts":"2024-04-06T07:14:41Z","tz":1,"tags":{"climbing":"route_bottom","climbing:grade:uiaa":"8-","name":"Superdiretissima","sport":"climbing","website":"https://www.horosvaz.cz/skaly-cesta-1288/"}},"11794990202":{"lat":50.6343069,"lon":14.0723088,"ts":"2024-04-06T07:14:41Z","tz":1,"tags":{"climbing":"route_bottom","climbing:grade:uiaa":"5","name":"Stará údolní cesta - varianta","sport":"climbing","website":"https://www.horosvaz.cz/skaly-cesta-1289/"}},"11794990203":{"lat":50.6343051,"lon":14.0723003,"ts":"2024-04-06T07:14:41Z","tz":1,"tags":{"climbing":"route_bottom","climbing:grade:uiaa":"5","name":"Stará údolní cesta","sport":"climbing","website":"https://www.horosvaz.cz/skaly-cesta-1290/"}},"11794990204":{"lat":50.6343032,"lon":14.0722918,"ts":"2024-04-06T07:14:41Z","tz":1,"tags":{"climbing":"route_bottom","climbing:grade:uiaa":"6","name":"Žežická majle","sport":"climbing","website":"https://www.horosvaz.cz/skaly-cesta-1291/"}},"11794990205":{"lat":50.6343014,"lon":14.0722834,"ts":"2024-04-06T07:14:41Z","tz":1,"tags":{"climbing":"route_bottom","climbing:grade:uiaa":"6+","name":"Zkratková - varianta","sport":"climbing","website":"https://www.horosvaz.cz/skaly-cesta-1277/"}},"11794990206":{"lat":50.6342996,"lon":14.0722749,"ts":"2024-04-06T07:14:41Z","tz":1,"tags":{"climbing":"route_bottom","climbing:grade:uiaa":"6","name":"Zkratková","sport":"climbing","website":"https://www.horosvaz.cz/skaly-cesta-1292/"}},"11794990207":{"lat":50.6342978,"lon":14.0722664,"ts":"2024-04-06T07:14:41Z","tz":1,"tags":{"climbing":"route_bottom","climbing:grade:uiaa":"7+","name":"Neznámá varianta","sport":"climbing","website":"https://www.horosvaz.cz/skaly-cesta-1274/"}},"11794990208":{"lat":50.6342959,"lon":14.0722579,"ts":"2024-04-06T07:14:41Z","tz":1,"tags":{"climbing":"route_bottom","climbing:grade:uiaa":"6","name":"Nýtová hrana","sport":"climbing","website":"https://www.horosvaz.cz/skaly-cesta-1293/"}},"11794990209":{"lat":50.6342941,"lon":14.0722494,"ts":"2024-04-06T07:14:41Z","tz":1,"tags":{"climbing":"route_bottom","climbing:grade:uiaa":"4","name":"Východní stěna","sport":"climbing","website":"https://www.horosvaz.cz/skaly-cesta-1294/"}},"11794990210":{"lat":50.6342923,"lon":14.0722409,"ts":"2024-04-06T07:14:41Z","tz":1,"tags":{"climbing":"route_bottom","climbing:grade:uiaa":"5","name":"Mokrá","sport":"climbing","website":"https://www.horosvaz.cz/skaly-cesta-1295/"}},"11794990211":{"lat":50.6342904,"lon":14.0722324,"ts":"2024-04-06T07:14:41Z","tz":1,"tags":{"climbing":"route_bottom","climbing:grade:uiaa":"5","name":"Kouzelný svět","sport":"climbing","website":"https://www.horosvaz.cz/skaly-cesta-1296/"}},"11794990212":{"lat":50.6342886,"lon":14.0722239,"ts":"2024-04-06T07:14:41Z","tz":1,"tags":{"climbing":"route_bottom","climbing:grade:uiaa":"5","name":"Cesta R","sport":"climbing","website":"https://www.horosvaz.cz/skaly-cesta-1297/"}},"11794990213":{"lat":50.6342868,"lon":14.0722154,"ts":"2024-04-06T07:14:41Z","tz":1,"tags":{"climbing":"route_bottom","climbing:grade:uiaa":"5","name":"Zelené přilepence","sport":"climbing","website":"https://www.horosvaz.cz/skaly-cesta-1298/"}},"11794990214":{"lat":50.634285,"lon":14.0722069,"ts":"2024-04-06T07:14:41Z","tz":1,"tags":{"climbing":"route_bottom","climbing:grade:uiaa":"4","name":"Stará cesta","sport":"climbing","website":"https://www.horosvaz.cz/skaly-cesta-1299/"}},"11794990215":{"lat":50.6342831,"lon":14.0721984,"ts":"2024-04-06T07:14:41Z","tz":1,"tags":{"climbing":"route_bottom","climbing:grade:uiaa":"5","name":"Cesta středem","sport":"climbing","website":"https://www.horosvaz.cz/skaly-cesta-1278/"}},"11794990216":{"lat":50.6342813,"lon":14.0721899,"ts":"2024-04-06T07:14:41Z","tz":1,"tags":{"climbing":"route_bottom","climbing:grade:uiaa":"4","name":"Náhorní převis","sport":"climbing","website":"https://www.horosvaz.cz/skaly-cesta-1279/"}},"11794990217":{"lat":50.6342795,"lon":14.0721814,"ts":"2024-04-06T07:14:41Z","tz":1,"tags":{"climbing":"route_bottom","climbing:grade:uiaa":"5","name":"Nesmysl","sport":"climbing","website":"https://www.horosvaz.cz/skaly-cesta-1280/"}},"11794990218":{"lat":50.6342777,"lon":14.0721729,"ts":"2024-04-06T07:14:41Z","tz":1,"tags":{"climbing":"route_bottom","climbing:grade:uiaa":"5","name":"Krátká","sport":"climbing","website":"https://www.horosvaz.cz/skaly-cesta-1281/"}},"11794990219":{"lat":50.6342758,"lon":14.0721644,"ts":"2024-04-06T07:14:41Z","tz":1,"tags":{"climbing":"route_bottom","climbing:grade:uiaa":"3","name":"Západní hrana","sport":"climbing","website":"https://www.horosvaz.cz/skaly-cesta-1282/"}},"11794990220":{"lat":50.634274,"lon":14.0721559,"ts":"2024-06-16T21:28:42Z","tz":1,"tags":{"climbing":"route_bottom","climbing:grade:uiaa":"5","name":"Západní spára","sport":"climbing","website":"https://www.horosvaz.cz/skaly-cesta-1283/","wikimedia_commons":"File:Brná - Vrcholová věž.jpg","wikimedia_commons:path":"0.941,0.922|0.788,0.655B|0.574,0.386B|0.634,0.191A"}},"11946008827":{"lat":50.6517065,"lon":14.1732093,"ts":"2024-05-30T20:25:35Z","tz":1,"tags":{"climbing":"route_bottom","climbing:grade:uiaa":"6-","name":"Krmit uši","sport":"climbing","website":"https://www.horosvaz.cz/skaly-cesta-95753/"}},"11946008828":{"lat":50.6517068,"lon":14.1731876,"ts":"2024-05-30T20:25:35Z","tz":1,"tags":{"climbing":"route_bottom","climbing:grade:uiaa":"5","name":"Koženej ksicht","sport":"climbing","website":"https://www.horosvaz.cz/skaly-cesta-95752/"}},"11946008829":{"lat":50.651707,"lon":14.1731659,"ts":"2024-05-30T20:25:35Z","tz":1,"tags":{"climbing":"route_bottom","climbing:grade:uiaa":"4-","name":"Cukrbliky","sport":"climbing","website":"https://www.horosvaz.cz/skaly-cesta-95751/"}},"11946008830":{"lat":50.6517073,"lon":14.1731443,"ts":"2024-05-30T20:25:35Z","tz":1,"tags":{"climbing":"route_bottom","climbing:grade:uiaa":"5+","name":"Na plný koule","sport":"climbing","website":"https://www.horosvaz.cz/skaly-cesta-95750/"}},"11946008831":{"lat":50.6517076,"lon":14.1731226,"ts":"2024-10-09T15:23:26Z","tz":1,"tags":{"climbing":"route_bottom","climbing:grade:uiaa":"4","name":"Vzít kramle","sport":"climbing","website":"https://www.horosvaz.cz/skaly-cesta-95749/"}},"12238624271":{"lat":50.6517085,"lon":14.1731001,"ts":"2024-10-09T15:23:26Z","tz":1,"tags":{"climbing":"route_bottom","climbing:grade:uiaa":"6+","name":"Esoterická procházka","sport":"climbing","website":"https://www.horosvaz.cz/skaly-cesta-95748/"}}}