{"14297817":{"lat":49.9131756,"lon":14.3034211,"ts":"2022-06-28T06:26:17Z","tz":1,"tags":{"climbing":"crag","name":"Černolické Skály","type":"site"}},"17222858":{"lat":50.0386424,"lon":14.3556031,"ts":"2024-10-03T20:12:38Z","tz":1,"tags":{"climbing":"crag","name":"Borová skála - pravý amfiteátr","site":"climbing","sport":"climbing","type":"site","website":"https://www.horosvaz.cz/skaly-skala-16099/","wikimedia_commons":"File:Prokopské údolí - Borová skála - pravý amfiteátr.jpg","wikimedia_commons:2":"File:Prokopské údolí - Borová skála - pravý amfiteátr2.jpg","wikimedia_commons:3":"File:Prokopské údolí - Borová skála - pravý amfiteátr3.jpg","wikimedia_commons:4":"File:Prokopské údolí - Borová skála - pravý amfiteátr4.jpg","wikimedia_commons:5":"File:Prokopské údolí - Borová skála - levá část5.jpg"}},"17222903":{"lat":50.038727,"lon":14.3553771,"ts":"2024-10-03T20:03:02Z","tz":1,"tags":{"climbing":"crag","name":"Borová skála - levá část","site":"climbing","sport":"climbing","type":"site","website":"https://www.horosvaz.cz/skaly-skala-8707/","wikimedia_commons":"File:Prokopské údolí - Borová skála - levá část.jpg","wikimedia_commons:2":"File:Prokopské údolí - Borová skála - levá část2.jpg","wikimedia_commons:3":"File:Prokopské údolí - Borová skála - levá část3.jpg","wikimedia_commons:4":"File:Prokopské údolí - Borová skála - levá část4.jpg","wikimedia_commons:5":"File:Prokopské údolí - Borová skála - levá část5.jpg"}},"17241402":{"lat":50.0421128,"lon":14.4124977,"ts":"2024-09-19T14:41:45Z","tz":1,"tags":{"climbing":"crag","description":"Pozor skála není úplně kompaktní takže mohou padat kameny. Helma by zde měla být samozřejmostí.","name":"Převisy","site":"climbing","type":"site","wikimedia_commons":"File:Branické skály - Převisy.jpg"}},"17243108":{"lat":50.0423136,"lon":14.4126913,"ts":"2024-02-20T14:25:20Z","tz":1,"tags":{"climbing":"crag","name":"Levá plotna","site":"climbing","type":"site"}},"17243118":{"lat":50.0424727,"lon":14.4124681,"ts":"2024-02-20T14:29:02Z","tz":1,"tags":{"climbing":"crag","name":"Dolní plotna","site":"climbing","type":"site"}},"17243140":{"lat":50.0419853,"lon":14.4125286,"ts":"2024-02-20T14:35:05Z","tz":1,"tags":{"climbing":"crag","name":"Medvídek","site":"climbing","type":"site"}},"17243160":{"lat":50.0418275,"lon":14.4127005,"ts":"2024-02-20T14:49:51Z","tz":1,"tags":{"climbing":"crag","name":"Sportovní koutek","site":"climbing","type":"site"}},"17243162":{"lat":50.0414868,"lon":14.4125362,"ts":"2024-02-20T14:51:57Z","tz":1,"tags":{"climbing":"crag","name":"Plotnička nadšenců","site":"climbing","type":"site"}},"17262674":{"lat":50.0432321,"lon":14.3924464,"ts":"2024-10-03T20:24:04Z","tz":1,"tags":{"climbing":"crag","description":"Pravá plotna na Hlubočepech nabízí mimo jiné řadu lehčích lezeckých cest oproti Levé plotně. Jištění je zde slušné, ale první borháky mohou být i výše. Je vhodné mít helmu protože skála není vždy pevná a občas se drolí.","name":"Pravá plotna","site":"climbing","type":"site","wikimedia_commons":"File:Hlubočepské plotny - Pravá plotna.jpg"}},"17262907":{"lat":50.0431444,"lon":14.3909124,"ts":"2024-04-25T09:30:30Z","tz":1,"tags":{"climbing":"crag","name":"Levá plotna","site":"climbing","type":"site","wikimedia_commons":"File:Hlubočepské plotny - Levá plotna.jpg"}},"17262916":{"lat":50.0451557,"lon":14.3948624,"ts":"2024-10-25T11:07:16Z","tz":1,"tags":{"climbing":"crag","description":"Je zde hodně trnitých růží, vezmi s sebou nůžky. Ke skále se dá dojít bez nutnosti slanit. Z horní cesty vede nenápadná pěšina vlevo okolo skály. Všechny cesty mají velmi podobný plotnovitý charakter. ","name":"Žvahov","site":"climbing","type":"site","wikimedia_commons":"File:Hlubočepské plotny - Žvahov.jpg"}},"17262939":{"lat":50.0430573,"lon":14.3911416,"ts":"2024-09-19T15:32:10Z","tz":1,"tags":{"climbing":"crag","description":"Malá plotna na Hlubočepech se nachází přímo na předskalí pod levou plotnou. Je dobře jištěná a vhodná pro trénink plotnového lezení.","name":"Malá plotna","site":"climbing","type":"site","wikimedia_commons":"File:Hlubočepské plotny - Malá plotna2.jpg","wikimedia_commons:2":"File:Hlubočepské plotny - Malá plotna.jpg"}},"17301395":{"lat":49.9504042,"lon":14.1073338,"ts":"2024-04-26T12:47:55Z","tz":1,"tags":{"climbing":"crag","name":"Čelo","site":"climbing","type":"site","wikimedia_commons":"File:Tetínské skály - Čelo.jpg"}},"17301408":{"lat":49.9503087,"lon":14.1075608,"ts":"2024-04-26T12:47:55Z","tz":1,"tags":{"climbing":"crag","name":"Centrál - levá část","site":"climbing","type":"site","wikimedia_commons":"File:Tetínské skály - Centrál - levá část.jpg","wikimedia_commons:2":"File:Tetínské skály - Centrál - levá část2.jpg"}},"17303319":{"lat":49.948961,"lon":14.1070536,"ts":"2024-07-01T20:37:43Z","tz":1,"tags":{"climbing":"crag","name":"Zebra","site":"climbing","type":"site","wikimedia_commons":"File:Tetínské skály - Zebra.jpg"}},"17305739":{"lat":49.9493891,"lon":14.1070224,"ts":"2024-04-26T12:47:55Z","tz":1,"tags":{"climbing":"crag","name":"Pod vodopádem","site":"climbing","type":"site","wikimedia_commons":"File:Tetínské skály - Pod vodopádem.jpg","wikimedia_commons:2":"File:Tetínské skály - Pod vodopádem2.jpg"}},"17305890":{"lat":49.9495457,"lon":14.1077874,"ts":"2024-04-26T12:47:55Z","tz":1,"tags":{"climbing":"crag","name":"Rajbas","site":"climbing","type":"site","wikimedia_commons":"File:Tetínské skály - Rajbas.jpg"}},"17307943":{"lat":49.9502942,"lon":14.1079989,"ts":"2024-04-26T12:47:55Z","tz":1,"tags":{"climbing":"crag","name":"Centrál - střední část","site":"climbing","type":"site","wikimedia_commons":"File:Tetínské skály - Centrál - střední část.jpg","wikimedia_commons:2":"File:Tetínské skály - Centrál - střední část2.jpg"}},"17307950":{"lat":49.9503453,"lon":14.1084476,"ts":"2024-04-26T12:47:55Z","tz":1,"tags":{"climbing":"crag","name":"Centrál - pravá část","site":"climbing","type":"site","wikimedia_commons":"File:Tetínské skály - Centrál - pravá část.jpg","wikimedia_commons:2":"File:Tetínské skály - Centrál - pravá část2.jpg"}},"17336988":{"lat":49.9208261,"lon":14.2193207,"ts":"2024-09-25T16:38:23Z","tz":1,"tags":{"climbing":"crag","name":"Západní stěna","site":"climbing","type":"site","website":"https://www.horosvaz.cz/skaly-skala-13045/","wikimedia_commons":"File:Černá skála u Řevnic - Západní stěna.jpg","wikimedia_commons:2":"File:Západní_stěna_(Climbing_Crag)_-_OsmAPP.JPG"}},"17336992":{"lat":49.9206667,"lon":14.2196972,"ts":"2024-09-26T19:16:07Z","tz":1,"tags":{"climbing":"crag","name":"Jižní stěna","site":"climbing","type":"site","website":"https://www.horosvaz.cz/skaly-skala-13046/","wikimedia_commons":"File:Černá skála u Řevnic - Jižní stěna.jpg","wikimedia_commons:2":"File:Jižní_stěna_(Climbing_Crag)_-_OsmAPP.JPG","wikimedia_commons:3":"File:Jižní_stěna_(Climbing_Crag)_-_OsmAPP_(2).JPG","wikimedia_commons:4":"File:Jižní_stěna_(Climbing_Crag)_-_OsmAPP_(3).JPG"}},"17350309":{"lat":49.9435391,"lon":14.1310332,"ts":"2024-04-26T12:50:25Z","tz":1,"tags":{"climbing":"crag","name":"Štítek","site":"climbing","type":"site","website":"https://www.horosvaz.cz/skaly-skala-4516/","website:2":"https://www.lezec.cz/pruvodcx.php?key=86&ces=1488#here","wikimedia_commons":"File:Srbsko - Štítek.jpg"}},"17350347":{"lat":49.9437524,"lon":14.1309897,"ts":"2024-04-26T12:50:25Z","tz":1,"tags":{"climbing":"crag","name":"Vlastina stěna","site":"climbing","type":"site","website":"https://www.horosvaz.cz/skaly-skala-1707/","website:2":"https://www.lezec.cz/pruvodcx.php?key=80&ces=62521#here","wikimedia_commons":"File:Srbsko - Vlastina stěna.jpg","wikimedia_commons:2":"File:Srbsko - Vlastina stěna2.jpg","wikimedia_commons:3":"File:Srbsko - Vlastina stěna3.jpg"}},"17400255":{"lat":49.9134828,"lon":14.0817506,"ts":"2024-06-25T19:58:56Z","tz":1,"tags":{"climbing":"crag","name":"Pohádka","site":"climbing","sport":"climbing","type":"site","website":"https://www.horosvaz.cz/skaly-skala-17704/","website:2":"https://www.thecrag.com/climbing/czech-republic/area/3149608497","wikimedia_commons":"File:Lom Kobyla - Pohádka.jpg","wikimedia_commons:2":"File:Lom Kobyla - Pohádka2.jpg"}},"17400317":{"lat":49.9133729,"lon":14.0814961,"ts":"2024-06-25T20:03:34Z","tz":1,"tags":{"climbing":"crag","name":"Petr Bok","site":"climbing","sport":"climbing","type":"site","website":"https://www.horosvaz.cz/skaly-skala-17701/","website:2":"https://www.thecrag.com/climbing/czech-republic/area/3149606274","wikimedia_commons":"File:Lom Kobyla - Petr Bok.jpg","wikimedia_commons:2":"File:Lom Kobyla - Petr Bok2.jpg","wikimedia_commons:3":"File:Lom Kobyla - Petr Bok3.jpg"}},"17400331":{"lat":49.9131874,"lon":14.0812394,"ts":"2024-06-25T19:55:03Z","tz":1,"tags":{"climbing":"crag","name":"Kobylí hlava","site":"climbing","sport":"climbing","type":"site","website":"https://www.horosvaz.cz/skaly-skala-17703/","website:2":"https://www.thecrag.com/climbing/czech-republic/area/3149606406","wikimedia_commons":"File:Lom Kobyla - Kobylí hlava.jpg"}},"17400337":{"lat":49.9132709,"lon":14.0811318,"ts":"2024-06-25T20:24:35Z","tz":1,"tags":{"climbing":"crag","name":"U jeskyně","site":"climbing","sport":"climbing","type":"site","website":"https://www.horosvaz.cz/skaly-skala-17700/","website:2":"https://www.thecrag.com/climbing/czech-republic/area/3149606340","wikimedia_commons":"File:Lom Kobyla - U jeskyně.jpg","wikimedia_commons:2":"File:Lom Kobyla - U jeskyně2.jpg"}},"17400458":{"lat":49.9139787,"lon":14.0798458,"ts":"2024-08-16T06:58:25Z","tz":1,"tags":{"climbing":"crag","name":"Bonzák","site":"climbing","sport":"climbing","type":"site","website":"https://www.horosvaz.cz/skaly-skala-17702/","website:2":"https://www.thecrag.com/climbing/czech-republic/area/3149606142","wikimedia_commons:2":"File:Lom Kobyla - Bonzák.jpg","wikimedia_commons:3":"File:Lom Kobyla - Bonzák2.jpg","wikimedia_commons:4":"File:Lom Kobyla - Bonzák3.jpg","wikimedia_commons:5":"File:Lom Kobyla - Bonzák4.jpg","wikimedia_commons:6":"File:Lom Kobyla - Bonzák5.jpg"}},"17415872":{"lat":49.9136358,"lon":14.0807883,"ts":"2024-09-10T21:12:58Z","tz":1,"tags":{"climbing":"crag","name":"Stáj","site":"climbing","sport":"climbing","type":"site","website":"https://www.horosvaz.cz/skaly-skala-17699/","website:2":"https://www.thecrag.com/climbing/czech-republic/area/3149606208","wikimedia_commons:2":"File:Lom Kobyla - Stáj.jpg"}},"17416412":{"lat":49.9726843,"lon":14.1447019,"ts":"2025-03-24T07:23:50Z","tz":1,"tags":{"climbing":"crag","name":"Paraple","site":"climbing","sport":"climbing","type":"site","website":"https://www.horosvaz.cz/skaly-skala-12616/","wikimedia_commons":"File:Solvayovy lomy - Paraple.jpg","wikimedia_commons:2":"File:Solvayovy lomy (132) (cropped).jpg","wikimedia_commons:3":"File:Solvayovy lomy lezení.jpg"}},"17416912":{"lat":49.9724679,"lon":14.1446536,"ts":"2024-11-26T15:39:47Z","tz":1,"tags":{"climbing":"crag","description":"Solvayovy lomy jsou oblíbená lezecká oblast poblíž Berouna, s kvalitním vápencem a cestami od lehkých po náročné. Najdete zde sportovně odjištěné linie i technické výzvy na plotnách.","name":"Panoptikum","site":"climbing","sport":"climbing","type":"site","website":"https://www.horosvaz.cz/skaly-skala-12617/","wikimedia_commons":"File:Solvayovy lomy - Panoptikum.jpg","wikimedia_commons:2":"File:Solvayovy lomy (132) (cropped).jpg"}},"17424001":{"lat":49.9500338,"lon":14.1314054,"ts":"2024-09-19T15:03:08Z","tz":1,"tags":{"climbing":"crag","name":"Divadýlko","site":"climbing","sport":"climbing","type":"site","website":"https://www.horosvaz.cz/skaly-skala-17686/","wikimedia_commons":"File:Údolí Kačáku - Divadýlko.jpg","wikimedia_commons:2":"File:Údolí Kačáku - Divadýlko2.jpg","wikimedia_commons:3":"File:Údolí Kačáku - Divadýlko3.jpg","wikimedia_commons:4":"File:Údolí Kačáku - Divadýlko4.jpg","wikimedia_commons:5":"File:Údolí Kačáku - Divadýlko5.jpg"}},"17424039":{"lat":49.9491139,"lon":14.1311025,"ts":"2024-07-05T19:13:51Z","tz":1,"tags":{"climbing":"crag","name":"Skála v Kozle","site":"climbing","sport":"climbing","type":"site","website":"https://www.horosvaz.cz/skaly-skala-8463/","wikimedia_commons":"File:Údolí Kačáku - Skála v Kozle2.jpg","wikimedia_commons:2":"File:Údolí Kačáku - Skála v Kozle.jpg"}},"17440494":{"lat":49.9130037,"lon":14.3030194,"ts":"2024-05-30T16:05:10Z","tz":1,"tags":{"climbing":"crag","name":"Dvojitá věž","site":"climbing","sport":"climbing","type":"site","website":"https://www.horosvaz.cz/skaly-skala-130/","wikimedia_commons":"File:Černolické skály - Dvojitá věž.jpg"}},"17470612":{"lat":49.9511148,"lon":14.1227767,"ts":"2025-03-23T06:15:00Z","tz":1,"tags":{"climbing":"crag","name":"Matterhorn","site":"climbing","sport":"climbing","type":"site","website":"https://www.horosvaz.cz/skaly-skala-293/","wikimedia_commons":"File:Alkazar - Matterhorn.jpg"}},"17470973":{"lat":49.9509305,"lon":14.1228371,"ts":"2025-03-23T19:35:21Z","tz":1,"tags":{"climbing":"crag","name":"Lezecký park Alkazar","site":"climbing","sport":"climbing","type":"site","website":"https://www.horosvaz.cz/skaly-skala-8850/","wikimedia_commons":"File:Alkazar - Lezecký park (horní patro).jpg"}},"17470985":{"lat":49.9508768,"lon":14.1231083,"ts":"2025-03-26T19:46:05Z","tz":1,"tags":{"climbing":"crag","name":"Márka","site":"climbing","sport":"climbing","type":"site","website":"https://www.horosvaz.cz/skaly-skala-3606/","wikimedia_commons":"File:Alkazar - Márka.jpg","wikimedia_commons:2":"File:Alkazar - Márka2.jpg","wikimedia_commons:3":"File:Alkazar - Márka3.jpg"}},"17470987":{"lat":49.950821,"lon":14.1236591,"ts":"2025-03-26T17:04:21Z","tz":1,"tags":{"climbing":"crag","name":"Z voleje","site":"climbing","sport":"climbing","type":"site","website":"https://www.horosvaz.cz/skaly-skala-19457/","wikimedia_commons":"File:Alkazar - Z voleje.jpg","wikimedia_commons:2":"File:Alkazar - Z voleje2.jpg","wikimedia_commons:3":"File:Alkazar - Camloc2.jpg"}},"17470992":{"lat":49.9505525,"lon":14.1241,"ts":"2025-03-26T10:32:07Z","tz":1,"tags":{"climbing":"crag","name":"Camloc","site":"climbing","sport":"climbing","type":"site","website":"https://www.horosvaz.cz/skaly-skala-6140/","wikimedia_commons":"File:Alkazar - Camloc.jpg","wikimedia_commons:2":"File:Alkazar - Camloc2.jpg","wikimedia_commons:3":"File:Alkazar - Camloc3.jpg","wikimedia_commons:4":"File:Alkazar - Camloc4.jpg"}},"17471177":{"lat":49.9502206,"lon":14.1243317,"ts":"2025-03-23T20:39:27Z","tz":1,"tags":{"climbing":"crag","name":"Homole (Malý Matterhorn)","site":"climbing","sport":"climbing","type":"site","website":"https://www.horosvaz.cz/skaly-skala-3634/","wikimedia_commons":"File:Alkazar - Homole.jpg","wikimedia_commons:2":"File:Alkazar - Homole2.jpg"}},"17471212":{"lat":49.9489374,"lon":14.1229852,"ts":"2025-03-24T07:11:37Z","tz":1,"tags":{"climbing":"crag","description":"Kavčí lom (nebo také Sulkárna) nabízí převážně těžké cesty s dobrým jištěním. Hrozí že bude uzavřen v souvislosti s rozšířením železnice. Velmi zajímavá je cesta Tornádo úplně vpravo.","name":"Kavčí lom","natural":"cliff","site":"climbing","sport":"climbing","type":"site","website":"https://www.horosvaz.cz/skaly-skala-15565/","wikimedia_commons":"File:Kavčí lom.jpg","wikimedia_commons:2":"File:Kavčí lom2.jpg"}},"17472766":{"lat":49.8752817,"lon":14.3934755,"ts":"2024-04-15T08:50:09Z","tz":1,"tags":{"climbing":"crag","name":"Levý masiv","site":"climbing","sport":"climbing","type":"site","website":"https://www.horosvaz.cz/skaly-skala-17278/"}},"17472769":{"lat":49.875071,"lon":14.393406,"ts":"2024-04-15T08:51:21Z","tz":1,"tags":{"climbing":"crag","name":"Převis","site":"climbing","sport":"climbing","type":"site","website":"https://www.horosvaz.cz/skaly-skala-17277/"}},"17479510":{"lat":49.9502183,"lon":14.1248873,"ts":"2025-03-25T06:19:35Z","tz":1,"tags":{"climbing":"crag","name":"Colaloca","site":"climbing","sport":"climbing","type":"site","website":"https://www.horosvaz.cz/skaly-skala-128/","wikimedia_commons":"File:Alkazar - Colaloca.jpg"}},"17479546":{"lat":49.9502006,"lon":14.1251761,"ts":"2025-03-24T21:03:01Z","tz":1,"tags":{"climbing":"crag","name":"Dolce","site":"climbing","sport":"climbing","type":"site","website":"https://www.horosvaz.cz/skaly-skala-19459/","wikimedia_commons":"File:Alkazar - Dolce.jpg"}},"17479548":{"lat":49.9499258,"lon":14.1256327,"ts":"2024-04-16T20:12:52Z","tz":1,"tags":{"climbing":"crag","name":"Hladká plotna","site":"climbing","sport":"climbing","type":"site","website":"https://www.horosvaz.cz/skaly-skala-19458/"}},"17479549":{"lat":49.949718,"lon":14.1259861,"ts":"2024-04-16T20:14:11Z","tz":1,"tags":{"climbing":"crag","name":"Černý dům","site":"climbing","sport":"climbing","type":"site","website":"https://www.horosvaz.cz/skaly-skala-19460/"}},"17479553":{"lat":49.9495149,"lon":14.1261491,"ts":"2025-03-23T17:38:06Z","tz":1,"tags":{"climbing":"crag","name":"Vanový kout","site":"climbing","sport":"climbing","type":"site","website":"https://www.horosvaz.cz/skaly-skala-18044/","wikimedia_commons":"File:Alkazar - Vanový kout.jpg"}},"17481735":{"lat":49.9510242,"lon":14.1229892,"ts":"2025-03-26T07:13:07Z","tz":1,"tags":{"climbing":"crag","name":"Kamarádům za velkou louží","site":"climbing","sport":"climbing","type":"site","website":"https://www.horosvaz.cz/skaly-skala-127/","wikimedia_commons":"File:Alkazar - Kamarádům za velkou louží.jpg"}},"17481745":{"lat":49.9511188,"lon":14.1237921,"ts":"2024-04-17T09:30:25Z","tz":1,"tags":{"climbing":"crag","name":"Fifounova plotna","site":"climbing","sport":"climbing","type":"site","website":"https://www.horosvaz.cz/skaly-skala-19455/"}},"17481889":{"lat":49.9507303,"lon":14.1242654,"ts":"2025-03-23T21:04:33Z","tz":1,"tags":{"climbing":"crag","name":"Nahoře bez","site":"climbing","sport":"climbing","type":"site","website":"https://www.horosvaz.cz/skaly-skala-6141/","wikimedia_commons":"File:Alkazar - Nahoře bez.jpg","wikimedia_commons:2":"File:Alkazar - Nahoře bez2.jpg"}},"17481914":{"lat":49.9504711,"lon":14.1242995,"ts":"2025-03-25T06:44:42Z","tz":1,"tags":{"climbing":"crag","name":"Jettiho hrana","site":"climbing","sport":"climbing","type":"site","website":"https://www.horosvaz.cz/skaly-skala-19456/","wikimedia_commons":"File:Alkazar - Jettiho hrana.jpg","wikimedia_commons:2":"File:Alkazar - Jettiho hrana2.jpg"}},"17482335":{"lat":49.950379,"lon":14.1250243,"ts":"2024-04-17T12:35:44Z","tz":1,"tags":{"climbing":"crag","name":"Růžová stěna","site":"climbing","sport":"climbing","type":"site","website":"https://www.horosvaz.cz/skaly-skala-126/"}},"17486921":{"lat":49.9521936,"lon":14.1300713,"ts":"2025-03-18T20:29:11Z","tz":1,"tags":{"climbing":"crag","name":"Lom u cesty","site":"climbing","sport":"climbing","type":"site","website":"https://www.horosvaz.cz/skaly-skala-17685/","wikimedia_commons":"File:Údolí Kačáku - Lom u cesty.jpg","wikimedia_commons:2":"File:Údolí Kačáku - Lom u cesty3.jpg","wikimedia_commons:3":"File:Údolí Kačáku - Lom u cesty4.jpg","wikimedia_commons:4":"File:Údolí Kačáku - Lom u cesty2.jpg"}},"17486947":{"lat":49.9290659,"lon":14.146617,"ts":"2024-05-10T06:04:17Z","tz":1,"tags":{"climbing":"crag","name":"Aniččina stěna","site":"climbing","sport":"climbing","type":"site","website":"https://www.horosvaz.cz/skaly-skala-1704/","wikimedia_commons":"File:Tomáškův lom - Aniččina stěna.jpg","wikimedia_commons:2":"File:Tomáškův lom - Aniččina stěna2.jpg","wikimedia_commons:3":"File:Tomáškův lom - Aniččina stěna3.jpg"}},"17486978":{"lat":49.930259,"lon":14.1357984,"ts":"2024-04-18T14:14:57Z","tz":1,"tags":{"climbing":"crag","name":"Korno","site":"climbing","sport":"climbing","type":"site","website":"https://www.horosvaz.cz/skaly-skala-14968/"}},"17486994":{"lat":49.928006,"lon":14.1430777,"ts":"2024-04-18T14:17:29Z","tz":1,"tags":{"climbing":"crag","name":"Centrální stěna","site":"climbing","sport":"climbing","type":"site","website":"https://www.horosvaz.cz/skaly-skala-1708/"}},"17487538":{"lat":49.9476238,"lon":14.1282241,"ts":"2025-03-26T20:14:51Z","tz":1,"tags":{"climbing":"crag","climbing:restriction":"partly","name":"Pupek","site":"climbing","sport":"climbing","type":"site","website":"https://www.horosvaz.cz/skaly-skala-6341/","wikimedia_commons":"File:Srbsko - Pupek.jpg","wikimedia_commons:2":"File:Srbsko - Pupek2.jpg"}},"17509612":{"lat":49.8913165,"lon":14.2361633,"ts":"2024-04-24T07:25:32Z","tz":1,"tags":{"climbing":"crag","name":"Babka - stěna","site":"climbing","sport":"climbing","type":"site","website":"https://www.horosvaz.cz/skaly-skala-16921/"}},"17509615":{"lat":49.8913572,"lon":14.2355982,"ts":"2024-04-24T07:26:28Z","tz":1,"tags":{"climbing":"crag","name":"Babka - strop","site":"climbing","sport":"climbing","type":"site","website":"https://www.horosvaz.cz/skaly-skala-8308/"}},"17509651":{"lat":49.9130876,"lon":14.303206,"ts":"2024-04-24T07:33:09Z","tz":1,"tags":{"climbing":"crag","climbing:boulder":"yes","name":"Boulderblok","site":"climbing","sport":"climbing","type":"site","website":"https://www.horosvaz.cz/skaly-skala-131/"}},"17509657":{"lat":49.9131851,"lon":14.3034696,"ts":"2024-05-30T16:00:46Z","tz":1,"tags":{"climbing":"crag","name":"Střední věž","site":"climbing","sport":"climbing","type":"site","website":"https://www.horosvaz.cz/skaly-skala-77/","wikimedia_commons":"File:Černolické skály - Střední věž.jpg"}},"17638013":{"lat":49.9313522,"lon":14.13819,"ts":"2024-05-26T06:35:53Z","tz":1,"tags":{"climbing":"crag","name":"Plotna","site":"climbing","sport":"climbing","type":"site","website":"https://www.horosvaz.cz/skaly-skala-1706/"}},"17638015":{"lat":49.9460322,"lon":14.1302464,"ts":"2024-05-26T06:38:12Z","tz":1,"tags":{"climbing":"crag","name":"Červené stěny - mikry","site":"climbing","sport":"climbing","type":"site","website":"https://www.horosvaz.cz/skaly-skala-13947/"}},"17638017":{"lat":49.94632,"lon":14.1296618,"ts":"2024-05-26T06:40:02Z","tz":1,"tags":{"climbing":"crag","name":"Červené stěny - Vlevo","site":"climbing","sport":"climbing","type":"site","website":"https://www.horosvaz.cz/skaly-skala-8465/"}},"17638018":{"lat":49.9462142,"lon":14.1299243,"ts":"2024-05-26T06:40:26Z","tz":1,"tags":{"climbing":"crag","name":"Červené stěny - Střed","site":"climbing","sport":"climbing","type":"site","website":"https://www.horosvaz.cz/skaly-skala-17720/"}},"17638019":{"lat":49.9468738,"lon":14.1290059,"ts":"2025-03-23T05:11:21Z","tz":1,"tags":{"climbing":"crag","name":"Červené stěny - U cesty","site":"climbing","sport":"climbing","type":"site","website":"https://www.horosvaz.cz/skaly-skala-12128/","wikimedia_commons":"File:Červené stěny - U cesty.jpg"}},"17638020":{"lat":49.9457127,"lon":14.1300977,"ts":"2024-05-26T06:41:25Z","tz":1,"tags":{"climbing":"crag","name":"Kotlík","site":"climbing","sport":"climbing","type":"site","website":"https://www.horosvaz.cz/skaly-skala-8459/"}},"17638021":{"lat":49.9454346,"lon":14.1302851,"ts":"2025-03-26T20:12:15Z","tz":1,"tags":{"climbing":"crag","name":"Stěna kotlů - levá část","site":"climbing","sport":"climbing","type":"site","website":"https://www.horosvaz.cz/skaly-skala-4515/","wikimedia_commons":"File:Srbsko - Stěna kotlů.jpg","wikimedia_commons:2":"File:Srbsko - Stěna kotlů2.jpg"}},"17638022":{"lat":49.9450331,"lon":14.1305461,"ts":"2024-05-26T06:42:27Z","tz":1,"tags":{"climbing":"crag","name":"Stěna kotlů - pravá část","site":"climbing","sport":"climbing","type":"site","website":"https://www.horosvaz.cz/skaly-skala-8458/"}},"17638024":{"lat":49.9441851,"lon":14.1305388,"ts":"2024-05-26T06:48:36Z","tz":1,"tags":{"climbing":"crag","name":"Blážina stěna - pravá část","site":"climbing","sport":"climbing","type":"site","website":"https://www.horosvaz.cz/skaly-skala-1705/"}},"17638029":{"lat":49.9446195,"lon":14.130351,"ts":"2024-05-26T06:54:19Z","tz":1,"tags":{"climbing":"crag","name":"Blážina stěna - levá část","site":"climbing","sport":"climbing","type":"site","website":"https://www.horosvaz.cz/skaly-skala-4514/"}},"17641260":{"lat":50.0033904,"lon":14.3133592,"ts":"2024-05-27T07:40:13Z","tz":1,"tags":{"climbing":"crag","name":"Zubák - SZ stěna","site":"climbing","sport":"climbing","type":"site","website":"https://www.horosvaz.cz/skaly-skala-8960/"}},"17641278":{"lat":50.0032669,"lon":14.3132915,"ts":"2024-05-27T07:41:43Z","tz":1,"tags":{"climbing":"crag","name":"Zubák - JZ a JV stěna","site":"climbing","sport":"climbing","type":"site","website":"https://www.horosvaz.cz/skaly-skala-13727/"}},"17641279":{"lat":49.9951618,"lon":14.3063553,"ts":"2024-05-27T07:42:12Z","tz":1,"tags":{"climbing":"crag","name":"Vysůtka - pravá část","site":"climbing","sport":"climbing","type":"site","website":"https://www.horosvaz.cz/skaly-skala-13724/"}},"17641281":{"lat":49.9949529,"lon":14.3057,"ts":"2024-05-27T07:42:31Z","tz":1,"tags":{"climbing":"crag","name":"Vysůtka - levá část","site":"climbing","sport":"climbing","type":"site","website":"https://www.horosvaz.cz/skaly-skala-13079/"}},"17641282":{"lat":49.9950912,"lon":14.3045159,"ts":"2024-05-27T07:43:04Z","tz":1,"tags":{"climbing":"crag","name":"Střelnice","site":"climbing","sport":"climbing","type":"site","website":"https://www.horosvaz.cz/skaly-skala-13080/"}},"17641284":{"lat":49.9123024,"lon":14.3151971,"ts":"2024-05-27T07:44:28Z","tz":1,"tags":{"climbing":"crag","name":"Slepucha","site":"climbing","sport":"climbing","type":"site","website":"https://www.horosvaz.cz/skaly-skala-344/"}},"17642347":{"lat":49.9689373,"lon":14.1353305,"ts":"2024-05-27T12:35:29Z","tz":1,"tags":{"climbing":"crag","climbing:restriction":"yes","climbing:restriction:time_description":"Zákaz lezení 1.1. - 30.6.","name":"Stěna za klášterem","site":"climbing","sport":"climbing","type":"site","website":"https://www.horosvaz.cz/skaly-skala-6329/"}},"17642352":{"lat":49.9691025,"lon":14.1356226,"ts":"2024-05-27T12:36:38Z","tz":1,"tags":{"climbing":"crag","climbing:restriction":"yes","climbing:restriction:time_description":"Zákaz lezení 1.1. - 30.6.","name":"Trojúhelníková stěna","site":"climbing","sport":"climbing","type":"site","website":"https://www.horosvaz.cz/skaly-skala-6328/"}},"17642353":{"lat":49.9698231,"lon":14.1365912,"ts":"2024-05-27T12:37:18Z","tz":1,"tags":{"climbing":"crag","climbing:restriction":"yes","climbing:restriction:time_description":"Zákaz lezení 1.1. - 30.6.","name":"Křížová stěna - pravá část","site":"climbing","sport":"climbing","type":"site","website":"https://www.horosvaz.cz/skaly-skala-12928/"}},"17642360":{"lat":49.9704445,"lon":14.1371242,"ts":"2024-05-27T12:38:06Z","tz":1,"tags":{"climbing":"crag","climbing:restriction":"yes","climbing:restriction:time_description":"Zákaz lezení 1.1. - 30.6.","name":"Křížová stěna - levá část","site":"climbing","sport":"climbing","type":"site","website":"https://www.horosvaz.cz/skaly-skala-6327/"}},"17642361":{"lat":49.970712,"lon":14.1371013,"ts":"2024-05-27T12:38:31Z","tz":1,"tags":{"climbing":"crag","climbing:restriction":"yes","climbing:restriction:time_description":"Zákaz lezení 1.1. - 30.6.","name":"Vaňasova stěna","site":"climbing","sport":"climbing","type":"site","website":"https://www.horosvaz.cz/skaly-skala-12926/"}},"17642367":{"lat":49.9665609,"lon":14.1282517,"ts":"2024-05-27T12:40:19Z","tz":1,"tags":{"climbing":"crag","name":"Dušičková stěna","site":"climbing","sport":"climbing","type":"site","website":"https://www.horosvaz.cz/skaly-skala-6325/"}},"26629941":{"lat":49.9698855,"lon":14.136732,"ts":"2023-08-27T09:33:07Z","tz":1,"tags":{"climbing:multipitch":"yes","name":"Svaty Jan","natural":"cliff","source":"bing:bing","sport":"climbing"}},"41222000":{"lat":49.9506603,"lon":14.1241976,"ts":"2020-04-24T23:07:55Z","tz":1,"tags":{"climbing:bolted":"yes","climbing:rock":"limestone","natural":"cliff","sport":"climbing"}},"80751734":{"lat":50.0433344,"lon":14.3926077,"ts":"2024-10-06T11:26:59Z","tz":1,"tags":{"natural":"cliff","sport":"climbing"}},"80760233":{"lat":50.0432069,"lon":14.3911478,"ts":"2023-11-01T15:59:22Z","tz":1,"tags":{"natural":"cliff","sport":"climbing"}},"108147075":{"lat":49.9500288,"lon":14.1314893,"ts":"2023-08-27T09:16:41Z","tz":1,"tags":{"climbing":"crag","climbing:sport":"yes","name":"Kacaku","natural":"cliff","sport":"climbing"}},"108147089":{"lat":49.947383,"lon":14.1290995,"ts":"2023-08-27T09:11:26Z","tz":1,"tags":{"height":"35","name":"Pupek","natural":"cliff","sport":"climbing"}},"165724449":{"lat":49.9518984,"lon":14.1301471,"ts":"2023-08-27T09:18:37Z","tz":1,"tags":{"name":"Kacaku Leva Cast","natural":"cliff","sport":"climbing"}},"165724480":{"lat":49.9665564,"lon":14.128203,"ts":"2023-08-27T09:23:13Z","tz":1,"tags":{"climbing:trad":"yes","name":"Dusickova Stena - Leva Cast","natural":"cliff","sport":"climbing"}},"313822575":{"lat":50.0547464,"lon":14.4056821,"ts":"2023-02-15T10:28:29Z","tz":1,"tags":{"climbing:boulder":"yes","climbing:toprope":"yes","leisure":"sports_centre","name":"SmíchOFF","opening_hours":"Mo 07:00-23:00; Tu-Th 07:00-23:30; Fr 07:00-23:00; Sa,Su 08:00-23:00","sport":"climbing","website":"https://www.lezeckecentrum.cz/"}},"941958940":{"lat":50.0583164,"lon":14.2197564,"ts":"2021-05-11T20:37:44Z","tz":1,"tags":{"leisure":"sports_centre","sport":"climbing"}},"1056163016":{"lat":50.0451791,"lon":14.3949109,"ts":"2022-04-30T07:48:41Z","tz":1,"tags":{"name":"Žvahovská plotna","natural":"bare_rock","sport":"climbing"}},"1182514217":{"lat":49.9489676,"lon":14.1070608,"ts":"2023-08-27T09:53:33Z","tz":1,"tags":{"name":"Zebra","natural":"cliff","sport":"climbing"}},"1201411349":{"lat":50.0551701,"lon":14.405349,"ts":"2023-08-23T11:38:07Z","tz":1,"tags":{"leisure":"sports_centre","sport":"climbing"}},"1202492626":{"lat":49.9312915,"lon":14.1387088,"ts":"2024-05-26T06:35:53Z","tz":1,"tags":{"height":"20","name":"Plotna","natural":"cliff","sport":"climbing"}},"1202495008":{"lat":49.9445081,"lon":14.130494,"ts":"2023-08-27T09:08:33Z","tz":1,"tags":{"name":"Blazina Stena","natural":"cliff","sport":"climbing"}},"1202495009":{"lat":49.9438059,"lon":14.1310194,"ts":"2024-03-15T18:22:15Z","tz":1,"tags":{"name":"Vlastina stěna","natural":"cliff","sport":"climbing"}},"1202498615":{"lat":49.9503439,"lon":14.1078606,"ts":"2023-08-27T09:43:58Z","tz":1,"tags":{"name":"Inspirace","natural":"cliff","sport":"climbing"}},"1202498616":{"lat":49.9504023,"lon":14.1073712,"ts":"2023-08-27T09:54:50Z","tz":1,"tags":{"climbing:sport":"yes","height":"17","name":"Celo","natural":"cliff","sport":"climbing"}},"1202498763":{"lat":49.9504017,"lon":14.1084676,"ts":"2023-08-27T09:43:58Z","tz":1,"tags":{"name":"Tescoma","natural":"cliff","sport":"climbing"}},"1202499864":{"lat":49.9495208,"lon":14.1077989,"ts":"2023-08-27T09:49:59Z","tz":1,"tags":{"climbing:routes":"10","climbing:sport":"yes","height":"18","name":"Rajbas","natural":"cliff","sport":"climbing"}},"1202499865":{"lat":49.9494043,"lon":14.1070855,"ts":"2023-08-27T09:51:38Z","tz":1,"tags":{"climbing:routes":"14","climbing:sport":"yes","height":"23","name":"Pod Vodopadem","natural":"cliff","sport":"climbing"}},"1202501145":{"lat":49.9504972,"lon":14.1088154,"ts":"2023-08-27T09:54:20Z","tz":1,"tags":{"name":"Central","natural":"cliff","sport":"climbing"}},"1263034433":{"lat":49.9435437,"lon":14.1310425,"ts":"2024-03-15T18:41:31Z","tz":1,"tags":{"name":"Štítek","natural":"cliff","sport":"climbing"}},"1321589986":{"lat":50.0432701,"lon":14.3926398,"ts":"2024-10-06T11:26:59Z","tz":1,"tags":{"natural":"cliff","sport":"climbing"}},"1331183860":{"lat":49.9631252,"lon":14.3265668,"ts":"2011-06-19T18:33:55Z","tz":1,"tags":{"leisure":"pitch","sport":"climbing"}},"1377924276":{"lat":49.9133474,"lon":14.0813323,"ts":"2020-04-20T20:31:16Z","tz":1,"tags":{"climbing:bolted":"yes","climbing:grade:french:mean":"6b","climbing:length":"25","climbing:rock":"limestone","sport":"climbing"}},"1377924306":{"lat":49.9135188,"lon":14.0810988,"ts":"2020-04-20T20:31:16Z","tz":1,"tags":{"climbing:bolted":"yes","climbing:grade:french:mean":"7b","climbing:length":"25","climbing:rock":"limestone","sport":"climbing"}},"1377924329":{"lat":49.9135957,"lon":14.0808925,"ts":"2020-04-20T20:31:16Z","tz":1,"tags":{"climbing:bolted":"yes","climbing:grade:french:mean":"6b","climbing:length":"25","climbing:rock":"limestone","sport":"climbing"}},"1377924365":{"lat":49.9137146,"lon":14.0807078,"ts":"2020-04-20T20:31:16Z","tz":1,"tags":{"climbing:bolted":"yes","climbing:grade:french:mean":"6b","climbing:length":"25","climbing:rock":"limestone","sport":"climbing"}},"1377924484":{"lat":49.9140224,"lon":14.0800833,"ts":"2020-04-20T20:31:16Z","tz":1,"tags":{"climbing:bolted":"yes","climbing:grade:french:mean":"6b","climbing:length":"25","climbing:rock":"limestone","sport":"climbing"}},"1382276532":{"lat":49.9134486,"lon":14.0817191,"ts":"2020-04-20T20:31:16Z","tz":1,"tags":{"climbing:bolted":"yes","climbing:grade:french:mean":"6b","climbing:length":"15","climbing:rock":"limestone","sport":"climbing"}},"2296479673":{"lat":49.9129955,"lon":14.3032362,"ts":"2013-05-08T21:47:59Z","tz":1,"tags":{"sport":"climbing"}},"5475312501":{"lat":50.0421278,"lon":14.412797,"ts":"2018-03-13T10:32:34Z","tz":1,"tags":{"climbing:sport":"yes","fee":"no","outdoor":"yes","sport":"climbing"}},"10650068531":{"lat":49.8886266,"lon":14.2304639,"ts":"2024-06-22T15:05:11Z","tz":1,"tags":{"natural":"cave_entrance","note":"vyznačený piktogram lezce v převisu jeskyně","sport":"climbing"}},"11630436742":{"lat":50.0386068,"lon":14.3555059,"ts":"2024-10-03T20:13:48Z","tz":1,"tags":{"climbing":"route_bottom","climbing:grade:uiaa":"4+","name":"Quicki","sport":"climbing","wikimedia_commons":"File:Prokopské údolí - Borová skála - pravý amfiteátr.jpg","wikimedia_commons:2":"File:Prokopské údolí - Borová skála - levá část5.jpg","wikimedia_commons:2:path":"0.923,0.756|0.866,0.408B|0.72,0.239B|0.629,0.181A","wikimedia_commons:path":"0.26,0.391|0.307,0.327B|0.37,0.255B|0.454,0.197A"}},"11630436743":{"lat":50.0386123,"lon":14.3555091,"ts":"2024-02-29T08:08:29Z","tz":1,"tags":{"climbing":"route_bottom","climbing:grade:uiaa":"4","name":"Victoria","sport":"climbing","wikimedia_commons":"File:Prokopské údolí - Borová skála - pravý amfiteátr.jpg","wikimedia_commons:path":"0.262,0.74|0.303,0.516B|0.374,0.352B|0.436,0.251B|0.457,0.237B|0.454,0.197A"}},"11630436744":{"lat":50.0386181,"lon":14.3555132,"ts":"2024-02-29T08:08:29Z","tz":1,"tags":{"climbing":"route_bottom","climbing:grade:uiaa":"5","name":"Sonja","sport":"climbing","wikimedia_commons":"File:Prokopské údolí - Borová skála - pravý amfiteátr.jpg","wikimedia_commons:path":"0.367,0.691|0.375,0.475B|0.425,0.321B|0.499,0.24B|0.516,0.189B|0.539,0.161A"}},"11630436745":{"lat":50.0386244,"lon":14.3555195,"ts":"2024-02-29T08:08:29Z","tz":1,"tags":{"climbing":"route_bottom","climbing:grade:uiaa":"5-","name":"Miriam","sport":"climbing","wikimedia_commons":"File:Prokopské údolí - Borová skála - pravý amfiteátr.jpg","wikimedia_commons:path":"0.533,0.715|0.574,0.442B|0.582,0.324B|0.616,0.191B|0.651,0.156B|0.675,0.14A"}},"11630436746":{"lat":50.0386303,"lon":14.3555251,"ts":"2024-02-29T08:08:29Z","tz":1,"tags":{"climbing":"route_bottom","climbing:grade:uiaa":"7","name":"Varianta","sport":"climbing","wikimedia_commons":"File:Prokopské údolí - Borová skála - pravý amfiteátr.jpg","wikimedia_commons:path":"0.618,0.702|0.669,0.327B|0.63,0.216B|0.671,0.177B|0.719,0.165B|0.757,0.144A"}},"11630436747":{"lat":50.0386363,"lon":14.355531,"ts":"2024-02-29T08:08:29Z","tz":1,"tags":{"climbing":"route_bottom","climbing:grade:uiaa":"5-","name":"Sluneční hrana","sport":"climbing","wikimedia_commons":"File:Prokopské údolí - Borová skála - pravý amfiteátr.jpg","wikimedia_commons:path":"0.771,0.708|0.684,0.438B|0.669,0.327B|0.63,0.216B|0.671,0.177B|0.719,0.165B|0.757,0.144A"}},"11630436748":{"lat":50.0386418,"lon":14.3555361,"ts":"2024-02-29T08:20:55Z","tz":1,"tags":{"climbing":"route_bottom","climbing:grade:uiaa":"3","name":"Easy","sport":"climbing","wikimedia_commons":"File:Prokopské údolí - Borová skála - pravý amfiteátr.jpg","wikimedia_commons:2":"File:Prokopské údolí - Borová skála - pravý amfiteátr2.jpg","wikimedia_commons:path":"0.95,0.684|0.878,0.435B|0.784,0.338B|0.735,0.21B|0.671,0.177B|0.719,0.165B|0.757,0.144A"}},"11630436749":{"lat":50.038647,"lon":14.3555406,"ts":"2024-02-29T09:18:54Z","tz":1,"tags":{"climbing":"route_bottom","climbing:grade:uiaa":"5+","name":"Naturfreunde cesta","sport":"climbing","wikimedia_commons":"File:Prokopské údolí - Borová skála - pravý amfiteátr2.jpg","wikimedia_commons:path":"0.417,0.845|0.225,0.431B|0.177,0.284B|0.215,0.195B|0.267,0.147B|0.187,0.06B|0.099,0.1A"}},"11630436750":{"lat":50.0386539,"lon":14.355546,"ts":"2024-02-29T08:20:55Z","tz":1,"tags":{"climbing":"route_bottom","climbing:grade:uiaa":"5+","name":"Varianta (Naturfreunde)","sport":"climbing","wikimedia_commons":"File:Prokopské údolí - Borová skála - pravý amfiteátr2.jpg"}},"11630436751":{"lat":50.0386622,"lon":14.3555545,"ts":"2024-02-29T09:18:54Z","tz":1,"tags":{"climbing":"route_bottom","climbing:grade:uiaa":"5+","name":"Tinka","sport":"climbing","wikimedia_commons":"File:Prokopské údolí - Borová skála - pravý amfiteátr2.jpg","wikimedia_commons:path":"0.628,0.844|0.474,0.539|0.414,0.438B|0.364,0.373B|0.38,0.18B|0.31,0.111B|0.273,0.036A"}},"11630436752":{"lat":50.0386683,"lon":14.3555614,"ts":"2024-02-29T09:18:54Z","tz":1,"tags":{"climbing":"route_bottom","climbing:grade:uiaa":"6","name":"Tinka - Pravá varianta","sport":"climbing","wikimedia_commons":"File:Prokopské údolí - Borová skála - pravý amfiteátr2.jpg","wikimedia_commons:path":"0.628,0.844|0.474,0.539|0.481,0.402B|0.463,0.344B|0.439,0.256B|0.38,0.18B|0.31,0.111B|0.273,0.036A"}},"11630436753":{"lat":50.0386725,"lon":14.3555716,"ts":"2024-02-29T13:42:53Z","tz":1,"tags":{"climbing":"route_bottom","climbing:grade:uiaa":"5-","name":"Návštěva jeskyně","sport":"climbing","wikimedia_commons":"File:Prokopské údolí - Borová skála - pravý amfiteátr2.jpg","wikimedia_commons:2":"File:Prokopské údolí - Borová skála - pravý amfiteátr3.jpg","wikimedia_commons:2:path":"0.09,0.871|0.168,0.52B|0.155,0.432B|0.141,0.329B|0.247,0.258B|0.303,0.127B|0.444,0.137A","wikimedia_commons:path":"0.784,0.841|0.702,0.547B|0.671,0.468B|0.626,0.388B|0.69,0.3B|0.696,0.178B|0.815,0.114A"}},"11630436754":{"lat":50.0386767,"lon":14.3555856,"ts":"2024-02-29T13:43:52Z","tz":1,"tags":{"climbing":"route_bottom","climbing:grade:uiaa":"5","name":"Levá varianta pro tlustý","sport":"climbing","wikimedia_commons":"File:Prokopské údolí - Borová skála - pravý amfiteátr3.jpg","wikimedia_commons:path":"0.306,0.889|0.387,0.577B|0.345,0.42B|0.116,0.173B|0.303,0.127B|0.444,0.137A"}},"11630436755":{"lat":50.0386781,"lon":14.3556024,"ts":"2024-10-25T20:33:10Z","tz":1,"tags":{"climbing":"route_bottom","climbing:grade:uiaa":"4","description":"Tato cesta prolézá úzkou jeskyní ","name":"Jen pro hubený","sport":"climbing","wikimedia_commons":"File:Prokopské údolí - Borová skála - pravý amfiteátr3.jpg","wikimedia_commons:path":"0.306,0.889|0.387,0.577B|0.345,0.42B|0.247,0.258B|0.303,0.127B|0.444,0.137A"}},"11630436756":{"lat":50.0386775,"lon":14.3556175,"ts":"2024-02-29T13:42:53Z","tz":1,"tags":{"climbing":"route_bottom","climbing:grade:uiaa":"5+","name":"Pravá varianta pro tlustý","sport":"climbing","wikimedia_commons":"File:Prokopské údolí - Borová skála - pravý amfiteátr3.jpg","wikimedia_commons:path":"0.306,0.889|0.387,0.577B|0.345,0.42B|0.35,0.249|0.412,0.169B|0.444,0.137A"}},"11630436757":{"lat":50.0386742,"lon":14.3556308,"ts":"2024-02-29T13:42:53Z","tz":1,"tags":{"climbing":"route_bottom","climbing:grade:uiaa":"5+","name":"Kdo hledá najde","sport":"climbing","wikimedia_commons":"File:Prokopské údolí - Borová skála - pravý amfiteátr3.jpg","wikimedia_commons:path":"0.564,0.898|0.542,0.611B|0.564,0.495B|0.586,0.367B|0.524,0.294B|0.485,0.198B|0.444,0.137A"}},"11630436758":{"lat":50.0386718,"lon":14.3556434,"ts":"2024-02-29T13:42:54Z","tz":1,"tags":{"climbing":"route_bottom","climbing:grade:uiaa":"5","name":"Žlutý pes","sport":"climbing","wikimedia_commons":"File:Prokopské údolí - Borová skála - pravý amfiteátr3.jpg","wikimedia_commons:path":"0.86,0.857|0.805,0.65B|0.761,0.547B|0.71,0.365B|0.65,0.297B|0.546,0.212B|0.444,0.137A"}},"11630436759":{"lat":50.0386686,"lon":14.3556579,"ts":"2024-02-29T13:54:20Z","tz":1,"tags":{"climbing":"route_bottom","climbing:grade:uiaa":"5+","name":"Na slunci","sport":"climbing","wikimedia_commons":"File:Prokopské údolí - Borová skála - pravý amfiteátr3.jpg","wikimedia_commons:2":"File:Prokopské údolí - Borová skála - pravý amfiteátr4.jpg","wikimedia_commons:2:path":"0.223,0.779|0.299,0.471B|0.322,0.269B|0.35,0.2B|0.373,0.153B|0.378,0.132A","wikimedia_commons:path":"0.906,0.841|0.889,0.631B|0.864,0.456B|0.867,0.387B|0.823,0.306B|0.822,0.282A"}},"11630436760":{"lat":50.0386654,"lon":14.3556715,"ts":"2024-10-25T20:35:50Z","tz":1,"tags":{"climbing":"route_bottom","climbing:grade:uiaa":"7-","description":"Nepříliš příjemné lezení. Zpravidla velmi špinavá cesta. ","name":"Vápno nevaruje, vápno trestá","sport":"climbing","wikimedia_commons":"File:Prokopské údolí - Borová skála - pravý amfiteátr4.jpg","wikimedia_commons:path":"0.477,0.787|0.475,0.458B|0.482,0.306B|0.536,0.176B|0.526,0.14B|0.518,0.129A"}},"11630436761":{"lat":50.0386633,"lon":14.3556844,"ts":"2024-10-25T20:36:07Z","tz":1,"tags":{"climbing":"route_bottom","climbing:grade:uiaa":"8-","description":"Nepříliš příjemné lezení. Zpravidla velmi špinavá cesta. ","name":"Zákon velkých čísel","sport":"climbing","wikimedia_commons":"File:Prokopské údolí - Borová skála - pravý amfiteátr4.jpg","wikimedia_commons:path":"0.628,0.811|0.607,0.406B|0.641,0.283B|0.582,0.186|0.526,0.14B|0.518,0.129A"}},"11630436762":{"lat":50.0386608,"lon":14.3557003,"ts":"2024-02-29T13:51:55Z","tz":1,"tags":{"climbing":"route_bottom","climbing:grade:uiaa":"6+","name":"Sickday","sport":"climbing","wikimedia_commons":"File:Prokopské údolí - Borová skála - pravý amfiteátr4.jpg","wikimedia_commons:path":"0.957,0.53|0.903,0.398B|0.765,0.278B|0.732,0.192B|0.526,0.14B|0.518,0.129A"}},"11630456965":{"lat":50.038854,"lon":14.3553214,"ts":"2024-02-18T16:18:28Z","tz":1,"tags":{"climbing":"route_bottom","climbing:grade:uiaa":"3","name":"Kapesní cesta","sport":"climbing"}},"11630456966":{"lat":50.0388447,"lon":14.3553152,"ts":"2024-02-29T07:44:04Z","tz":1,"tags":{"climbing":"route_bottom","climbing:grade:uiaa":"5+","name":"Trhlina","sport":"climbing","wikimedia_commons":"File:Prokopské údolí - Borová skála - levá část4.jpg","wikimedia_commons:path":"0.139,0.576|0.231,0.282|0.207,0.147|0.252,0.015"}},"11630456967":{"lat":50.0388373,"lon":14.3553112,"ts":"2024-02-29T07:44:04Z","tz":1,"tags":{"climbing":"route_bottom","climbing:grade:uiaa":"3+","name":"První krůčky","sport":"climbing","wikimedia_commons":"File:Prokopské údolí - Borová skála - levá část4.jpg","wikimedia_commons:path":"0.223,0.658|0.351,0.271|0.371,0.157B|0.482,0.109B"}},"11630456968":{"lat":50.0388318,"lon":14.3553082,"ts":"2024-02-29T07:44:04Z","tz":1,"tags":{"climbing":"route_bottom","climbing:grade:uiaa":"5","name":"Poslední krok","sport":"climbing","wikimedia_commons":"File:Prokopské údolí - Borová skála - levá část4.jpg","wikimedia_commons:path":"0.432,0.881|0.371,0.157B|0.482,0.109B"}},"11630531369":{"lat":50.0388251,"lon":14.3553064,"ts":"2024-02-29T07:44:04Z","tz":1,"tags":{"climbing":"route_bottom","climbing:grade:uiaa":"8-","name":"Poslední šiška","sport":"climbing","wikimedia_commons":"File:Prokopské údolí - Borová skála - levá část4.jpg","wikimedia_commons:path":"0.569,0.954|0.49,0.414B|0.464,0.251B|0.482,0.109B"}},"11630531370":{"lat":50.0388179,"lon":14.3553033,"ts":"2024-02-29T07:44:04Z","tz":1,"tags":{"climbing":"route_bottom","climbing:grade:uiaa":"3","name":"Uzená cesta","sport":"climbing","wikimedia_commons":"File:Prokopské údolí - Borová skála - levá část4.jpg","wikimedia_commons:path":"0.647,0.95|0.733,0.477|0.63,0.226|0.543,0.136"}},"11630531371":{"lat":50.0388128,"lon":14.3553017,"ts":"2024-02-29T07:44:04Z","tz":1,"tags":{"climbing":"route_bottom","climbing:grade:uiaa":"5","name":"Včerejší pytel","sport":"climbing","wikimedia_commons":"File:Prokopské údolí - Borová skála - levá část4.jpg","wikimedia_commons:path":"0.647,0.95|0.733,0.477|0.769,0.293|0.654,0.172"}},"11630531372":{"lat":50.0388059,"lon":14.355299,"ts":"2024-02-28T21:23:26Z","tz":1,"tags":{"climbing":"route_bottom","climbing:grade:uiaa":"7-","name":"Direkt dialogály","sport":"climbing","wikimedia_commons":"File:Prokopské údolí - Borová skála - levá část3.jpg"}},"11630531373":{"lat":50.0387994,"lon":14.3552958,"ts":"2024-02-29T07:29:03Z","tz":1,"tags":{"climbing":"route_bottom","climbing:grade:uiaa":"6","name":"Moje univerzity","sport":"climbing","wikimedia_commons":"File:Prokopské údolí - Borová skála - levá část3.jpg","wikimedia_commons:path":"0.212,0.665|0.233,0.434|0.233,0.284B|0.253,0.162B|0.292,0.139B|0.321,0.088A"}},"11630531374":{"lat":50.038794,"lon":14.3552934,"ts":"2024-02-29T14:00:43Z","tz":1,"tags":{"climbing":"route_bottom","climbing:grade:uiaa":"6+","name":"Logická diagonála","sport":"climbing","wikimedia_commons":"File:Prokopské údolí - Borová skála - levá část3.jpg","wikimedia_commons:path":"0.229,0.733|0.343,0.352B|0.356,0.256B|0.233,0.284B|0.196,0.151B|0.264,0.085B|0.321,0.088A"}},"11630531375":{"lat":50.0387876,"lon":14.3552911,"ts":"2024-02-29T07:29:04Z","tz":1,"tags":{"climbing":"route_bottom","climbing:grade:uiaa":"6-","name":"Hrana mezi kouty","sport":"climbing","wikimedia_commons":"File:Prokopské údolí - Borová skála - levá část3.jpg","wikimedia_commons:path":"0.229,0.733|0.343,0.352B|0.356,0.256B|0.343,0.154B|0.395,0.115B|0.432,0.102A"}},"11630531376":{"lat":50.0387771,"lon":14.3552838,"ts":"2024-02-29T07:29:03Z","tz":1,"tags":{"climbing":"route_bottom","climbing:grade:uiaa":"5","name":"Suvenýr z Cimy","sport":"climbing","wikimedia_commons":"File:Prokopské údolí - Borová skála - levá část3.jpg","wikimedia_commons:path":"0.395,0.841|0.406,0.245B|0.428,0.234|0.432,0.176B|0.431,0.137A"}},"11630531377":{"lat":50.0387656,"lon":14.3552751,"ts":"2024-02-29T07:29:03Z","tz":1,"tags":{"climbing":"route_bottom","climbing:grade:uiaa":"5","name":"Diagonála","sport":"climbing","wikimedia_commons":"File:Prokopské údolí - Borová skála - levá část3.jpg","wikimedia_commons:path":"0.591,0.944|0.487,0.328|0.543,0.116A"}},"11630531378":{"lat":50.0387517,"lon":14.3552793,"ts":"2024-02-29T07:29:03Z","tz":1,"tags":{"climbing":"route_bottom","climbing:grade:uiaa":"4+","name":"Sluneční hrana","sport":"climbing","wikimedia_commons":"File:Prokopské údolí - Borová skála - levá část3.jpg","wikimedia_commons:path":"0.799,0.988|0.649,0.522B|0.615,0.334B|0.553,0.209|0.543,0.116A"}},"11630531379":{"lat":50.0387411,"lon":14.3552852,"ts":"2024-02-28T21:28:05Z","tz":1,"tags":{"climbing":"route_bottom","climbing:grade:uiaa":"4","name":"Vavřinecká","sport":"climbing","wikimedia_commons":"File:Prokopské údolí - Borová skála - levá část2.jpg","wikimedia_commons:path":"0.163,0.573|0.248,0.369|0.297,0.328|0.304,0.221B|0.336,0.172B|0.369,0.138B|0.413,0.113A"}},"11630531380":{"lat":50.038727,"lon":14.3552963,"ts":"2024-02-28T21:28:05Z","tz":1,"tags":{"climbing":"route_bottom","climbing:grade:uiaa":"3+","name":"Mls","sport":"climbing","wikimedia_commons":"File:Prokopské údolí - Borová skála - levá část2.jpg","wikimedia_commons:path":"0.263,0.651|0.391,0.199B|0.417,0.141B|0.413,0.113A"}},"11630531381":{"lat":50.0387081,"lon":14.3553117,"ts":"2024-02-28T21:28:05Z","tz":1,"tags":{"climbing":"route_bottom","climbing:grade:uiaa":"3","name":"Večerní radovánky","sport":"climbing","wikimedia_commons":"File:Prokopské údolí - Borová skála - levá část2.jpg","wikimedia_commons:path":"0.473,0.819|0.527,0.5|0.442,0.338|0.482,0.179B|0.413,0.113A"}},"11630531382":{"lat":50.0386914,"lon":14.3553234,"ts":"2024-02-28T20:39:31Z","tz":1,"tags":{"climbing":"route_bottom","climbing:grade:uiaa":"1","name":"Sestupová","sport":"climbing","wikimedia_commons":"File:Prokopské údolí - Borová skála - levá část2.jpg"}},"11630531383":{"lat":50.0386741,"lon":14.3553349,"ts":"2024-02-29T07:48:37Z","tz":1,"tags":{"climbing":"route_bottom","climbing:grade:uiaa":"4+","name":"Fialková","sport":"climbing","wikimedia_commons":"File:Prokopské údolí - Borová skála - levá část2.jpg","wikimedia_commons:2":"File:Prokopské údolí - Borová skála - levá část.jpg","wikimedia_commons:path":"0.838,0.872|0.755,0.409B|0.665,0.237B|0.611,0.16A"}},"11630531384":{"lat":50.0386586,"lon":14.3553458,"ts":"2024-02-28T19:44:14Z","tz":1,"tags":{"climbing":"route_bottom","climbing:grade:uiaa":"4+","name":"Plochý pilíř","sport":"climbing","wikimedia_commons":"File:Prokopské údolí - Borová skála - levá část.jpg","wikimedia_commons:path":"0.226,0.714|0.283,0.227A"}},"11630531385":{"lat":50.0386438,"lon":14.3553539,"ts":"2024-02-28T19:44:14Z","tz":1,"tags":{"climbing":"route_bottom","climbing:grade:uiaa":"4","name":"Dva pilíře","sport":"climbing","wikimedia_commons":"File:Prokopské údolí - Borová skála - levá část.jpg","wikimedia_commons:path":"0.376,0.746|0.388,0.437B|0.371,0.315B|0.436,0.23B|0.502,0.147A"}},"11630531386":{"lat":50.0386319,"lon":14.3553649,"ts":"2024-02-28T19:44:14Z","tz":1,"tags":{"climbing":"route_bottom","climbing:grade:uiaa":"3+","name":"Tingl-tangl","sport":"climbing","wikimedia_commons":"File:Prokopské údolí - Borová skála - levá část.jpg","wikimedia_commons:path":"0.376,0.746|0.388,0.437B|0.43,0.346|0.586,0.161A"}},"11630531387":{"lat":50.0386237,"lon":14.355383,"ts":"2024-02-28T19:44:14Z","tz":1,"tags":{"climbing":"route_bottom","climbing:grade:uiaa":"4","name":"Petřiny plotny","sport":"climbing","wikimedia_commons":"File:Prokopské údolí - Borová skála - levá část.jpg","wikimedia_commons:path":"0.449,0.77|0.454,0.405B|0.482,0.25B|0.503,0.203B|0.515,0.183B|0.502,0.147A"}},"11630531388":{"lat":50.0386195,"lon":14.3553967,"ts":"2024-02-28T19:44:14Z","tz":1,"tags":{"climbing":"route_bottom","climbing:grade:uiaa":"4","name":"Cik cak","sport":"climbing","wikimedia_commons":"File:Prokopské údolí - Borová skála - levá část.jpg","wikimedia_commons:path":"0.53,0.784|0.53,0.534|0.454,0.405B|0.371,0.315B|0.283,0.227A"}},"11630531389":{"lat":50.0386169,"lon":14.3554103,"ts":"2024-02-28T19:44:14Z","tz":1,"tags":{"climbing":"route_bottom","climbing:grade:uiaa":"5-","name":"Zimní cesta","sport":"climbing","wikimedia_commons":"File:Prokopské údolí - Borová skála - levá část.jpg","wikimedia_commons:path":"0.71,0.803|0.659,0.552B|0.558,0.383B|0.564,0.26B|0.586,0.161A"}},"11630531390":{"lat":50.038614,"lon":14.3554242,"ts":"2024-02-28T19:44:14Z","tz":1,"tags":{"climbing":"route_bottom","climbing:grade:uiaa":"5","name":"Spára","sport":"climbing","wikimedia_commons":"File:Prokopské údolí - Borová skála - levá část.jpg","wikimedia_commons:path":"0.71,0.803|0.659,0.552B|0.68,0.36B|0.67,0.271B|0.658,0.233B|0.646,0.199B|0.62,0.153A"}},"11630531391":{"lat":50.0386106,"lon":14.3554381,"ts":"2024-10-03T20:10:58Z","tz":1,"tags":{"climbing":"route_bottom","climbing:grade:uiaa":"5+","name":"Spára zprava","sport":"climbing","wikimedia_commons":"File:Prokopské údolí - Borová skála - levá část.jpg","wikimedia_commons:2":"File:Prokopské údolí - Borová skála - levá část5.jpg","wikimedia_commons:2:path":"0.166,0.88|0.194,0.393B|0.19,0.339B|0.203,0.235B|0.222,0.172B|0.258,0.109A","wikimedia_commons:path":"0.776,0.803|0.729,0.455B|0.722,0.383B|0.708,0.307B|0.687,0.205B|0.62,0.153A"}},"11630531392":{"lat":50.0386069,"lon":14.355454,"ts":"2024-02-28T19:44:14Z","tz":1,"tags":{"climbing":"route_bottom","climbing:grade:uiaa":"6+","name":"Cesta do pohádky","sport":"climbing","wikimedia_commons":"File:Prokopské údolí - Borová skála - levá část.jpg","wikimedia_commons:path":"0.835,0.745|0.772,0.418|0.681,0.119A"}},"11630531393":{"lat":50.0386033,"lon":14.3554686,"ts":"2024-10-03T20:10:58Z","tz":1,"tags":{"climbing":"route_bottom","climbing:grade:uiaa":"6","name":"Převis Přímo","sport":"climbing","wikimedia_commons":"File:Prokopské údolí - Borová skála - levá část.jpg","wikimedia_commons:2":"File:Prokopské údolí - Borová skála - levá část5.jpg","wikimedia_commons:2:path":"0.334,0.891|0.371,0.343B|0.31,0.162B|0.258,0.109A","wikimedia_commons:path":"0.869,0.8|0.849,0.526B|0.767,0.277B|0.681,0.119A"}},"11630531394":{"lat":50.0386001,"lon":14.355479,"ts":"2024-10-03T20:10:58Z","tz":1,"tags":{"climbing":"route_bottom","climbing:grade:uiaa":"6","name":"Převis zprava","sport":"climbing","wikimedia_commons":"File:Prokopské údolí - Borová skála - levá část.jpg","wikimedia_commons:2":"File:Prokopské údolí - Borová skála - levá část5.jpg","wikimedia_commons:2:path":"0.593,0.916|0.529,0.316B|0.414,0.134B|0.258,0.109A","wikimedia_commons:path":"0.923,0.766|0.888,0.485B|0.796,0.276B|0.681,0.119A"}},"11644864108":{"lat":50.0422097,"lon":14.4124859,"ts":"2024-02-20T14:32:23Z","tz":1,"tags":{"climbing":"route_bottom","climbing:grade:french":"5c","name":"Anička","sport":"climbing","wikimedia_commons":"File:Branické skály - Převisy.jpg","wikimedia_commons:path":"0.509,0.668|0.402,0.372|0.408,0.17|0.627,0.055"}},"11644864109":{"lat":50.0422012,"lon":14.4124859,"ts":"2024-02-20T14:32:23Z","tz":1,"tags":{"climbing":"route_bottom","climbing:grade:french":"6c+","name":"Komu zvoní hrana","sport":"climbing","wikimedia_commons":"File:Branické skály - Převisy.jpg","wikimedia_commons:path":"0.509,0.668|0.478,0.443|0.438,0.328|0.408,0.17|0.627,0.055"}},"11644864110":{"lat":50.0421926,"lon":14.4124905,"ts":"2024-02-20T14:32:23Z","tz":1,"tags":{"climbing":"route_bottom","climbing:grade:french":"6","name":"Stará cesta","sport":"climbing","wikimedia_commons":"File:Branické skály - Převisy.jpg"}},"11644864111":{"lat":50.0421796,"lon":14.4124958,"ts":"2024-02-20T14:32:23Z","tz":1,"tags":{"climbing":"route_bottom","climbing:grade:french":"5b","name":"Rubikova kostka","sport":"climbing","wikimedia_commons":"File:Branické skály - Převisy.jpg","wikimedia_commons:path":"0.509,0.668|0.704,0.343|0.749,0.267A"}},"11644864112":{"lat":50.0421683,"lon":14.4124977,"ts":"2024-02-20T14:32:23Z","tz":1,"tags":{"climbing":"route_bottom","climbing:grade:french":"5c+","name":"Kriplkárka","sport":"climbing","wikimedia_commons":"File:Branické skály - Převisy.jpg","wikimedia_commons:path":"0.752,0.922|0.603,0.201|0.678,0.118A"}},"11644864113":{"lat":50.0421539,"lon":14.4124985,"ts":"2024-02-20T14:32:23Z","tz":1,"tags":{"climbing":"route_bottom","climbing:grade:french":"6b+","name":"Kriplkára","sport":"climbing","wikimedia_commons":"File:Branické skály - Převisy.jpg","wikimedia_commons:path":"0.752,0.922|0.603,0.201|0.525,0.119A"}},"11644864114":{"lat":50.0421434,"lon":14.4125006,"ts":"2024-02-20T14:32:23Z","tz":1,"tags":{"climbing":"route_bottom","climbing:grade:french":"6c","name":"Citlivý robot","sport":"climbing","wikimedia_commons":"File:Branické skály - Převisy.jpg","wikimedia_commons:path":"0.823,0.814|0.704,0.343|0.749,0.267A"}},"11644864115":{"lat":50.0421325,"lon":14.4124999,"ts":"2024-02-20T14:32:23Z","tz":1,"tags":{"climbing":"route_bottom","climbing:grade:french":"7c+","name":"Hořká dokonalost","sport":"climbing","wikimedia_commons":"File:Branické skály - Převisy.jpg","wikimedia_commons:path":"0.749,0.267A|0.7,0.158|0.759,0.125|0.678,0.118A"}},"11644864116":{"lat":50.0421174,"lon":14.4125019,"ts":"2024-02-20T14:32:23Z","tz":1,"tags":{"climbing":"route_bottom","climbing:grade:french":"6b+","name":"Špinavý záda","sport":"climbing","wikimedia_commons":"File:Branické skály - Převisy.jpg"}},"11644864117":{"lat":50.0421008,"lon":14.4125049,"ts":"2024-02-20T14:32:23Z","tz":1,"tags":{"climbing":"route_bottom","climbing:grade:french":"6a","name":"Junior","sport":"climbing","wikimedia_commons":"File:Branické skály - Převisy.jpg"}},"11644864118":{"lat":50.042085,"lon":14.4125062,"ts":"2024-02-20T14:32:23Z","tz":1,"tags":{"climbing":"route_bottom","climbing:grade:french":"8a","name":"Draze jen chutná","sport":"climbing","wikimedia_commons":"File:Branické skály - Převisy.jpg"}},"11644864119":{"lat":50.0420707,"lon":14.4125073,"ts":"2024-02-20T14:32:23Z","tz":1,"tags":{"climbing":"route_bottom","climbing:grade:french":"7a+","name":"Braník","sport":"climbing","wikimedia_commons":"File:Branické skály - Převisy.jpg"}},"11644864120":{"lat":50.042058,"lon":14.4125095,"ts":"2024-02-20T14:32:23Z","tz":1,"tags":{"climbing":"route_bottom","climbing:grade:french":"10-","name":"Krutor","sport":"climbing","wikimedia_commons":"File:Branické skály - Převisy.jpg"}},"11644864121":{"lat":50.0420457,"lon":14.4125086,"ts":"2024-02-20T14:32:23Z","tz":1,"tags":{"climbing":"route_bottom","climbing:grade:french":"8a","name":"Game over","sport":"climbing","wikimedia_commons":"File:Branické skály - Převisy.jpg"}},"11644864122":{"lat":50.0420356,"lon":14.4125066,"ts":"2024-02-20T14:32:23Z","tz":1,"tags":{"climbing":"route_bottom","climbing:grade:french":"6c","name":"Půtovka","sport":"climbing","wikimedia_commons":"File:Branické skály - Převisy.jpg"}},"11644864123":{"lat":50.0420242,"lon":14.412506,"ts":"2024-02-20T14:32:23Z","tz":1,"tags":{"climbing":"route_bottom","climbing:grade:french":"7a","name":"Překvapivá tvrdost","sport":"climbing","wikimedia_commons":"File:Branické skály - Převisy.jpg"}},"11644864124":{"lat":50.0420158,"lon":14.4125039,"ts":"2024-02-20T14:32:23Z","tz":1,"tags":{"climbing":"route_bottom","climbing:grade:french":"5","name":"Večernice","sport":"climbing","wikimedia_commons":"File:Branické skály - Převisy.jpg"}},"11645691914":{"lat":50.042391,"lon":14.412837,"ts":"2024-02-20T14:25:20Z","tz":1,"tags":{"climbing":"route_bottom","climbing:grade:uiaa":"3","name":"Přilby nasadit","sport":"climbing"}},"11645691915":{"lat":50.0423826,"lon":14.4128223,"ts":"2024-02-20T14:25:20Z","tz":1,"tags":{"climbing":"route_bottom","climbing:grade:uiaa":"4-","name":"Lomolezec","sport":"climbing"}},"11645691916":{"lat":50.0423724,"lon":14.4128051,"ts":"2024-02-20T14:25:20Z","tz":1,"tags":{"climbing":"route_bottom","climbing:grade:uiaa":"5","name":"Žebro","sport":"climbing"}},"11645691917":{"lat":50.0423619,"lon":14.4127875,"ts":"2024-02-20T14:25:20Z","tz":1,"tags":{"climbing":"route_bottom","climbing:grade:uiaa":"5","name":"Nekonečník","sport":"climbing"}},"11645691918":{"lat":50.0423514,"lon":14.412769,"ts":"2024-02-20T14:25:20Z","tz":1,"tags":{"climbing":"route_bottom","climbing:grade:uiaa":"3","name":"Polib","sport":"climbing"}},"11645691919":{"lat":50.0423416,"lon":14.4127475,"ts":"2024-02-20T14:25:20Z","tz":1,"tags":{"climbing":"route_bottom","climbing:grade:uiaa":"4","name":"Scream of stone","sport":"climbing"}},"11645691920":{"lat":50.0423319,"lon":14.412728,"ts":"2024-02-20T14:25:20Z","tz":1,"tags":{"climbing":"route_bottom","climbing:grade:uiaa":"4+","name":"Tobogán","sport":"climbing"}},"11645691921":{"lat":50.042322,"lon":14.4127106,"ts":"2024-02-20T14:25:20Z","tz":1,"tags":{"climbing":"route_bottom","climbing:grade:uiaa":"3","name":"Prváč","sport":"climbing"}},"11645691922":{"lat":50.0423146,"lon":14.4126939,"ts":"2024-02-20T14:25:20Z","tz":1,"tags":{"climbing":"route_bottom","climbing:grade:uiaa":"3","name":"Makáč","sport":"climbing"}},"11645691923":{"lat":50.0423064,"lon":14.4126763,"ts":"2024-02-20T14:25:20Z","tz":1,"tags":{"climbing":"route_bottom","climbing:grade:uiaa":"3+","name":"Hrbáč","sport":"climbing"}},"11645691924":{"lat":50.042294,"lon":14.4126577,"ts":"2024-02-20T14:25:20Z","tz":1,"tags":{"climbing":"route_bottom","climbing:grade:uiaa":"3+","name":"Kartáč","sport":"climbing"}},"11645691925":{"lat":50.0422853,"lon":14.4126385,"ts":"2024-02-20T14:25:20Z","tz":1,"tags":{"climbing":"route_bottom","climbing:grade:uiaa":"4-","name":"Stmíváč","sport":"climbing"}},"11645691926":{"lat":50.0422773,"lon":14.4126206,"ts":"2024-02-20T14:25:20Z","tz":1,"tags":{"climbing":"route_bottom","climbing:grade:uiaa":"5-","name":"Dlouháč","sport":"climbing"}},"11645691927":{"lat":50.0422672,"lon":14.4126025,"ts":"2024-02-20T14:25:20Z","tz":1,"tags":{"climbing":"route_bottom","climbing:grade:uiaa":"4","name":"Srabáč","sport":"climbing"}},"11645691928":{"lat":50.0422531,"lon":14.4125816,"ts":"2024-02-20T14:25:20Z","tz":1,"tags":{"climbing":"route_bottom","climbing:grade:uiaa":"5","name":"Křováč","sport":"climbing"}},"11645691929":{"lat":50.0422445,"lon":14.412564,"ts":"2024-02-20T14:25:20Z","tz":1,"tags":{"climbing":"route_bottom","climbing:grade:uiaa":"4-","name":"Jenháky","sport":"climbing"}},"11645691930":{"lat":50.0422361,"lon":14.4125456,"ts":"2024-02-20T14:25:20Z","tz":1,"tags":{"climbing":"route_bottom","climbing:grade:uiaa":"4","name":"Pizza al spinaci","sport":"climbing"}},"11645693216":{"lat":50.0415208,"lon":14.4125753,"ts":"2024-02-20T14:51:57Z","tz":1,"tags":{"climbing":"route_bottom","climbing:grade:uiaa":"4-","name":"Marťanský šprým","sport":"climbing"}},"11645693217":{"lat":50.0414967,"lon":14.4125475,"ts":"2024-02-20T14:51:57Z","tz":1,"tags":{"climbing":"route_bottom","climbing:grade:uiaa":"4","name":"Cesta po dně","sport":"climbing"}},"11645693218":{"lat":50.0414758,"lon":14.4125182,"ts":"2024-02-20T14:51:57Z","tz":1,"tags":{"climbing":"route_bottom","climbing:grade:uiaa":"5","name":"Mravenčí ukolébavka","sport":"climbing"}},"11645693219":{"lat":50.0414529,"lon":14.4124971,"ts":"2024-02-20T14:51:57Z","tz":1,"tags":{"climbing":"route_bottom","climbing:grade:uiaa":"5-","name":"Růže na skládce","sport":"climbing"}},"11645693385":{"lat":50.0425319,"lon":14.4123627,"ts":"2024-02-20T14:29:02Z","tz":1,"tags":{"climbing":"route_bottom","climbing:grade:uiaa":"3","name":"Hrom","sport":"climbing"}},"11645693386":{"lat":50.0425242,"lon":14.412383,"ts":"2024-02-20T14:29:02Z","tz":1,"tags":{"climbing":"route_bottom","climbing:grade:uiaa":"4","name":"Bažant na plotně","sport":"climbing"}},"11645693387":{"lat":50.0425148,"lon":14.4124038,"ts":"2024-02-20T14:29:02Z","tz":1,"tags":{"climbing":"route_bottom","climbing:grade:uiaa":"5","name":"Blesk","sport":"climbing"}},"11645693388":{"lat":50.0425028,"lon":14.4124282,"ts":"2024-02-20T14:29:02Z","tz":1,"tags":{"climbing":"route_bottom","climbing:grade:uiaa":"5","name":"Slejvák","sport":"climbing"}},"11645693389":{"lat":50.042495,"lon":14.4124491,"ts":"2024-02-20T14:29:02Z","tz":1,"tags":{"climbing":"route_bottom","climbing:grade:uiaa":"5","name":"Tropické vedro","sport":"climbing"}},"11645693390":{"lat":50.0424849,"lon":14.4124684,"ts":"2024-02-20T14:29:02Z","tz":1,"tags":{"climbing":"route_bottom","climbing:grade:uiaa":"4","name":"Rejžák","sport":"climbing"}},"11645693391":{"lat":50.0424712,"lon":14.4124874,"ts":"2024-02-20T14:29:02Z","tz":1,"tags":{"climbing":"route_bottom","climbing:grade:uiaa":"5+","name":"Mýdlo","sport":"climbing"}},"11645693392":{"lat":50.0424575,"lon":14.4125027,"ts":"2024-02-20T14:29:02Z","tz":1,"tags":{"climbing":"route_bottom","climbing:grade:uiaa":"3","name":"Poslední","sport":"climbing"}},"11645693393":{"lat":50.0424477,"lon":14.412522,"ts":"2024-02-20T14:29:02Z","tz":1,"tags":{"climbing":"route_bottom","climbing:grade:uiaa":"5","name":"Kocourkovy drápky","sport":"climbing"}},"11645693394":{"lat":50.0424371,"lon":14.412538,"ts":"2024-02-20T14:29:02Z","tz":1,"tags":{"climbing":"route_bottom","climbing:grade:uiaa":"5","name":"Krážem křížem","sport":"climbing"}},"11645693395":{"lat":50.0424267,"lon":14.4125568,"ts":"2024-02-20T14:29:02Z","tz":1,"tags":{"climbing":"route_bottom","climbing:grade:uiaa":"4","name":"Křížem krážem","sport":"climbing"}},"11645693396":{"lat":50.0424135,"lon":14.4125736,"ts":"2024-02-20T14:29:02Z","tz":1,"tags":{"climbing":"route_bottom","climbing:grade:uiaa":"4","name":"Križom někrižom","sport":"climbing"}},"11645695945":{"lat":50.0419987,"lon":14.4125102,"ts":"2024-02-20T14:35:05Z","tz":1,"tags":{"climbing":"route_bottom","climbing:grade:uiaa":"3","name":"Medvíek","sport":"climbing"}},"11645695946":{"lat":50.0419925,"lon":14.4125188,"ts":"2024-02-20T14:35:05Z","tz":1,"tags":{"climbing":"route_bottom","climbing:grade:uiaa":"3+","name":"Pú","sport":"climbing"}},"11645695947":{"lat":50.0419857,"lon":14.412528,"ts":"2024-02-20T14:35:05Z","tz":1,"tags":{"climbing":"route_bottom","climbing:grade:uiaa":"5","name":"Prasátko","sport":"climbing"}},"11645695948":{"lat":50.0419792,"lon":14.4125362,"ts":"2024-02-20T14:35:05Z","tz":1,"tags":{"climbing":"route_bottom","climbing:grade:uiaa":"4","name":"Tygr","sport":"climbing"}},"11645695949":{"lat":50.0419719,"lon":14.4125469,"ts":"2024-02-20T14:35:05Z","tz":1,"tags":{"climbing":"route_bottom","climbing:grade:uiaa":"3","name":"Oslík","sport":"climbing"}},"11645730461":{"lat":50.041854,"lon":14.4126675,"ts":"2024-02-20T14:49:51Z","tz":1,"tags":{"climbing":"route_bottom","climbing:grade:french":"7a","name":"Karanténa","sport":"climbing"}},"11645730462":{"lat":50.041845,"lon":14.4126798,"ts":"2024-02-20T14:49:51Z","tz":1,"tags":{"climbing":"route_bottom","climbing:grade:french":"7a","name":"36 voltů","sport":"climbing"}},"11645730463":{"lat":50.0418353,"lon":14.4126912,"ts":"2024-02-20T14:49:51Z","tz":1,"tags":{"climbing":"route_bottom","climbing:grade:french":"7a+","name":"Tom","sport":"climbing"}},"11645730464":{"lat":50.0418253,"lon":14.412706,"ts":"2024-02-20T14:49:51Z","tz":1,"tags":{"climbing":"route_bottom","climbing:grade:french":"7b+/c","name":"Skyfall","sport":"climbing"}},"11645730465":{"lat":50.0418135,"lon":14.4127192,"ts":"2024-02-20T14:49:51Z","tz":1,"tags":{"climbing":"route_bottom","climbing:grade:french":"7b+","name":"Transplantace","sport":"climbing"}},"11645730466":{"lat":50.0418011,"lon":14.4127335,"ts":"2024-02-20T14:49:51Z","tz":1,"tags":{"climbing":"route_bottom","climbing:grade:french":"7a+","name":"Direct","sport":"climbing"}},"11660046021":{"lat":50.0432804,"lon":14.3921871,"ts":"2024-11-09T12:34:55Z","tz":1,"tags":{"author":"Emil Pohořelský, Lukáš Čermák, 21.6.2010","climbing":"route_bottom","climbing:grade:uiaa":"8+","description":"Pravděpodobně těžší než 8+. Skála se velmi se drolí a chyty i stupy se neustále zhoršují. Od 3. bh začíná těžknout.","name":"Golem","sport":"climbing","wikimedia_commons":"File:Hlubočepské plotny - Pravá plotna.jpg","wikimedia_commons:path":"0.075,0.573|0.087,0.513B|0.1,0.445B|0.118,0.348B|0.137,0.247B|0.146,0.172B|0.127,0.123A"}},"11660046022":{"lat":50.0432752,"lon":14.3922498,"ts":"2024-10-03T19:59:04Z","tz":1,"tags":{"climbing":"route_bottom","climbing:grade:uiaa":"8","name":"Odyseova cesta","sport":"climbing","wikimedia_commons":"File:Hlubočepské plotny - Pravá plotna.jpg","wikimedia_commons:path":"0.138,0.678|0.17,0.474B|0.175,0.415B|0.187,0.318B|0.193,0.257B|0.202,0.217B|0.187,0.157A"}},"11660046023":{"lat":50.0432722,"lon":14.3923162,"ts":"2024-10-03T19:59:04Z","tz":1,"tags":{"climbing":"route_bottom","climbing:grade:uiaa":"8","name":"Pozice nejistá","sport":"climbing","wikimedia_commons":"File:Hlubočepské plotny - Pravá plotna.jpg","wikimedia_commons:path":"0.186,0.768|0.21,0.572B|0.236,0.43B|0.254,0.315B|0.268,0.248B|0.282,0.191B|0.302,0.148A"}},"11660046024":{"lat":50.0432514,"lon":14.3923606,"ts":"2024-10-25T10:58:59Z","tz":1,"tags":{"climbing":"route_bottom","climbing:grade:uiaa":"7","description":"První dobré jištění je až v horní části této dlouhé cesty. První skoba není příliš důvěryhodná. Rozhodně vhodné k vlastnímu dojištění. ","name":"Velký kout - var. Trhlinou","sport":"climbing","wikimedia_commons":"File:Hlubočepské plotny - Pravá plotna.jpg","wikimedia_commons:path":"0.215,0.776|0.237,0.625P|0.283,0.36B|0.302,0.295B|0.349,0.145|0.337,0.116A"}},"11660046025":{"lat":50.0432543,"lon":14.3923525,"ts":"2024-10-03T20:31:45Z","tz":1,"tags":{"climbing":"route_bottom","climbing:grade:uiaa":"6+","description":"První skoba je velmi nedůvěryhodná a další kruh je až vysoko nad ní. Při lezení je vhodné mít vlastní dojišťovací pomůcky a vysoký morál..","name":"Velký kout","sport":"climbing","wikimedia_commons":"File:Hlubočepské plotny - Pravá plotna.jpg","wikimedia_commons:path":"0.215,0.776|0.237,0.625P|0.283,0.36B|0.286,0.306B|0.32,0.175B|0.337,0.116A"}},"11660046026":{"lat":50.043196,"lon":14.3923779,"ts":"2024-09-05T06:37:35Z","tz":1,"tags":{"climbing":"route_bottom","climbing:grade:uiaa":"8+","name":"Var. Skleněné oko","sport":"climbing","wikimedia_commons":"File:Hlubočepské plotny - Pravá plotna.jpg","wikimedia_commons:path":"0.239,0.884|0.287,0.734B|0.264,0.563|0.297,0.48B|0.302,0.381B|0.309,0.311B|0.359,0.166A"}},"11660046027":{"lat":50.0431862,"lon":14.3924015,"ts":"2024-09-05T06:37:35Z","tz":1,"tags":{"climbing":"route_bottom","name":"Volný projekt","sport":"climbing","wikimedia_commons":"File:Hlubočepské plotny - Pravá plotna.jpg","wikimedia_commons:path":"0.239,0.884|0.287,0.734B|0.328,0.7B|0.337,0.63B|0.355,0.528B|0.356,0.472B|0.333,0.367B|0.322,0.277|0.359,0.166A"}},"11660046028":{"lat":50.0431775,"lon":14.3924322,"ts":"2024-09-05T06:37:35Z","tz":1,"tags":{"climbing":"route_bottom","climbing:grade:uiaa":"7","name":"Oči pučí","sport":"climbing","wikimedia_commons":"File:Hlubočepské plotny - Pravá plotna.jpg","wikimedia_commons:path":"0.33,0.933|0.351,0.736|0.337,0.63B|0.297,0.48B|0.302,0.381B|0.309,0.311B|0.359,0.166A"}},"11660046029":{"lat":50.0431862,"lon":14.3924807,"ts":"2024-09-05T06:37:35Z","tz":1,"tags":{"climbing":"route_bottom","climbing:grade:uiaa":"7+","name":"Při hraně","sport":"climbing","wikimedia_commons":"File:Hlubočepské plotny - Pravá plotna.jpg","wikimedia_commons:path":"0.369,0.952|0.395,0.729B|0.409,0.653B|0.429,0.566B|0.425,0.482B|0.416,0.377B|0.39,0.273B|0.374,0.193B|0.359,0.166A"}},"11660046031":{"lat":50.0431971,"lon":14.3925456,"ts":"2024-10-03T20:25:05Z","tz":1,"tags":{"climbing":"route_bottom","climbing:grade:uiaa":"6+","name":"Železniční cesta","sport":"climbing","wikimedia_commons":"File:Hlubočepské plotny - Pravá plotna.jpg","wikimedia_commons:path":"0.418,0.945|0.435,0.734B|0.447,0.646B|0.455,0.49B|0.437,0.36B|0.405,0.219B|0.384,0.12A"}},"11660046032":{"lat":50.043205,"lon":14.3925693,"ts":"2024-10-03T20:25:05Z","tz":1,"tags":{"climbing":"route_bottom","climbing:grade:uiaa":"5+","name":"Železniční prostřední var.","sport":"climbing","wikimedia_commons":"File:Hlubočepské plotny - Pravá plotna.jpg","wikimedia_commons:path":"0.482,0.933|0.516,0.714B|0.455,0.49B|0.437,0.36B|0.405,0.219B|0.384,0.12A"}},"11660046033":{"lat":50.0432101,"lon":14.3925897,"ts":"2024-10-03T19:59:04Z","tz":1,"tags":{"climbing":"route_bottom","climbing:grade:uiaa":"5","name":"Železniční pravá var.","sport":"climbing","wikimedia_commons":"File:Hlubočepské plotny - Pravá plotna.jpg","wikimedia_commons:path":"0.523,0.928|0.557,0.741B|0.523,0.616|0.455,0.49B|0.437,0.36B|0.405,0.219B|0.384,0.12A"}},"11660046034":{"lat":50.0432198,"lon":14.3926199,"ts":"2024-10-25T11:01:03Z","tz":1,"tags":{"climbing":"route_bottom","climbing:grade:uiaa":"5+","description":"Kromě začátku dobře zajištěná cesta vedoucí v plotně s pravou hranou. ","name":"Nostalgie","sport":"climbing","wikimedia_commons":"File:Hlubočepské plotny - Pravá plotna.jpg","wikimedia_commons:path":"0.557,0.923|0.583,0.773|0.587,0.686B|0.586,0.601B|0.593,0.549B|0.583,0.488A"}},"11660046035":{"lat":50.0432325,"lon":14.3926522,"ts":"2024-10-03T19:59:04Z","tz":1,"tags":{"climbing":"route_bottom","climbing:grade:uiaa":"6+","description":"Jde žlabem a pravým jištěním k vrcholu. Lehce morálové lezení k prvnímu jištění. ","name":"Tatranka","sport":"climbing","wikimedia_commons":"File:Hlubočepské plotny - Pravá plotna.jpg","wikimedia_commons:path":"0.595,0.92|0.587,0.686B|0.464,0.448B|0.451,0.378B|0.441,0.322B|0.433,0.271B|0.421,0.198B|0.402,0.132|0.384,0.12A"}},"11660046036":{"lat":50.0432443,"lon":14.3926867,"ts":"2024-10-02T18:56:28Z","tz":1,"tags":{"climbing":"route_bottom","climbing:grade:uiaa":"6+","description":"U třetího borháku je jediný těžký krok. Lze přelézt zleva nebo úplně obejít zprava.","name":"Když ti dojde pára","sport":"climbing","wikimedia_commons":"File:Hlubočepské plotny - Pravá plotna.jpg","wikimedia_commons:path":"0.623,0.908|0.629,0.748B|0.633,0.659B|0.639,0.542B|0.642,0.416A"}},"11660046037":{"lat":50.0432484,"lon":14.3927006,"ts":"2024-09-05T06:37:35Z","tz":1,"tags":{"climbing":"route_bottom","climbing:grade:uiaa":"4+","name":"Marodka","sport":"climbing","wikimedia_commons":"File:Hlubočepské plotny - Pravá plotna.jpg","wikimedia_commons:path":"0.676,0.909|0.683,0.698B|0.663,0.567B|0.642,0.416A"}},"11660046038":{"lat":50.0432531,"lon":14.3927126,"ts":"2024-09-05T06:37:35Z","tz":1,"tags":{"climbing":"route_bottom","climbing:grade:uiaa":"5-","name":"Adéla ještě nevečeřela","sport":"climbing","wikimedia_commons":"File:Hlubočepské plotny - Pravá plotna.jpg","wikimedia_commons:path":"0.721,0.887|0.732,0.704B|0.72,0.598B|0.672,0.452A"}},"11660046039":{"lat":50.0432559,"lon":14.3927247,"ts":"2024-09-05T06:37:35Z","tz":1,"tags":{"climbing":"route_bottom","climbing:grade:uiaa":"5","name":"Motoráček","sport":"climbing","wikimedia_commons":"File:Hlubočepské plotny - Pravá plotna.jpg","wikimedia_commons:path":"0.76,0.878|0.762,0.772B|0.757,0.653B|0.72,0.598B|0.672,0.452A"}},"11660046040":{"lat":50.0432583,"lon":14.3927369,"ts":"2024-09-05T06:37:35Z","tz":1,"tags":{"climbing":"route_bottom","climbing:grade:uiaa":"5","name":"Nejde o čísla","sport":"climbing","wikimedia_commons":"File:Hlubočepské plotny - Pravá plotna.jpg","wikimedia_commons:path":"0.791,0.883|0.784,0.709B|0.769,0.591B|0.739,0.519B|0.713,0.474A"}},"11660188265":{"lat":50.0432097,"lon":14.3904987,"ts":"2024-02-24T20:43:21Z","tz":1,"tags":{"climbing":"route_bottom","climbing:grade:uiaa":"7-","name":"Bloody Mary","sport":"climbing","wikimedia_commons":"File:Hlubočepské plotny - Levá plotna.jpg","wikimedia_commons:path":"0.182,0.765|0.193,0.629B|0.204,0.494B|0.221,0.403B|0.234,0.36B|0.247,0.307B|0.26,0.264A"}},"11660188266":{"lat":50.0432006,"lon":14.3905352,"ts":"2024-02-24T20:43:21Z","tz":1,"tags":{"climbing":"route_bottom","climbing:grade:uiaa":"7+/8-","name":"Operace Anthropoid","sport":"climbing","wikimedia_commons":"File:Hlubočepské plotny - Levá plotna.jpg","wikimedia_commons:path":"0.273,0.856|0.317,0.527|0.321,0.467A"}},"11660188267":{"lat":50.0431946,"lon":14.3905625,"ts":"2024-02-24T20:43:21Z","tz":1,"tags":{"climbing":"route_bottom","climbing:grade:uiaa":"8","name":"Zlatý žíly","sport":"climbing","wikimedia_commons":"File:Hlubočepské plotny - Levá plotna.jpg","wikimedia_commons:path":"0.316,0.869|0.344,0.584|0.317,0.527|0.321,0.467A"}},"11660188268":{"lat":50.0431857,"lon":14.3906119,"ts":"2024-02-24T20:43:21Z","tz":1,"tags":{"climbing":"route_bottom","name":"projekt","sport":"climbing","wikimedia_commons":"File:Hlubočepské plotny - Levá plotna.jpg","wikimedia_commons:path":"0.336,0.899|0.366,0.451A"}},"11660210979":{"lat":50.0451588,"lon":14.3947648,"ts":"2024-10-25T11:05:15Z","tz":1,"tags":{"climbing":"route_bottom","climbing:grade:uiaa":"8-","description":"Na 8- spíše lehčí cesta s jedním klíčovým místem. Hezké plotnovité lezení. ","name":"Proutník","sport":"climbing","wikimedia_commons":"File:Hlubočepské plotny - Žvahov.jpg","wikimedia_commons:path":"0.143,0.93|0.182,0.761B|0.224,0.601B|0.251,0.513B|0.273,0.446B|0.318,0.39B|0.377,0.316A"}},"11660210980":{"lat":50.045154,"lon":14.3948061,"ts":"2024-02-24T20:07:57Z","tz":1,"tags":{"climbing":"route_bottom","climbing:grade:uiaa":"7-","name":"Nečekaná bilance","sport":"climbing","wikimedia_commons":"File:Hlubočepské plotny - Žvahov.jpg","wikimedia_commons:path":"0.286,0.911|0.31,0.792B|0.314,0.614B|0.33,0.532B|0.378,0.444B|0.402,0.375B|0.426,0.293A"}},"11660210981":{"lat":50.0451529,"lon":14.3948505,"ts":"2024-02-24T20:07:57Z","tz":1,"tags":{"climbing":"route_bottom","climbing:grade:uiaa":"7+","name":"Šmajdal","sport":"climbing","wikimedia_commons":"File:Hlubočepské plotny - Žvahov.jpg","wikimedia_commons:path":"0.453,0.876|0.457,0.769B|0.475,0.572B|0.484,0.472B|0.501,0.386B|0.541,0.299B|0.582,0.215A"}},"11660210982":{"lat":50.0451535,"lon":14.3948997,"ts":"2024-02-24T20:07:57Z","tz":1,"tags":{"climbing":"route_bottom","climbing:grade:uiaa":"6+","name":"Zvlněná cesta","sport":"climbing","wikimedia_commons":"File:Hlubočepské plotny - Žvahov.jpg","wikimedia_commons:path":"0.61,0.816|0.637,0.578B|0.656,0.412B|0.692,0.267B|0.73,0.136B|0.748,0.093A"}},"11660210983":{"lat":50.0451527,"lon":14.3949599,"ts":"2024-02-24T20:07:57Z","tz":1,"tags":{"climbing":"route_bottom","climbing:grade:uiaa":"6+","name":"Staré nýty","sport":"climbing","wikimedia_commons":"File:Hlubočepské plotny - Žvahov.jpg","wikimedia_commons:path":"0.8,0.645|0.821,0.512B|0.831,0.352B|0.818,0.212B|0.806,0.107B|0.831,0.041A"}},"11660211969":{"lat":50.0431806,"lon":14.3906489,"ts":"2024-02-24T20:43:21Z","tz":1,"tags":{"climbing":"route_bottom","climbing:grade:uiaa":"8","name":"Dědula Gibon","sport":"climbing","wikimedia_commons":"File:Hlubočepské plotny - Levá plotna.jpg","wikimedia_commons:path":"0.394,0.951|0.424,0.651|0.395,0.584|0.366,0.451A"}},"11660211970":{"lat":50.0431736,"lon":14.3906885,"ts":"2024-02-24T20:43:21Z","tz":1,"tags":{"climbing":"route_bottom","climbing:grade:uiaa":"7","name":"Evička bez trička","sport":"climbing","wikimedia_commons":"File:Hlubočepské plotny - Levá plotna.jpg","wikimedia_commons:path":"0.463,0.981|0.462,0.327|0.478,0.147A"}},"11660211971":{"lat":50.0431623,"lon":14.3907349,"ts":"2024-02-24T20:43:21Z","tz":1,"tags":{"climbing":"route_bottom","climbing:grade:uiaa":"7-","name":"Železná cesta","sport":"climbing","wikimedia_commons":"File:Hlubočepské plotny - Levá plotna.jpg","wikimedia_commons:path":"0.557,0.996|0.49,0.666|0.517,0.63|0.513,0.576A"}},"11660211972":{"lat":50.0431532,"lon":14.3907808,"ts":"2024-02-24T20:43:21Z","tz":1,"tags":{"climbing":"route_bottom","climbing:grade:uiaa":"6","name":"Nerezová cesta","sport":"climbing","wikimedia_commons":"File:Hlubočepské plotny - Levá plotna.jpg","wikimedia_commons:path":"0.613,0.984|0.498,0.159A"}},"11660211973":{"lat":50.0431434,"lon":14.3908405,"ts":"2024-02-24T20:43:21Z","tz":1,"tags":{"climbing":"route_bottom","climbing:grade:uiaa":"6","name":"Psi štěkají, karavana jde dál","sport":"climbing","wikimedia_commons":"File:Hlubočepské plotny - Levá plotna.jpg","wikimedia_commons:path":"0.709,1.028|0.607,0.449B|0.518,0.165A"}},"11660211974":{"lat":50.0431322,"lon":14.3908899,"ts":"2024-02-24T20:43:21Z","tz":1,"tags":{"climbing":"route_bottom","climbing:grade:uiaa":"9","name":"Var. Velbloud ve vratech","sport":"climbing","wikimedia_commons":"File:Hlubočepské plotny - Levá plotna.jpg","wikimedia_commons:path":"0.746,0.953|0.65,0.461|0.622,0.445A"}},"11660211975":{"lat":50.0431191,"lon":14.3909389,"ts":"2024-02-24T20:43:21Z","tz":1,"tags":{"climbing":"route_bottom","climbing:grade:uiaa":"6","name":"Silnější pes","sport":"climbing","wikimedia_commons":"File:Hlubočepské plotny - Levá plotna.jpg","wikimedia_commons:path":"0.804,0.841|0.787,0.798A|0.776,0.748B|0.765,0.7B|0.754,0.659B|0.744,0.601B"}},"11660211976":{"lat":50.0431044,"lon":14.3909893,"ts":"2024-02-24T20:43:22Z","tz":1,"tags":{"climbing":"route_bottom","climbing:grade:uiaa":"10","name":"11","sport":"climbing","wikimedia_commons":"File:Hlubočepské plotny - Levá plotna.jpg","wikimedia_commons:path":"0.832,0.798|0.825,0.77B|0.757,0.415A"}},"11660211977":{"lat":50.0431009,"lon":14.3910258,"ts":"2024-02-24T20:43:22Z","tz":1,"tags":{"climbing":"route_bottom","climbing:grade:uiaa":"10-","name":"Ve stínu gilotiny","sport":"climbing","wikimedia_commons":"File:Hlubočepské plotny - Levá plotna.jpg","wikimedia_commons:path":"0.856,0.776|0.792,0.404A"}},"11660211978":{"lat":50.0430996,"lon":14.3910582,"ts":"2024-02-24T20:43:22Z","tz":1,"tags":{"climbing":"route_bottom","climbing:grade:uiaa":"8+","name":"Neznámá","sport":"climbing","wikimedia_commons":"File:Hlubočepské plotny - Levá plotna.jpg","wikimedia_commons:path":"0.874,0.753|0.827,0.424A"}},"11660211979":{"lat":50.0430979,"lon":14.3910938,"ts":"2024-02-24T20:43:22Z","tz":1,"tags":{"climbing":"route_bottom","climbing:grade:uiaa":"6","name":"Vlevo od Koncertu","sport":"climbing","wikimedia_commons":"File:Hlubočepské plotny - Levá plotna.jpg","wikimedia_commons:path":"0.874,0.753|0.857,0.433A"}},"11660211980":{"lat":50.0430942,"lon":14.3911579,"ts":"2024-02-24T20:43:22Z","tz":1,"tags":{"climbing":"route_bottom","climbing:grade:uiaa":"9/9+","name":"Kanadská vycházka","sport":"climbing","wikimedia_commons":"File:Hlubočepské plotny - Levá plotna.jpg","wikimedia_commons:path":"0.874,0.753|0.903,0.476A"}},"11660211981":{"lat":50.0430902,"lon":14.3912131,"ts":"2024-02-24T20:43:22Z","tz":1,"tags":{"climbing":"route_bottom","climbing:grade:uiaa":"9","name":"Hotové neštěstí","sport":"climbing","wikimedia_commons":"File:Hlubočepské plotny - Levá plotna.jpg","wikimedia_commons:path":"0.971,0.687|0.959,0.636B|0.949,0.596B|0.944,0.572B|0.931,0.536B|0.903,0.476A"}},"11660211982":{"lat":50.0430868,"lon":14.3912739,"ts":"2024-02-24T19:30:50Z","tz":1,"tags":{"climbing":"route_bottom","climbing:grade:uiaa":"5-","name":"Balanc","sport":"climbing","wikimedia_commons":"File:Hlubočepské plotny - Levá plotna.jpg"}},"11660211983":{"lat":50.0430822,"lon":14.3913261,"ts":"2024-02-24T19:30:50Z","tz":1,"tags":{"climbing":"route_bottom","climbing:grade:uiaa":"8-","name":"Vyrvána","sport":"climbing","wikimedia_commons":"File:Hlubočepské plotny - Levá plotna.jpg"}},"11660211984":{"lat":50.0430791,"lon":14.3913021,"ts":"2024-02-24T19:30:50Z","tz":1,"tags":{"climbing":"route_bottom","climbing:grade:uiaa":"7+","name":"Nirvána","sport":"climbing","wikimedia_commons":"File:Hlubočepské plotny - Levá plotna.jpg"}},"11660211985":{"lat":50.0430857,"lon":14.3912433,"ts":"2024-02-24T20:43:21Z","tz":1,"tags":{"climbing":"route_bottom","climbing:grade:uiaa":"9","name":"Mistr nebo žák","sport":"climbing","wikimedia_commons":"File:Hlubočepské plotny - Levá plotna.jpg","wikimedia_commons:path":"0.998,0.655|0.942,0.51|0.903,0.476A"}},"11660211986":{"lat":50.0430869,"lon":14.3911856,"ts":"2024-02-24T20:43:22Z","tz":1,"tags":{"climbing":"route_bottom","climbing:grade:uiaa":"8+","name":"Koncert","sport":"climbing","wikimedia_commons":"File:Hlubočepské plotny - Levá plotna.jpg","wikimedia_commons:path":"0.95,0.699|0.941,0.651B|0.933,0.615B|0.923,0.575B|0.903,0.476A"}},"11660217180":{"lat":50.0430651,"lon":14.3910199,"ts":"2024-04-10T19:17:43Z","tz":1,"tags":{"climbing":"route_bottom","climbing:grade:uiaa":"6","name":"Kabriolet","sport":"climbing","wikimedia_commons":"File:Hlubočepské plotny - Malá plotna.jpg","wikimedia_commons:2":"File:Hlubočepské plotny - Malá plotna2.jpg"}},"11660217181":{"lat":50.0430453,"lon":14.3912855,"ts":"2024-04-10T19:17:43Z","tz":1,"tags":{"climbing":"route_bottom","climbing:grade:uiaa":"3","name":"Pravá hrana","sport":"climbing","wikimedia_commons":"File:Hlubočepské plotny - Malá plotna.jpg","wikimedia_commons:2":"File:Hlubočepské plotny - Malá plotna2.jpg"}},"11660217182":{"lat":50.0430446,"lon":14.3912596,"ts":"2024-04-10T19:17:43Z","tz":1,"tags":{"climbing":"route_bottom","climbing:grade:uiaa":"5-","name":"Cesta přes Šabaku","sport":"climbing","wikimedia_commons":"File:Hlubočepské plotny - Malá plotna.jpg","wikimedia_commons:2":"File:Hlubočepské plotny - Malá plotna2.jpg"}},"11660217183":{"lat":50.0430447,"lon":14.3912317,"ts":"2024-04-10T19:17:43Z","tz":1,"tags":{"climbing":"route_bottom","climbing:grade:uiaa":"6-","name":"Hádavá","sport":"climbing","wikimedia_commons":"File:Hlubočepské plotny - Malá plotna.jpg","wikimedia_commons:2":"File:Hlubočepské plotny - Malá plotna2.jpg"}},"11660217184":{"lat":50.0430451,"lon":14.3912114,"ts":"2024-04-10T19:17:43Z","tz":1,"tags":{"climbing":"route_bottom","climbing:grade:uiaa":"5+","name":"Titanka","sport":"climbing","wikimedia_commons":"File:Hlubočepské plotny - Malá plotna.jpg","wikimedia_commons:2":"File:Hlubočepské plotny - Malá plotna2.jpg"}},"11660217185":{"lat":50.0430456,"lon":14.3911871,"ts":"2024-04-10T19:17:43Z","tz":1,"tags":{"climbing":"route_bottom","climbing:grade:uiaa":"6-","name":"Nechtěná","sport":"climbing","wikimedia_commons":"File:Hlubočepské plotny - Malá plotna.jpg","wikimedia_commons:2":"File:Hlubočepské plotny - Malá plotna2.jpg"}},"11660217186":{"lat":50.0430452,"lon":14.3911637,"ts":"2024-04-10T19:28:12Z","tz":1,"tags":{"climbing":"route_bottom","climbing:grade:uiaa":"6","name":"Lucina","sport":"climbing","wikimedia_commons":"File:Hlubočepské plotny - Malá plotna.jpg","wikimedia_commons:2":"File:Hlubočepské plotny - Malá plotna2.jpg","wikimedia_commons:2:path":"0.905,0.538|0.838,0.457B|0.725,0.337B|0.608,0.254B|0.523,0.213"}},"11660217187":{"lat":50.0430464,"lon":14.3911418,"ts":"2024-04-10T19:28:12Z","tz":1,"tags":{"climbing":"route_bottom","climbing:grade:uiaa":"6+","name":"Přímá varianta","sport":"climbing","wikimedia_commons":"File:Hlubočepské plotny - Malá plotna.jpg","wikimedia_commons:2":"File:Hlubočepské plotny - Malá plotna2.jpg","wikimedia_commons:2:path":"0.897,0.563|0.816,0.46B|0.695,0.329B|0.556,0.235B|0.508,0.202A"}},"11660217188":{"lat":50.0430483,"lon":14.3911195,"ts":"2024-04-10T19:28:12Z","tz":1,"tags":{"climbing":"route_bottom","climbing:grade:uiaa":"7","name":"A doj","sport":"climbing","wikimedia_commons":"File:Hlubočepské plotny - Malá plotna.jpg","wikimedia_commons:2":"File:Hlubočepské plotny - Malá plotna2.jpg","wikimedia_commons:2:path":"0.878,0.597|0.768,0.453B|0.652,0.314B|0.45,0.174A"}},"11660217189":{"lat":50.0430494,"lon":14.3910986,"ts":"2024-04-10T19:28:12Z","tz":1,"tags":{"climbing":"route_bottom","climbing:grade:uiaa":"7-","name":"Bejkárna","sport":"climbing","wikimedia_commons":"File:Hlubočepské plotny - Malá plotna.jpg","wikimedia_commons:2":"File:Hlubočepské plotny - Malá plotna2.jpg","wikimedia_commons:2:path":"0.836,0.666|0.7,0.442B|0.59,0.307B|0.422,0.171B|0.382,0.139A"}},"11660217190":{"lat":50.0430542,"lon":14.3910769,"ts":"2024-04-10T19:28:12Z","tz":1,"tags":{"climbing":"route_bottom","climbing:grade:uiaa":"7+","name":"Cesta pro chromé","sport":"climbing","wikimedia_commons":"File:Hlubočepské plotny - Malá plotna.jpg","wikimedia_commons:2":"File:Hlubočepské plotny - Malá plotna2.jpg","wikimedia_commons:2:path":"0.76,0.76|0.608,0.435B|0.512,0.301B|0.422,0.171B|0.382,0.139A"}},"11660217191":{"lat":50.043057,"lon":14.3910574,"ts":"2024-04-10T19:28:12Z","tz":1,"tags":{"climbing":"route_bottom","climbing:grade:uiaa":"8-","name":"Blamáž","sport":"climbing","wikimedia_commons":"File:Hlubočepské plotny - Malá plotna.jpg","wikimedia_commons:2":"File:Hlubočepské plotny - Malá plotna2.jpg","wikimedia_commons:2:path":"0.577,0.796|0.494,0.385B|0.371,0.202B|0.278,0.11B|0.235,0.066A"}},"11660217192":{"lat":50.0430602,"lon":14.3910398,"ts":"2024-04-10T19:28:12Z","tz":1,"tags":{"climbing":"route_bottom","climbing:grade:uiaa":"6+","name":"Levá","sport":"climbing","wikimedia_commons":"File:Hlubočepské plotny - Malá plotna.jpg","wikimedia_commons:2":"File:Hlubočepské plotny - Malá plotna2.jpg","wikimedia_commons:2:path":"0.283,0.871|0.287,0.316B|0.236,0.167B|0.235,0.066A"}},"11660217193":{"lat":50.0430699,"lon":14.3909978,"ts":"2024-04-10T19:17:43Z","tz":1,"tags":{"climbing":"route_bottom","climbing:grade:uiaa":"4","name":"Silvestrovská","sport":"climbing","wikimedia_commons":"File:Hlubočepské plotny - Malá plotna.jpg","wikimedia_commons:2":"File:Hlubočepské plotny - Malá plotna2.jpg"}},"11660243617":{"lat":50.043187,"lon":14.3925006,"ts":"2024-09-05T06:37:35Z","tz":1,"tags":{"climbing":"route_bottom","climbing:grade:uiaa":"7+","name":"Při hraně - varianta","sport":"climbing","wikimedia_commons":"File:Hlubočepské plotny - Pravá plotna.jpg"}},"11660243618":{"lat":50.0431908,"lon":14.3925216,"ts":"2024-09-05T06:37:35Z","tz":1,"tags":{"climbing":"route_bottom","climbing:grade:uiaa":"7+","name":"Při hraně - varianta 2","sport":"climbing","wikimedia_commons":"File:Hlubočepské plotny - Pravá plotna.jpg"}},"11660243619":{"lat":50.043198,"lon":14.3923694,"ts":"2024-09-05T06:37:35Z","tz":1,"tags":{"climbing":"route_bottom","name":"Volný projekt - varianta","sport":"climbing","wikimedia_commons":"File:Hlubočepské plotny - Pravá plotna.jpg"}},"11673684774":{"lat":50.0386658,"lon":14.3553399,"ts":"2024-02-29T07:52:24Z","tz":1,"tags":{"climbing":"route_bottom","climbing:grade:uiaa":"3","name":"První","sport":"climbing","wikimedia_commons":"File:Prokopské údolí - Borová skála - levá část.jpg","wikimedia_commons:2":"File:Prokopské údolí - Borová skála - levá část2.jpg","wikimedia_commons:2:path":"0.994,0.875|0.996,0.448B|0.819,0.181B|0.814,0.089A","wikimedia_commons:path":"0.114,0.673|0.184,0.433B|0.23,0.32B|0.283,0.227A"}},"11673684775":{"lat":50.0386498,"lon":14.355349,"ts":"2024-02-28T20:26:02Z","tz":1,"tags":{"climbing":"route_bottom","climbing:grade:uiaa":"5","name":"Druhá","sport":"climbing","wikimedia_commons":"File:Prokopské údolí - Borová skála - levá část.jpg","wikimedia_commons:path":"0.376,0.746|0.388,0.437B|0.371,0.315B|0.283,0.227A"}},"11673714814":{"lat":50.038746,"lon":14.3552819,"ts":"2024-02-29T07:29:03Z","tz":1,"tags":{"climbing":"route_bottom","climbing:grade:uiaa":"4","name":"Nová Hrana","sport":"climbing","wikimedia_commons":"File:Prokopské údolí - Borová skála - levá část2.jpg","wikimedia_commons:2":"File:Prokopské údolí - Borová skála - levá část3.jpg","wikimedia_commons:2:path":"0.714,0.311U|0.67,0.293B|0.543,0.116A","wikimedia_commons:path":"0.164,0.471|0.249,0.332|0.243,0.241B|0.265,0.164B|0.276,0.144B|0.282,0.113A"}},"11673714858":{"lat":50.0388082,"lon":14.3553003,"ts":"2024-02-29T07:29:03Z","tz":1,"tags":{"climbing":"route_bottom","climbing:grade:uiaa":"4","name":"Středem plotny","sport":"climbing","wikimedia_commons":"File:Prokopské údolí - Borová skála - levá část3.jpg","wikimedia_commons:path":"0.164,0.577|0.215,0.228|0.196,0.151B|0.264,0.085B|0.321,0.088A"}},"11673714859":{"lat":50.0388102,"lon":14.3553008,"ts":"2024-02-29T07:29:03Z","tz":1,"tags":{"climbing":"route_bottom","climbing:grade:uiaa":"6+","name":"Levá hrana","sport":"climbing","wikimedia_commons":"File:Prokopské údolí - Borová skála - levá část3.jpg","wikimedia_commons:path":"0.104,0.524|0.129,0.361|0.092,0.259B|0.169,0.229|0.196,0.151B|0.264,0.085B|0.321,0.088A"}},"11675954576":{"lat":50.0386583,"lon":14.3555494,"ts":"2024-02-29T09:18:54Z","tz":1,"tags":{"climbing":"route_bottom","climbing:grade:uiaa":"6","name":"Tinka - Levá varianta","sport":"climbing","wikimedia_commons":"File:Prokopské údolí - Borová skála - pravý amfiteátr2.jpg","wikimedia_commons:path":"0.628,0.844|0.474,0.539|0.414,0.438B|0.364,0.373B|0.296,0.286B|0.267,0.147B|0.187,0.06B|0.099,0.1A"}},"11676733977":{"lat":50.038757,"lon":14.3552766,"ts":"2024-02-29T14:06:06Z","tz":1,"tags":{"climbing":"route_bottom","climbing:grade:uiaa":"7-/7","name":"Sluneční Diagonální Logika","sport":"climbing","wikimedia_commons":"File:Prokopské údolí - Borová skála - levá část3.jpg","wikimedia_commons:path":"0.799,0.988|0.588,0.653|0.4,0.508|0.343,0.352B|0.356,0.256B|0.233,0.284B|0.196,0.151B|0.264,0.085B|0.321,0.088A"}},"11688405162":{"lat":49.9503349,"lon":14.1073885,"ts":"2024-03-05T10:45:15Z","tz":1,"tags":{"climbing":"route_bottom","climbing:grade:french":"7b","name":"Stillman","sport":"climbing","wikimedia_commons":"File:Tetínské skály - Centrál - levá část.jpg","wikimedia_commons:path":"0.21,0.807|0.248,0.496|0.378,0.422|0.367,0.261A"}},"11688405163":{"lat":49.950328,"lon":14.1074186,"ts":"2024-10-25T10:10:46Z","tz":1,"tags":{"climbing":"route_bottom","climbing:grade:french":"6a+","description":"Nápadně krásná cesta po velkých chytech. Trochu klouže a nahoře u vylezu pozor na sypající se kamínky. ","name":"Policejní čorka","sport":"climbing","wikimedia_commons":"File:Tetínské skály - Centrál - levá část.jpg","wikimedia_commons:path":"0.396,0.839|0.4,0.632|0.459,0.457|0.435,0.4|0.517,0.283|0.445,0.11A"}},"11688405164":{"lat":49.9503195,"lon":14.1074514,"ts":"2024-03-05T10:45:15Z","tz":1,"tags":{"climbing":"route_bottom","climbing:grade:french":"6c","name":"Adr koutek","sport":"climbing","wikimedia_commons":"File:Tetínské skály - Centrál - levá část.jpg","wikimedia_commons:path":"0.576,0.907|0.514,0.669|0.559,0.512|0.517,0.283|0.445,0.11A"}},"11688405165":{"lat":49.9503137,"lon":14.1074825,"ts":"2024-03-05T10:45:15Z","tz":1,"tags":{"climbing":"route_bottom","climbing:grade:french":"7c","name":"Inspirace","sport":"climbing","wikimedia_commons":"File:Tetínské skály - Centrál - levá část.jpg","wikimedia_commons:path":"0.671,0.894|0.559,0.512|0.571,0.388|0.669,0.267|0.729,0.105A"}},"11688405166":{"lat":49.9503068,"lon":14.1075107,"ts":"2024-05-27T19:59:43Z","tz":1,"tags":{"climbing":"route_bottom","climbing:grade:french":"8a","name":"Inspirace – přímo","sport":"climbing","wikimedia_commons":"File:Tetínské skály - Centrál - levá část.jpg","wikimedia_commons:path":"0.671,0.894|0.559,0.512|0.701,0.38|0.729,0.105A"}},"11688405167":{"lat":49.9503009,"lon":14.1075415,"ts":"2024-03-05T10:45:15Z","tz":1,"tags":{"climbing":"route_bottom","climbing:grade:french":"6b+","name":"Sokolík","sport":"climbing","wikimedia_commons":"File:Tetínské skály - Centrál - levá část.jpg","wikimedia_commons:2":"File:Tetínské skály - Centrál - levá část2.jpg","wikimedia_commons:2:path":"0.103,0.871|0.078,0.661B|0.177,0.532B|0.227,0.435B|0.244,0.331B|0.234,0.241B|0.247,0.176B|0.334,0.149A","wikimedia_commons:path":"0.75,0.747|0.744,0.533|0.786,0.383|0.733,0.269|0.729,0.105A"}},"11688405168":{"lat":49.9502979,"lon":14.1075792,"ts":"2024-03-05T10:45:15Z","tz":1,"tags":{"climbing":"route_bottom","climbing:grade:french":"6c+","name":"Pummer","sport":"climbing","wikimedia_commons":"File:Tetínské skály - Centrál - levá část.jpg","wikimedia_commons:2":"File:Tetínské skály - Centrál - levá část2.jpg","wikimedia_commons:2:path":"0.222,0.824|0.346,0.559B|0.406,0.394B|0.419,0.227|0.334,0.149A","wikimedia_commons:path":"0.856,0.706|0.873,0.462|0.9,0.275|0.87,0.174|0.729,0.105A"}},"11688418831":{"lat":49.9504306,"lon":14.1073191,"ts":"2024-03-03T20:15:33Z","tz":1,"tags":{"climbing":"route_bottom","climbing:grade:french":"6a","name":"Forbes","sport":"climbing","wikimedia_commons":"File:Tetínské skály - Čelo.jpg","wikimedia_commons:path":"0.159,0.903|0.334,0.432B|0.402,0.259B|0.437,0.13A"}},"11688418832":{"lat":49.9504109,"lon":14.1073306,"ts":"2024-03-03T20:15:33Z","tz":1,"tags":{"climbing":"route_bottom","climbing:grade:french":"6b","name":"Euro","sport":"climbing","wikimedia_commons":"File:Tetínské skály - Čelo.jpg","wikimedia_commons:path":"0.337,0.888|0.384,0.514B|0.385,0.381|0.477,0.159A"}},"11688418833":{"lat":49.9503966,"lon":14.1073384,"ts":"2024-03-03T20:15:33Z","tz":1,"tags":{"climbing":"route_bottom","climbing:grade:french":"6a+","name":"Sleva","sport":"climbing","wikimedia_commons":"File:Tetínské skály - Čelo.jpg","wikimedia_commons:path":"0.337,0.888|0.384,0.514B|0.473,0.415|0.45,0.312|0.477,0.159A"}},"11688418834":{"lat":49.9503778,"lon":14.1073485,"ts":"2024-03-03T20:15:33Z","tz":1,"tags":{"climbing":"route_bottom","climbing:grade:french":"6a","name":"Jan Tříska","sport":"climbing","wikimedia_commons":"File:Tetínské skály - Čelo.jpg","wikimedia_commons:path":"0.383,0.868|0.467,0.628B|0.482,0.555B|0.494,0.487B|0.508,0.372B|0.473,0.242B|0.477,0.159A"}},"11688423569":{"lat":49.9502922,"lon":14.1076174,"ts":"2024-03-05T10:45:15Z","tz":1,"tags":{"climbing":"route_bottom","climbing:grade:french":"7a+","name":"Green Tree Monkeys","sport":"climbing","wikimedia_commons":"File:Tetínské skály - Centrál - levá část2.jpg","wikimedia_commons:path":"0.486,0.885|0.532,0.606|0.505,0.465B|0.485,0.424B|0.519,0.338B|0.541,0.246B|0.575,0.153A"}},"11688423570":{"lat":49.9502876,"lon":14.1076594,"ts":"2024-03-05T10:45:15Z","tz":1,"tags":{"climbing":"route_bottom","climbing:grade:french":"7b","name":"Igym","sport":"climbing","wikimedia_commons":"File:Tetínské skály - Centrál - levá část2.jpg","wikimedia_commons:path":"0.611,0.819|0.666,0.649B|0.702,0.495B|0.694,0.425B|0.707,0.358B|0.7,0.29B|0.575,0.153A"}},"11688423571":{"lat":49.9502873,"lon":14.1076905,"ts":"2024-03-05T10:45:15Z","tz":1,"tags":{"climbing":"route_bottom","climbing:grade:french":"7b","name":"Anojo","sport":"climbing","wikimedia_commons":"File:Tetínské skály - Centrál - levá část2.jpg","wikimedia_commons:path":"0.739,0.765|0.853,0.432B|0.899,0.343|0.886,0.148A"}},"11688423572":{"lat":49.9502846,"lon":14.1077138,"ts":"2024-03-05T10:45:15Z","tz":1,"tags":{"climbing":"route_bottom","climbing:grade:french":"6a+","name":"Útěk do pryč","sport":"climbing","wikimedia_commons":"File:Tetínské skály - Centrál - levá část2.jpg","wikimedia_commons:2":"File:Tetínské skály - Centrál - levá část3.jpg","wikimedia_commons:2:path":"0.166,0.881|0.288,0.709B|0.281,0.568B|0.302,0.435B|0.302,0.355B|0.221,0.227B|0.265,0.158B|0.296,0.098A","wikimedia_commons:path":"0.939,0.697|0.949,0.41|0.994,0.364|0.989,0.275|0.886,0.148A"}},"11688423573":{"lat":49.9502825,"lon":14.1077331,"ts":"2024-03-05T10:45:15Z","tz":1,"tags":{"climbing":"route_bottom","climbing:grade:french":"6a","name":"Věž","sport":"climbing","wikimedia_commons":"File:Tetínské skály - Centrál - levá část3.jpg","wikimedia_commons:path":"0.981,0.587|0.874,0.369|0.989,0.213|0.899,0.086A"}},"11690189250":{"lat":49.948995,"lon":14.1070209,"ts":"2024-03-04T08:55:52Z","tz":1,"tags":{"climbing":"route_bottom","climbing:grade:french":"6a","name":"Robbery Bob","sport":"climbing","wikimedia_commons":"File:Tetínské skály - Zebra.jpg","wikimedia_commons:path":"0.17,0.949|0.266,0.614|0.231,0.457|0.283,0.268A"}},"11690189251":{"lat":49.9489877,"lon":14.1070319,"ts":"2024-03-04T08:55:52Z","tz":1,"tags":{"climbing":"route_bottom","climbing:grade:french":"6a+","name":"Zebra Varianta","sport":"climbing","wikimedia_commons":"File:Tetínské skály - Zebra.jpg","wikimedia_commons:path":"0.17,0.949|0.266,0.614|0.231,0.457|0.337,0.343|0.377,0.135A"}},"11690189252":{"lat":49.9489792,"lon":14.1070392,"ts":"2024-03-04T08:55:53Z","tz":1,"tags":{"climbing":"route_bottom","climbing:grade:french":"7a+","name":"Kamzík","sport":"climbing","wikimedia_commons":"File:Tetínské skály - Zebra.jpg","wikimedia_commons:path":"0.266,0.923|0.32,0.389|0.41,0.278|0.418,0.164A"}},"11690189253":{"lat":49.9489698,"lon":14.1070497,"ts":"2024-08-02T20:40:36Z","tz":1,"tags":{"climbing":"route_bottom","climbing:grade:french":"6b","climbing:grade:uiaa":"7-","name":"Zebra","sport":"climbing","wikimedia_commons":"File:Tetínské skály - Zebra.jpg","wikimedia_commons:path":"0.397,0.937|0.404,0.483|0.32,0.389|0.41,0.278|0.418,0.164A"}},"11690189254":{"lat":49.948961,"lon":14.107055,"ts":"2024-07-01T20:34:44Z","tz":1,"tags":{"climbing":"route_bottom","climbing:grade:french":"6b+","name":"Kojot","sport":"climbing","wikimedia_commons":"File:Tetínské skály - Zebra.jpg","wikimedia_commons:path":"0.397,0.937|0.404,0.483|0.41,0.278|0.418,0.164A"}},"11690189255":{"lat":49.9489543,"lon":14.1070609,"ts":"2024-07-01T20:41:09Z","tz":1,"tags":{"climbing":"route_bottom","climbing:grade:french":"6c","name":"Joonas","sport":"climbing","wikimedia_commons":"File:Tetínské skály - Zebra.jpg","wikimedia_commons:path":"0.524,0.934|0.522,0.759|0.492,0.585|0.512,0.36|0.468,0.169A"}},"11690189256":{"lat":49.9489446,"lon":14.1070695,"ts":"2024-03-04T08:55:52Z","tz":1,"tags":{"climbing":"route_bottom","climbing:grade:french":"6b+","name":"Maděra","sport":"climbing","wikimedia_commons":"File:Tetínské skály - Zebra.jpg","wikimedia_commons:path":"0.693,0.928|0.674,0.691|0.558,0.469|0.567,0.29A"}},"11690189257":{"lat":49.9489369,"lon":14.1070781,"ts":"2024-07-01T20:35:48Z","tz":1,"tags":{"climbing":"route_bottom","climbing:grade:french":"6c","name":"Bílá sobota","sport":"climbing","wikimedia_commons":"File:Tetínské skály - Zebra.jpg","wikimedia_commons:path":"0.752,0.917|0.752,0.747B|0.761,0.43A"}},"11690189258":{"lat":49.9489271,"lon":14.1070863,"ts":"2024-07-01T20:41:09Z","tz":1,"tags":{"climbing":"route_bottom","climbing:grade:french":"6c","name":"Velký pátek","sport":"climbing","wikimedia_commons":"File:Tetínské skály - Zebra.jpg","wikimedia_commons:path":"0.951,0.901|0.921,0.739|0.839,0.682|0.761,0.43A"}},"11691593333":{"lat":49.9493547,"lon":14.106885,"ts":"2024-03-04T19:41:58Z","tz":1,"tags":{"climbing":"route_bottom","climbing:grade:french":"5c+","name":"Všehrdova","sport":"climbing","wikimedia_commons":"File:Tetínské skály - Pod vodopádem.jpg","wikimedia_commons:path":"0.888,0.935|0.894,0.487|0.783,0.223A"}},"11691593334":{"lat":49.9493622,"lon":14.1068997,"ts":"2024-03-04T19:41:58Z","tz":1,"tags":{"climbing":"route_bottom","climbing:grade:french":"6b","name":"Gertruda","sport":"climbing","wikimedia_commons":"File:Tetínské skály - Pod vodopádem.jpg","wikimedia_commons:path":"0.809,0.95|0.756,0.691|0.711,0.415|0.699,0.229A"}},