{"17087286":{"lat":49.4622294,"lon":14.1962423,"ts":"2025-02-09T19:02:10Z","tz":1,"tags":{"climbing":"crag","name":"Hlavní oblast - patro","site":"climbing","sport":"climbing","type":"site","wikimedia_commons":"File:Jickovice - Hlavní oblast - patro.jpg","wikimedia_commons:2":"File:Jickovice - Hlavní oblast - patro2.jpg"}},"17345746":{"lat":49.45904,"lon":14.1982133,"ts":"2024-04-25T09:34:16Z","tz":1,"tags":{"climbing":"crag","name":"Amfiteatr","site":"climbing","type":"site","website":"https://www.horosvaz.cz/skaly-skala-290/","wikimedia_commons":"File:Jickovice - Amfiteatr.jpg"}},"17457897":{"lat":49.5950321,"lon":14.1319274,"ts":"2024-04-11T05:35:02Z","tz":1,"tags":{"climbing":"crag","name":"Kamenná","site":"climbing","sport":"climbing","type":"site","website":"https://www.horosvaz.cz/skaly-skala-10355/"}},"17457902":{"lat":49.5949497,"lon":14.1316439,"ts":"2024-04-11T05:41:13Z","tz":1,"tags":{"climbing":"crag","name":"Soutěska vlevo","site":"climbing","sport":"climbing","type":"site","website":"https://www.horosvaz.cz/skaly-skala-10425/"}},"17458048":{"lat":49.5524406,"lon":14.099455,"ts":"2024-04-11T07:02:34Z","tz":1,"tags":{"climbing":"crag","name":"Kozárovice","site":"climbing","sport":"climbing","type":"site","website":"https://www.horosvaz.cz/skaly-skala-13932/"}},"17488745":{"lat":49.4650444,"lon":14.1929367,"ts":"2024-04-19T07:07:11Z","tz":1,"tags":{"climbing":"crag","name":"Jeptiška","site":"climbing","sport":"climbing","type":"site","website":"https://www.horosvaz.cz/skaly-skala-283/"}},"17488945":{"lat":49.4626347,"lon":14.1963813,"ts":"2025-02-09T20:43:39Z","tz":1,"tags":{"climbing":"crag","name":"Buchtičky","site":"climbing","sport":"climbing","type":"site","website":"https://www.horosvaz.cz/skaly-skala-284/","wikimedia_commons":"File:Jickovice - Buchtičky.jpg","wikimedia_commons:2":"File:Jickovice - Buchtičky2.jpg"}},"17489978":{"lat":49.4624551,"lon":14.1960949,"ts":"2025-02-24T13:22:24Z","tz":1,"tags":{"climbing":"crag","name":"Hlavní oblast, levá část","site":"climbing","sport":"climbing","type":"site","website":"https://www.horosvaz.cz/skaly-skala-3816/","wikimedia_commons":"File:Jickovice - Hlavní oblast, levá část.jpg","wikimedia_commons:2":"File:Jickovice - Hlavní oblast, levá část2.jpg","wikimedia_commons:3":"File:Jickovice - Hlavní oblast, levá část3.jpg","wikimedia_commons:4":"File:Jickovice - Hlavní oblast, levá část4.jpg","wikimedia_commons:5":"File:Jickovice - Hlavní oblast, levá část5.jpg","wikimedia_commons:6":"File:Jickovice - Hlavní oblast, levá část6.jpg","wikimedia_commons:7":"File:Jickovice - Hlavní oblast, levá část7.jpg"}},"17490306":{"lat":49.4425507,"lon":14.1966318,"ts":"2024-04-19T14:41:22Z","tz":1,"tags":{"climbing":"crag","name":"Varta","site":"climbing","sport":"climbing","type":"site","website":"https://www.horosvaz.cz/skaly-skala-291/"}},"17490334":{"lat":49.4611419,"lon":14.1973967,"ts":"2024-04-19T14:44:00Z","tz":1,"tags":{"climbing":"crag","name":"Příbramský sektor","site":"climbing","sport":"climbing","type":"site","website":"https://www.horosvaz.cz/skaly-skala-288/"}},"17497498":{"lat":49.4621494,"lon":14.1964,"ts":"2025-02-10T09:28:51Z","tz":1,"tags":{"climbing":"crag","name":"Hlavní oblast, střední část","site":"climbing","sport":"climbing","type":"site","website":"https://www.horosvaz.cz/skaly-skala-286/","wikimedia_commons":"File:Jickovice - Hlavní oblast, střední část.jpg"}},"17615616":{"lat":49.4617607,"lon":14.1965566,"ts":"2024-05-20T20:40:02Z","tz":1,"tags":{"climbing":"crag","name":"Hlavní oblast, pravá část","site":"climbing","sport":"climbing","type":"site","website":"https://www.horosvaz.cz/skaly-skala-287/"}},"11556343560":{"lat":49.4622337,"lon":14.1961933,"ts":"2024-04-10T10:39:17Z","tz":1,"tags":{"climbing":"route_bottom","climbing:grade:uiaa":"6+","name":"Dubová Hrana L2","sport":"climbing","wikimedia_commons":"File:Jickovice - Hlavní oblast - patro2.jpg","wikimedia_commons:2":"File:Jickovice - Hlavní oblast - patro.jpg","wikimedia_commons:2:path":"0.009,0.028|0.233,0.05B|0.318,0.056|0.351,0.144","wikimedia_commons:path":"0.001,0.477|0.14,0.372B|0.246,0.255"}},"11556343561":{"lat":49.4622363,"lon":14.1962068,"ts":"2024-02-20T07:31:08Z","tz":1,"tags":{"climbing":"route_bottom","climbing:grade:uiaa":"7","name":"Zuzana","sport":"climbing","wikimedia_commons":"File:Jickovice - Hlavní oblast - patro.jpg","wikimedia_commons:2":"File:Jickovice - Hlavní oblast - patro2.jpg","wikimedia_commons:2:path":"0.023,0.618|0.386,0.307|0.459,0.305A","wikimedia_commons:path":"0.011,0.223|0.363,0.207|0.385,0.264A"}},"11556343562":{"lat":49.4622387,"lon":14.1962178,"ts":"2024-04-02T20:37:44Z","tz":1,"tags":{"climbing":"route_bottom","climbing:grade:uiaa":"6+","name":"Bachmač","sport":"climbing","wikimedia_commons":"File:Jickovice - Hlavní oblast - patro.jpg","wikimedia_commons:2":"File:Jickovice - Hlavní oblast - patro2.jpg","wikimedia_commons:2:path":"0.11,0.728|0.338,0.46B|0.364,0.424B|0.407,0.385B|0.443,0.336B|0.459,0.305A","wikimedia_commons:path":"0.082,0.474|0.299,0.311B|0.322,0.287B|0.345,0.278B|0.369,0.271B|0.385,0.264A"}},"11556343563":{"lat":49.4622442,"lon":14.1962328,"ts":"2024-02-20T07:31:08Z","tz":1,"tags":{"climbing":"route_bottom","climbing:grade:uiaa":"5+","name":"Krtkův sen","sport":"climbing","wikimedia_commons":"File:Jickovice - Hlavní oblast - patro.jpg","wikimedia_commons:2":"File:Jickovice - Hlavní oblast - patro2.jpg","wikimedia_commons:2:path":"0.323,0.725|0.508,0.34|0.459,0.305A","wikimedia_commons:path":"0.219,0.589|0.361,0.341|0.389,0.295|0.385,0.264A"}},"11556343564":{"lat":49.462245,"lon":14.196242,"ts":"2024-02-20T07:31:08Z","tz":1,"tags":{"climbing":"route_bottom","climbing:grade:uiaa":"5+","name":"Krtkova erekce","sport":"climbing","wikimedia_commons":"File:Jickovice - Hlavní oblast - patro.jpg","wikimedia_commons:2":"File:Jickovice - Hlavní oblast - patro2.jpg","wikimedia_commons:2:path":"0.323,0.725|0.482,0.399|0.561,0.278A","wikimedia_commons:path":"0.219,0.589|0.361,0.341|0.442,0.279A"}},"11556343565":{"lat":49.4622404,"lon":14.1962539,"ts":"2024-02-20T07:31:08Z","tz":1,"tags":{"climbing":"route_bottom","climbing:grade:uiaa":"8+","name":"E.T.C. J. Nováka","sport":"climbing","wikimedia_commons":"File:Jickovice - Hlavní oblast - patro.jpg","wikimedia_commons:2":"File:Jickovice - Hlavní oblast - patro2.jpg","wikimedia_commons:2:path":"0.4,0.726|0.467,0.521|0.517,0.373|0.561,0.278A","wikimedia_commons:path":"0.272,0.654|0.392,0.384B|0.381,0.356B|0.442,0.279A"}},"11556343566":{"lat":49.462227,"lon":14.1962733,"ts":"2024-02-20T07:31:08Z","tz":1,"tags":{"climbing":"route_bottom","climbing:grade:uiaa":"7-","name":"Život Nad Řekou","sport":"climbing","wikimedia_commons":"File:Jickovice - Hlavní oblast - patro.jpg","wikimedia_commons:2":"File:Jickovice - Hlavní oblast - patro2.jpg","wikimedia_commons:2:path":"0.475,0.702|0.494,0.548|0.58,0.404|0.626,0.284|0.634,0.202A","wikimedia_commons:path":"0.428,0.572|0.503,0.394|0.495,0.26A"}},"11556343567":{"lat":49.4622202,"lon":14.1962833,"ts":"2024-02-20T07:31:08Z","tz":1,"tags":{"climbing":"route_bottom","climbing:grade:uiaa":"4+","name":"Pila","sport":"climbing","wikimedia_commons":"File:Jickovice - Hlavní oblast - patro.jpg","wikimedia_commons:2":"File:Jickovice - Hlavní oblast - patro2.jpg","wikimedia_commons:2:path":"0.805,0.704|0.886,0.474|0.758,0.319|0.711,0.274|0.679,0.21|0.653,0.155A","wikimedia_commons:path":"0.8,0.712|0.783,0.547|0.675,0.387|0.583,0.368|0.527,0.242A"}},"11556343568":{"lat":49.4622137,"lon":14.1962913,"ts":"2024-02-18T16:07:20Z","tz":1,"tags":{"climbing":"route_bottom","climbing:grade:uiaa":"5-","name":"Pila varianta","sport":"climbing","wikimedia_commons":"File:Jickovice - Hlavní oblast - patro.jpg","wikimedia_commons:2":"File:Jickovice - Hlavní oblast - patro2.jpg","wikimedia_commons:2:path":"0.805,0.704|0.886,0.474|0.758,0.319|0.711,0.274|0.679,0.21|0.75,0.138|0.743,0.102","wikimedia_commons:path":"0.8,0.712|0.783,0.547|0.675,0.387|0.583,0.368|0.546,0.282|0.571,0.27|0.573,0.245"}},"11730697339":{"lat":49.4590727,"lon":14.1981659,"ts":"2024-03-14T13:52:50Z","tz":1,"tags":{"climbing":"route_bottom","climbing:grade:uiaa":"5","name":"Otec a syn","sport":"climbing","wikimedia_commons":"File:Jickovice - Amfiteatr.jpg"}},"11730697340":{"lat":49.4590686,"lon":14.198169,"ts":"2025-02-10T09:47:26Z","tz":1,"tags":{"climbing":"route_bottom","climbing:grade:uiaa":"7","name":"Hra na Algenu","sport":"climbing","wikimedia_commons":"File:Jickovice - Amfiteatr.jpg","wikimedia_commons:path":"0.049,0.521|0.065,0.28|0.067,0.208|0.325,0.116"}},"11730697341":{"lat":49.4590655,"lon":14.1981717,"ts":"2024-03-14T13:58:43Z","tz":1,"tags":{"climbing":"route_bottom","climbing:grade:uiaa":"6+","name":"Gretzkeho slzy","sport":"climbing","wikimedia_commons":"File:Jickovice - Amfiteatr.jpg","wikimedia_commons:path":"0.451,0.804|0.348,0.216|0.392,0.123"}},"11730697342":{"lat":49.4590623,"lon":14.1981756,"ts":"2024-03-14T13:58:43Z","tz":1,"tags":{"climbing":"route_bottom","climbing:grade:uiaa":"7+","name":"Hlinkova hrana","sport":"climbing","wikimedia_commons":"File:Jickovice - Amfiteatr.jpg","wikimedia_commons:path":"0.817,0.633|0.589,0.326|0.435,0.201|0.392,0.123"}},"11730697343":{"lat":49.459059,"lon":14.1981782,"ts":"2024-03-14T13:58:43Z","tz":1,"tags":{"climbing":"route_bottom","climbing:grade:uiaa":"4","name":"Přes bránu","sport":"climbing","wikimedia_commons":"File:Jickovice - Amfiteatr.jpg","wikimedia_commons:path":"0.802,0.48|0.615,0.299|0.451,0.199|0.392,0.123"}},"11730697344":{"lat":49.459056,"lon":14.1981813,"ts":"2024-03-14T13:52:50Z","tz":1,"tags":{"climbing":"route_bottom","climbing:grade:uiaa":"8","name":"Pozice nejistá","sport":"climbing","wikimedia_commons":"File:Jickovice - Amfiteatr.jpg"}},"11730697345":{"lat":49.4590527,"lon":14.198185,"ts":"2024-03-14T13:52:50Z","tz":1,"tags":{"climbing":"route_bottom","climbing:grade:uiaa":"6","name":"Solferino","sport":"climbing"}},"11730697346":{"lat":49.45905,"lon":14.1981881,"ts":"2024-03-14T13:52:50Z","tz":1,"tags":{"climbing":"route_bottom","climbing:grade:uiaa":"7-","name":"Nagáno","sport":"climbing"}},"11730697347":{"lat":49.459048,"lon":14.1981916,"ts":"2024-03-14T13:52:50Z","tz":1,"tags":{"climbing":"route_bottom","climbing:grade:uiaa":"8-","name":"Dominátor","sport":"climbing"}},"11730697348":{"lat":49.4590458,"lon":14.1981937,"ts":"2024-03-14T13:52:50Z","tz":1,"tags":{"climbing":"route_bottom","climbing:grade:uiaa":"7","name":"Žemlovka var.","sport":"climbing"}},"11730697349":{"lat":49.4590431,"lon":14.1981987,"ts":"2024-03-14T13:52:50Z","tz":1,"tags":{"climbing":"route_bottom","climbing:grade:uiaa":"7-","name":"Žemlovka","sport":"climbing"}},"11730697350":{"lat":49.4590405,"lon":14.1982029,"ts":"2024-03-14T13:52:50Z","tz":1,"tags":{"climbing":"route_bottom","climbing:grade:uiaa":"8","name":"Aqapark","sport":"climbing"}},"11730697351":{"lat":49.4590384,"lon":14.1982065,"ts":"2024-03-14T13:52:50Z","tz":1,"tags":{"climbing":"route_bottom","climbing:grade:uiaa":"4+","name":"Tobogán","sport":"climbing"}},"11730697352":{"lat":49.4590371,"lon":14.198209,"ts":"2024-03-14T13:52:50Z","tz":1,"tags":{"climbing":"route_bottom","climbing:grade:uiaa":"3","name":"Mechové schody","sport":"climbing"}},"11730697353":{"lat":49.4590345,"lon":14.1982127,"ts":"2024-03-14T13:52:50Z","tz":1,"tags":{"climbing":"route_bottom","climbing:grade:uiaa":"8-","name":"Ztracené naděje","sport":"climbing"}},"11730697354":{"lat":49.4590324,"lon":14.1982164,"ts":"2024-03-14T13:52:50Z","tz":1,"tags":{"climbing":"route_bottom","climbing:grade:uiaa":"6","name":"Únik koutem","sport":"climbing"}},"11730697355":{"lat":49.4590304,"lon":14.1982197,"ts":"2024-03-14T13:52:50Z","tz":1,"tags":{"climbing":"route_bottom","climbing:grade:uiaa":"7+","name":"Korunková","sport":"climbing"}},"11730697356":{"lat":49.4590281,"lon":14.1982236,"ts":"2024-03-14T13:52:50Z","tz":1,"tags":{"climbing":"route_bottom","climbing:grade:uiaa":"3-","name":"Plotna za korunu","sport":"climbing"}},"11730697357":{"lat":49.4590251,"lon":14.1982291,"ts":"2024-03-14T13:52:50Z","tz":1,"tags":{"climbing":"route_bottom","climbing:grade:uiaa":"5-","name":"Nohy jako konve","sport":"climbing"}},"11730697358":{"lat":49.4590219,"lon":14.198234,"ts":"2024-03-14T13:52:50Z","tz":1,"tags":{"climbing":"route_bottom","climbing:grade:uiaa":"4+","name":"Přátelé - kamarádi","sport":"climbing"}},"11730697359":{"lat":49.4590194,"lon":14.1982398,"ts":"2024-03-14T13:52:50Z","tz":1,"tags":{"climbing":"route_bottom","climbing:grade:uiaa":"5","name":"První krev","sport":"climbing"}},"11730697360":{"lat":49.4590165,"lon":14.1982445,"ts":"2024-03-14T13:52:50Z","tz":1,"tags":{"climbing":"route_bottom","climbing:grade:uiaa":"7-","name":"Tivoli","sport":"climbing"}},"11730697361":{"lat":49.4590143,"lon":14.1982486,"ts":"2024-03-14T13:52:50Z","tz":1,"tags":{"climbing":"route_bottom","climbing:grade:uiaa":"7+","name":"Tivoli hrana","sport":"climbing"}},"11730697362":{"lat":49.4590115,"lon":14.1982525,"ts":"2024-03-14T13:52:50Z","tz":1,"tags":{"climbing":"route_bottom","climbing:grade:uiaa":"5","name":"Nedělní pohoda","sport":"climbing"}},"11730697363":{"lat":49.4590096,"lon":14.198256,"ts":"2024-03-14T13:52:50Z","tz":1,"tags":{"climbing":"route_bottom","climbing:grade:uiaa":"5+","name":"Varianta Nedělní pohody","sport":"climbing"}},"11730697364":{"lat":49.4590074,"lon":14.1982607,"ts":"2024-03-14T13:52:50Z","tz":1,"tags":{"climbing":"route_bottom","climbing:grade:uiaa":"4-","name":"Mlaďochovka","sport":"climbing"}},"11808898977":{"lat":49.5949497,"lon":14.1316439,"ts":"2024-04-11T05:41:13Z","tz":1,"tags":{"climbing":"route_bottom","climbing:grade:uiaa":"3","name":"Krása a zvíře","sport":"climbing","website":"https://www.horosvaz.cz/skaly-cesta-61921/"}},"11808907584":{"lat":49.5950637,"lon":14.1320089,"ts":"2024-04-11T05:35:02Z","tz":1,"tags":{"climbing":"route_bottom","climbing:grade:uiaa":"4","name":"Zababov","sport":"climbing","website":"https://www.horosvaz.cz/skaly-cesta-61730/"}},"11808907585":{"lat":49.5950547,"lon":14.1319856,"ts":"2024-04-11T05:35:02Z","tz":1,"tags":{"climbing":"route_bottom","climbing:grade:uiaa":"4","name":"Pražec","sport":"climbing","website":"https://www.horosvaz.cz/skaly-cesta-61731/"}},"11808907586":{"lat":49.5950457,"lon":14.1319623,"ts":"2024-04-11T05:35:02Z","tz":1,"tags":{"climbing":"route_bottom","climbing:grade:uiaa":"3","name":"Rosa na kolejích","sport":"climbing","website":"https://www.horosvaz.cz/skaly-cesta-61732/"}},"11808907587":{"lat":49.5950366,"lon":14.131939,"ts":"2024-04-11T05:35:02Z","tz":1,"tags":{"climbing":"route_bottom","climbing:grade:uiaa":"3","name":"Pešunk","sport":"climbing","website":"https://www.horosvaz.cz/skaly-cesta-61733/"}},"11808907588":{"lat":49.5950276,"lon":14.1319157,"ts":"2024-04-11T05:35:02Z","tz":1,"tags":{"climbing":"route_bottom","climbing:grade:uiaa":"4","name":"Mašinfíra","sport":"climbing","website":"https://www.horosvaz.cz/skaly-cesta-61729/"}},"11808907589":{"lat":49.5950186,"lon":14.1318924,"ts":"2024-04-11T05:35:02Z","tz":1,"tags":{"climbing":"route_bottom","climbing:grade:uiaa":"3","name":"Štiplístek","sport":"climbing","website":"https://www.horosvaz.cz/skaly-cesta-61728/"}},"11808907590":{"lat":49.5950096,"lon":14.1318691,"ts":"2024-04-11T05:35:02Z","tz":1,"tags":{"climbing":"route_bottom","climbing:grade:uiaa":"3","name":"Lokálka","sport":"climbing","website":"https://www.horosvaz.cz/skaly-cesta-75829/"}},"11808907591":{"lat":49.5950006,"lon":14.1318458,"ts":"2024-04-11T05:35:02Z","tz":1,"tags":{"climbing":"route_bottom","climbing:grade:uiaa":"4","name":"Pařezák","sport":"climbing","website":"https://www.horosvaz.cz/skaly-cesta-75828/"}},"11808999627":{"lat":49.5524203,"lon":14.0994264,"ts":"2024-04-11T07:02:34Z","tz":1,"tags":{"climbing":"route_bottom","climbing:grade:uiaa":"7+","name":"Hranmor","sport":"climbing","website":"https://www.horosvaz.cz/skaly-cesta-75827/"}},"11808999628":{"lat":49.5524406,"lon":14.099455,"ts":"2024-04-11T07:02:34Z","tz":1,"tags":{"climbing":"route_bottom","climbing:grade:uiaa":"7","name":"Pro Olinku","sport":"climbing","website":"https://www.horosvaz.cz/skaly-cesta-75826/"}},"11808999629":{"lat":49.5524609,"lon":14.0994836,"ts":"2024-04-11T07:02:34Z","tz":1,"tags":{"climbing":"route_bottom","climbing:grade:uiaa":"8-","name":"Zdraví v prdeli","sport":"climbing","website":"https://www.horosvaz.cz/skaly-cesta-75825/"}},"11829871753":{"lat":49.4650657,"lon":14.1929545,"ts":"2024-04-19T07:07:11Z","tz":1,"tags":{"climbing":"route_bottom","climbing:grade:uiaa":"6+","climbing:restriction":"null","name":"Celibát","sport":"climbing","website":"https://www.horosvaz.cz/skaly-cesta-114477/"}},"11829871754":{"lat":49.4650231,"lon":14.1929673,"ts":"2024-04-19T07:07:11Z","tz":1,"tags":{"climbing":"route_bottom","climbing:grade:uiaa":"3","climbing:restriction":"null","name":"Náhorní","sport":"climbing","website":"https://www.horosvaz.cz/skaly-cesta-99737/"}},"11829871755":{"lat":49.4650362,"lon":14.192906,"ts":"2024-04-19T07:07:11Z","tz":1,"tags":{"climbing":"route_bottom","climbing:grade:uiaa":"7-","climbing:restriction":"null","name":"Křečová žíla","sport":"climbing","website":"https://www.horosvaz.cz/skaly-cesta-4164/"}},"11829974192":{"lat":49.4625901,"lon":14.1963917,"ts":"2025-02-10T05:34:03Z","tz":1,"tags":{"climbing":"route_bottom","climbing:grade:uiaa":"5+","climbing:restriction":"null","name":"Laxírka","sport":"climbing","website":"https://www.horosvaz.cz/skaly-cesta-4166/","wikimedia_commons":"File:Jickovice - Buchtičky2.jpg","wikimedia_commons:path":"0.874,0.376|0.014,0.769"}},"11829974193":{"lat":49.462599,"lon":14.1963896,"ts":"2025-02-10T05:34:03Z","tz":1,"tags":{"climbing":"route_bottom","climbing:grade:uiaa":"3","climbing:restriction":"null","name":"Lukášův boulder","sport":"climbing","website":"https://www.horosvaz.cz/skaly-cesta-4167/","wikimedia_commons":"File:Jickovice - Buchtičky2.jpg","wikimedia_commons:path":"0.927,0.458|0.911,0.177"}},"11829974194":{"lat":49.462608,"lon":14.1963875,"ts":"2025-02-10T05:34:03Z","tz":1,"tags":{"climbing":"route_bottom","climbing:grade:uiaa":"2","climbing:restriction":"null","name":"Maková","sport":"climbing","website":"https://www.horosvaz.cz/skaly-cesta-4168/","wikimedia_commons":"File:Jickovice - Buchtičky2.jpg","wikimedia_commons:path":"0.841,0.488|0.784,0.201"}},"11829974195":{"lat":49.4626169,"lon":14.1963854,"ts":"2025-02-10T05:34:03Z","tz":1,"tags":{"climbing":"route_bottom","climbing:grade:uiaa":"7-","climbing:restriction":"null","name":"Velkej v malý","sport":"climbing","website":"https://www.horosvaz.cz/skaly-cesta-4169/","wikimedia_commons":"File:Jickovice - Buchtičky2.jpg","wikimedia_commons:path":"0.79,0.523|0.747,0.262B|0.738,0.188"}},"11829974196":{"lat":49.4626258,"lon":14.1963834,"ts":"2025-02-10T05:34:03Z","tz":1,"tags":{"climbing":"route_bottom","climbing:grade:uiaa":"5+","climbing:restriction":"null","name":"Povidlová","sport":"climbing","website":"https://www.horosvaz.cz/skaly-cesta-4170/","wikimedia_commons":"File:Jickovice - Buchtičky.jpg","wikimedia_commons:2":"File:Jickovice - Buchtičky2.jpg","wikimedia_commons:2:path":"0.741,0.568|0.683,0.181","wikimedia_commons:path":"0.898,0.433|0.851,0.079"}},"11829974197":{"lat":49.4626347,"lon":14.1963813,"ts":"2025-02-10T05:34:03Z","tz":1,"tags":{"climbing":"route_bottom","climbing:grade:uiaa":"5","climbing:restriction":"null","name":"Tvarohová","sport":"climbing","website":"https://www.horosvaz.cz/skaly-cesta-4171/","wikimedia_commons":"File:Jickovice - Buchtičky.jpg","wikimedia_commons:2":"File:Jickovice - Buchtičky2.jpg","wikimedia_commons:2:path":"0.691,0.597|0.628,0.175A","wikimedia_commons:path":"0.834,0.497|0.786,0.303|0.796,0.106"}},"11829974198":{"lat":49.4626436,"lon":14.1963792,"ts":"2025-02-10T05:34:03Z","tz":1,"tags":{"climbing":"route_bottom","climbing:grade:uiaa":"6+","climbing:restriction":"null","name":"Andy","sport":"climbing","website":"https://www.horosvaz.cz/skaly-cesta-4172/","wikimedia_commons":"File:Jickovice - Buchtičky.jpg","wikimedia_commons:2":"File:Jickovice - Buchtičky2.jpg","wikimedia_commons:2:path":"0.551,0.751|0.559,0.329B|0.55,0.145","wikimedia_commons:path":"0.706,0.568|0.719,0.302|0.672,0.08"}},"11829974199":{"lat":49.4626525,"lon":14.1963771,"ts":"2025-02-10T05:34:03Z","tz":1,"tags":{"climbing":"route_bottom","climbing:grade:uiaa":"5","climbing:restriction":"null","name":"Horácova buchta","sport":"climbing","website":"https://www.horosvaz.cz/skaly-cesta-4173/","wikimedia_commons":"File:Jickovice - Buchtičky.jpg","wikimedia_commons:path":"0.597,0.576|0.584,0.213|0.547,0.094"}},"11829974200":{"lat":49.4626614,"lon":14.1963751,"ts":"2025-02-10T05:34:03Z","tz":1,"tags":{"climbing":"route_bottom","climbing:grade:uiaa":"5","climbing:restriction":"null","name":"Michalova buchta","sport":"climbing","website":"https://www.horosvaz.cz/skaly-cesta-4165/","wikimedia_commons":"File:Jickovice - Buchtičky.jpg","wikimedia_commons:2":"File:Jickovice - Buchtičky2.jpg","wikimedia_commons:2:path":"0.075,0.952|0.29,0.163","wikimedia_commons:path":"0.461,0.766|0.455,0.365|0.405,0.117"}},"11829974201":{"lat":49.46267,"lon":14.1963723,"ts":"2025-02-09T20:53:32Z","tz":1,"tags":{"climbing":"route_bottom","climbing:grade:uiaa":"7-","climbing:restriction":"null","name":"Pavouk","sport":"climbing","website":"https://www.horosvaz.cz/skaly-cesta-4174/","wikimedia_commons":"File:Jickovice - Buchtičky.jpg","wikimedia_commons:path":"0.328,0.814|0.316,0.283B|0.313,0.129"}},"11829974202":{"lat":49.4626793,"lon":14.1963709,"ts":"2025-02-10T05:34:03Z","tz":1,"tags":{"climbing":"route_bottom","climbing:grade:uiaa":"6+","climbing:restriction":"null","name":"Šodo","sport":"climbing","website":"https://www.horosvaz.cz/skaly-cesta-4175/","wikimedia_commons":"File:Jickovice - Buchtičky.jpg","wikimedia_commons:path":"0.063,0.833|0.139,0.433|0.248,0.183|0.313,0.129"}},"11830503571":{"lat":49.4623461,"lon":14.1961029,"ts":"2025-02-10T05:34:03Z","tz":1,"tags":{"climbing":"route_bottom","climbing:grade:uiaa":"4","climbing:restriction":"null","name":"PP variant","sport":"climbing","website":"https://www.horosvaz.cz/skaly-cesta-99748/"}},"11830503572":{"lat":49.462352,"lon":14.1960994,"ts":"2025-02-10T09:21:01Z","tz":1,"tags":{"climbing":"route_bottom","climbing:grade:uiaa":"7+","climbing:restriction":"null","name":"Klepušák","sport":"climbing","website":"https://www.horosvaz.cz/skaly-cesta-99741/","wikimedia_commons":"File:Jickovice - Hlavní oblast, levá část6.jpg","wikimedia_commons:path":"0.948,0.838|0.654,0.307|0.662,0.167"}},"11830503573":{"lat":49.4623579,"lon":14.1960959,"ts":"2025-02-10T09:21:01Z","tz":1,"tags":{"climbing":"route_bottom","climbing:grade:uiaa":"3","climbing:restriction":"null","name":"Mr.... Přemka Podlahy","sport":"climbing","website":"https://www.horosvaz.cz/skaly-cesta-4180/","wikimedia_commons":"File:Jickovice - Hlavní oblast, levá část6.jpg","wikimedia_commons:path":"0.692,0.948|0.486,0.261|0.37,0.202A"}},"11830503574":{"lat":49.4623638,"lon":14.1960923,"ts":"2025-02-10T09:21:01Z","tz":1,"tags":{"climbing":"route_bottom","climbing:grade:uiaa":"7-","climbing:restriction":"null","name":"Šumilkynova tříkolka","sport":"climbing","website":"https://www.horosvaz.cz/skaly-cesta-4181/","wikimedia_commons":"File:Jickovice - Hlavní oblast, levá část6.jpg","wikimedia_commons:path":"0.417,0.829|0.339,0.388B|0.407,0.311|0.425,0.248|0.37,0.202A"}},"11830503575":{"lat":49.4623697,"lon":14.1960888,"ts":"2025-02-10T09:21:01Z","tz":1,"tags":{"climbing":"route_bottom","climbing:grade:uiaa":"7","climbing:restriction":"null","name":"Šumilkynova tříkolka - var.","sport":"climbing","website":"https://www.horosvaz.cz/skaly-cesta-4179/","wikimedia_commons":"File:Jickovice - Hlavní oblast, levá část6.jpg","wikimedia_commons:path":"0.417,0.829|0.339,0.388B|0.319,0.32B|0.336,0.255B|0.37,0.202A"}},"11830503576":{"lat":49.4623757,"lon":14.1960853,"ts":"2025-02-10T09:21:01Z","tz":1,"tags":{"climbing":"route_bottom","climbing:grade:uiaa":"7","climbing:restriction":"null","name":"Ašanšaránovi oběti","sport":"climbing","website":"https://www.horosvaz.cz/skaly-cesta-4182/","wikimedia_commons":"File:Jickovice - Hlavní oblast, levá část6.jpg","wikimedia_commons:path":"0.197,0.622|0.209,0.336B|0.208,0.265B|0.245,0.212A"}},"11830503577":{"lat":49.4623816,"lon":14.1960818,"ts":"2025-02-10T09:21:01Z","tz":1,"tags":{"climbing":"route_bottom","climbing:grade:uiaa":"2-","climbing:restriction":"null","name":"Propojovačka","sport":"climbing","website":"https://www.horosvaz.cz/skaly-cesta-99747/","wikimedia_commons":"File:Jickovice - Hlavní oblast, levá část6.jpg","wikimedia_commons:path":"0.012,0.295|0.245,0.212A"}},"11830503578":{"lat":49.4623875,"lon":14.1960783,"ts":"2025-02-10T09:07:23Z","tz":1,"tags":{"climbing":"route_bottom","climbing:grade:uiaa":"5+","climbing:restriction":"null","name":"Mtm","sport":"climbing","website":"https://www.horosvaz.cz/skaly-cesta-4183/","wikimedia_commons":"File:Jickovice - Hlavní oblast, levá část5.jpg","wikimedia_commons:path":"0.663,0.746|0.713,0.335B|0.669,0.18|0.564,0.208|0.507,0.173|0.494,0.142"}},"11830503579":{"lat":49.4623934,"lon":14.1960748,"ts":"2025-02-10T09:07:23Z","tz":1,"tags":{"climbing":"route_bottom","climbing:grade:uiaa":"6","climbing:restriction":"null","name":"Zmoklá žába","sport":"climbing","website":"https://www.horosvaz.cz/skaly-cesta-4184/","wikimedia_commons":"File:Jickovice - Hlavní oblast, levá část5.jpg","wikimedia_commons:path":"0.494,0.713|0.575,0.267B|0.564,0.208|0.507,0.173|0.494,0.142"}},"11830503580":{"lat":49.4623993,"lon":14.1960713,"ts":"2025-02-10T09:07:23Z","tz":1,"tags":{"climbing":"route_bottom","climbing:grade:uiaa":"7","climbing:restriction":"null","name":"Předoperační křeče","sport":"climbing","website":"https://www.horosvaz.cz/skaly-cesta-4178/","wikimedia_commons":"File:Jickovice - Hlavní oblast, levá část5.jpg","wikimedia_commons:path":"0.494,0.713|0.575,0.267B|0.564,0.208|0.551,0.138B|0.559,0.103"}},"11830503581":{"lat":49.4624052,"lon":14.1960677,"ts":"2025-02-10T09:07:23Z","tz":1,"tags":{"climbing":"route_bottom","climbing:grade:uiaa":"6-","climbing:restriction":"null","name":"Chudák Jerry","sport":"climbing","website":"https://www.horosvaz.cz/skaly-cesta-4185/","wikimedia_commons":"File:Jickovice - Hlavní oblast, levá část5.jpg","wikimedia_commons:path":"0.4,0.661|0.408,0.347|0.443,0.213|0.414,0.175"}},"11830503582":{"lat":49.4624111,"lon":14.1960642,"ts":"2025-02-10T09:07:23Z","tz":1,"tags":{"climbing":"route_bottom","climbing:grade:uiaa":"5-","climbing:restriction":"null","name":"Nůžkokleště","sport":"climbing","website":"https://www.horosvaz.cz/skaly-cesta-4186/","wikimedia_commons":"File:Jickovice - Hlavní oblast, levá část5.jpg","wikimedia_commons:path":"0.329,0.671|0.319,0.485|0.387,0.347|0.412,0.241|0.414,0.175"}},"11830503583":{"lat":49.462417,"lon":14.1960607,"ts":"2025-02-10T09:07:23Z","tz":1,"tags":{"climbing":"route_bottom","climbing:grade:uiaa":"7/7+","climbing:restriction":"null","name":"GOGO šou","sport":"climbing","website":"https://www.horosvaz.cz/skaly-cesta-4177/","wikimedia_commons":"File:Jickovice - Hlavní oblast, levá část5.jpg","wikimedia_commons:path":"0.327,0.386|0.364,0.292B|0.387,0.251|0.398,0.179"}},"11830503584":{"lat":49.462423,"lon":14.1960572,"ts":"2025-02-10T09:07:23Z","tz":1,"tags":{"climbing":"route_bottom","climbing:grade:uiaa":"5+","climbing:restriction":"null","name":"Pravé \"T\"","sport":"climbing","website":"https://www.horosvaz.cz/skaly-cesta-4187/","wikimedia_commons":"File:Jickovice - Hlavní oblast, levá část5.jpg","wikimedia_commons:path":"0.086,0.501|0.281,0.331|0.387,0.251|0.398,0.179"}},"11830503585":{"lat":49.4624289,"lon":14.1960537,"ts":"2025-02-10T09:09:04Z","tz":1,"tags":{"climbing":"route_bottom","climbing:grade:uiaa":"7","climbing:restriction":"null","name":"Kapitán Velká Huba","sport":"climbing","website":"https://www.horosvaz.cz/skaly-cesta-4188/","wikimedia_commons":"File:Jickovice - Hlavní oblast, levá část5.jpg","wikimedia_commons:path":"0.086,0.501|0.281,0.331|0.338,0.244|0.286,0.091|0.324,0.055"}},"11830503586":{"lat":49.4624348,"lon":14.1960502,"ts":"2025-02-10T05:34:03Z","tz":1,"tags":{"climbing":"route_bottom","climbing:grade:uiaa":"6+","climbing:restriction":"null","name":"Oranžovej expres","sport":"climbing","website":"https://www.horosvaz.cz/skaly-cesta-99739/"}},"11830503587":{"lat":49.4624407,"lon":14.1960466,"ts":"2025-02-10T09:09:04Z","tz":1,"tags":{"climbing":"route_bottom","climbing:grade:uiaa":"4+","climbing:restriction":"null","name":"Levé \"T\"","sport":"climbing","website":"https://www.horosvaz.cz/skaly-cesta-4189/","wikimedia_commons":"File:Jickovice - Hlavní oblast, levá část5.jpg","wikimedia_commons:path":"0.086,0.501|0.281,0.331|0.19,0.112|0.2,0.069"}},"11830503588":{"lat":49.4624466,"lon":14.1960431,"ts":"2025-02-10T05:34:03Z","tz":1,"tags":{"climbing":"route_bottom","climbing:grade:uiaa":"4+","climbing:restriction":"null","name":"Borová hrana","sport":"climbing","website":"https://www.horosvaz.cz/skaly-cesta-4191/"}},"11830503589":{"lat":49.4624525,"lon":14.1960396,"ts":"2025-02-10T06:57:31Z","tz":1,"tags":{"climbing":"route_bottom","climbing:grade:uiaa":"3+","climbing:restriction":"null","name":"Jítin jekot","sport":"climbing","website":"https://www.horosvaz.cz/skaly-cesta-4192/","wikimedia_commons":"File:Jickovice - Hlavní oblast, levá část4.jpg","wikimedia_commons:path":"0.919,0.912|0.615,0.156B|0.466,0.072A"}},"11830503590":{"lat":49.4624584,"lon":14.1960361,"ts":"2025-02-10T06:57:31Z","tz":1,"tags":{"climbing":"route_bottom","climbing:grade:uiaa":"4-","climbing:restriction":"null","name":"Dvojspára","sport":"climbing","website":"https://www.horosvaz.cz/skaly-cesta-4193/","wikimedia_commons":"File:Jickovice - Hlavní oblast, levá část4.jpg","wikimedia_commons:path":"0.385,0.895|0.42,0.162B|0.466,0.072A"}},"11830503591":{"lat":49.4624643,"lon":14.1960326,"ts":"2025-02-10T06:57:31Z","tz":1,"tags":{"climbing":"route_bottom","climbing:grade:uiaa":"7","climbing:restriction":"null","name":"Algenovo nesmysly","sport":"climbing","website":"https://www.horosvaz.cz/skaly-cesta-4194/","wikimedia_commons":"File:Jickovice - Hlavní oblast, levá část4.jpg","wikimedia_commons:path":"0.077,0.91|0.277,0.423|0.334,0.226B|0.371,0.086"}},"11830503592":{"lat":49.4624703,"lon":14.1960291,"ts":"2025-02-10T06:57:31Z","tz":1,"tags":{"climbing":"route_bottom","climbing:grade:uiaa":"7-","climbing:restriction":"null","name":"Vykulení","sport":"climbing","website":"https://www.horosvaz.cz/skaly-cesta-4195/","wikimedia_commons":"File:Jickovice - Hlavní oblast, levá část4.jpg","wikimedia_commons:path":"0.028,0.664|0.199,0.302B|0.371,0.086"}},"11830503593":{"lat":49.4624789,"lon":14.1960231,"ts":"2025-02-10T05:34:03Z","tz":1,"tags":{"climbing":"route_bottom","climbing:grade:uiaa":"7-","climbing:restriction":"null","name":"Nakulení","sport":"climbing","website":"https://www.horosvaz.cz/skaly-cesta-4196/"}},"11830503594":{"lat":49.4624884,"lon":14.196031,"ts":"2025-02-10T05:34:03Z","tz":1,"tags":{"climbing":"route_bottom","climbing:grade:uiaa":"7+","climbing:restriction":"null","name":"Pižďucha","sport":"climbing","website":"https://www.horosvaz.cz/skaly-cesta-99740/"}},"11830503595":{"lat":49.4624966,"lon":14.1960396,"ts":"2025-02-10T05:56:05Z","tz":1,"tags":{"climbing":"route_bottom","climbing:grade:uiaa":"5+","climbing:restriction":"null","name":"Tří králová - var.","sport":"climbing","website":"https://www.horosvaz.cz/skaly-cesta-4198/","wikimedia_commons":"File:Jickovice - Hlavní oblast, levá část2.jpg","wikimedia_commons:2":"File:Jickovice - Hlavní oblast, levá část3.jpg","wikimedia_commons:2:path":"0.568,0.878|0.484,0.509|0.532,0.405B|0.511,0.211B|0.473,0.051","wikimedia_commons:path":"0.893,0.982|0.85,0.774|0.912,0.71|0.885,0.494|0.851,0.324"}},"11830503596":{"lat":49.462506,"lon":14.1960487,"ts":"2025-02-10T05:56:05Z","tz":1,"tags":{"climbing":"route_bottom","climbing:grade:uiaa":"5+","climbing:restriction":"null","name":"Tří králová","sport":"climbing","website":"https://www.horosvaz.cz/skaly-cesta-4197/","wikimedia_commons":"File:Jickovice - Hlavní oblast, levá část2.jpg","wikimedia_commons:2":"File:Jickovice - Hlavní oblast, levá část3.jpg","wikimedia_commons:2:path":"0.568,0.878|0.429,0.29|0.409,0.265|0.398,0.152","wikimedia_commons:path":"0.893,0.982|0.85,0.774|0.785,0.526|0.744,0.489|0.714,0.312"}},"11830503597":{"lat":49.4625139,"lon":14.1960591,"ts":"2025-02-10T05:56:05Z","tz":1,"tags":{"climbing":"route_bottom","climbing:grade:uiaa":"2","climbing:restriction":"null","name":"Sestupovka","sport":"climbing","website":"https://www.horosvaz.cz/skaly-cesta-99745/","wikimedia_commons":"File:Jickovice - Hlavní oblast, levá část2.jpg","wikimedia_commons:path":"0.595,0.605|0.644,0.458|0.602,0.318"}},"11830503598":{"lat":49.4625206,"lon":14.1960676,"ts":"2025-02-10T05:56:05Z","tz":1,"tags":{"climbing":"route_bottom","climbing:grade:uiaa":"4+","climbing:restriction":"null","name":"Kvákonoš","sport":"climbing","website":"https://www.horosvaz.cz/skaly-cesta-4199/","wikimedia_commons":"File:Jickovice - Hlavní oblast, levá část2.jpg","wikimedia_commons:2":"File:Jickovice - Hlavní oblast, levá část3.jpg","wikimedia_commons:2:path":"0.216,0.416|0.197,0.092|0.05,0.011","wikimedia_commons:path":"0.545,0.597|0.493,0.209|0.358,0.042"}},"11830503599":{"lat":49.4625258,"lon":14.1960761,"ts":"2025-02-10T05:56:05Z","tz":1,"tags":{"climbing":"route_bottom","climbing:grade:uiaa":"6+","climbing:restriction":"null","name":"Lezením proti obezitě","sport":"climbing","website":"https://www.horosvaz.cz/skaly-cesta-4176/","wikimedia_commons":"File:Jickovice - Hlavní oblast, levá část2.jpg","wikimedia_commons:path":"0.453,0.641|0.425,0.453|0.447,0.361|0.358,0.042"}},"11830503600":{"lat":49.4625313,"lon":14.196084,"ts":"2025-02-10T05:56:05Z","tz":1,"tags":{"climbing":"route_bottom","climbing:grade:uiaa":"5+","climbing:restriction":"null","name":"První parta","sport":"climbing","website":"https://www.horosvaz.cz/skaly-cesta-4200/","wikimedia_commons":"File:Jickovice - Hlavní oblast, levá část.jpg","wikimedia_commons:path":"0.987,0.376|0.802,0.188"}},"11830503601":{"lat":49.4625376,"lon":14.1960956,"ts":"2025-02-10T05:56:05Z","tz":1,"tags":{"climbing":"route_bottom","climbing:grade:uiaa":"6-","climbing:restriction":"null","name":"Stínová","sport":"climbing","website":"https://www.horosvaz.cz/skaly-cesta-4201/","wikimedia_commons":"File:Jickovice - Hlavní oblast, levá část.jpg","wikimedia_commons:path":"0.992,0.591|0.907,0.428|0.605,0.108"}},"11830503602":{"lat":49.4625447,"lon":14.1961066,"ts":"2025-02-10T05:56:05Z","tz":1,"tags":{"climbing":"route_bottom","climbing:grade:uiaa":"7-","climbing:restriction":"null","name":"Zmrzlé pracky","sport":"climbing","website":"https://www.horosvaz.cz/skaly-cesta-99738/","wikimedia_commons":"File:Jickovice - Hlavní oblast, levá část.jpg","wikimedia_commons:path":"0.992,0.591|0.907,0.428|0.517,0.267|0.425,0.134B|0.373,0.073"}},"11830503603":{"lat":49.4625537,"lon":14.1961187,"ts":"2025-02-10T05:56:05Z","tz":1,"tags":{"climbing":"route_bottom","climbing:grade:uiaa":"7","climbing:restriction":"null","name":"Hup na švestku","sport":"climbing","website":"https://www.horosvaz.cz/skaly-cesta-4202/","wikimedia_commons":"File:Jickovice - Hlavní oblast, levá část.jpg","wikimedia_commons:path":"0.82,0.88|0.599,0.476B|0.517,0.267|0.425,0.134B|0.373,0.073"}},"11830503604":{"lat":49.462558,"lon":14.1961309,"ts":"2025-02-10T05:56:05Z","tz":1,"tags":{"climbing":"route_bottom","climbing:grade:uiaa":"7-","climbing:restriction":"null","name":"Z hrušky dolu","sport":"climbing","website":"https://www.horosvaz.cz/skaly-cesta-4203/","wikimedia_commons":"File:Jickovice - Hlavní oblast, levá část.jpg","wikimedia_commons:path":"0.483,0.876|0.316,0.086"}},"11830503605":{"lat":49.4625661,"lon":14.1961406,"ts":"2025-02-10T05:56:05Z","tz":1,"tags":{"climbing":"route_bottom","climbing:grade:uiaa":"7-","climbing:restriction":"null","name":"Maturitní siesta","sport":"climbing","website":"https://www.horosvaz.cz/skaly-cesta-4204/","wikimedia_commons":"File:Jickovice - Hlavní oblast, levá část.jpg","wikimedia_commons:path":"0.04,0.697|0.142,0.05"}},"11830503606":{"lat":49.4625683,"lon":14.1961545,"ts":"2025-02-10T05:34:03Z","tz":1,"tags":{"climbing":"route_bottom","climbing:grade:uiaa":"4+/5-","climbing:restriction":"null","name":"Míša","sport":"climbing","website":"https://www.horosvaz.cz/skaly-cesta-99746/"}},"11830503607":{"lat":49.4625731,"lon":14.1961667,"ts":"2025-02-10T05:34:03Z","tz":1,"tags":{"climbing":"route_bottom","climbing:grade:uiaa":"4+","climbing:restriction":"null","name":"Tam tam","sport":"climbing","website":"https://www.horosvaz.cz/skaly-cesta-99744/"}},"11830909641":{"lat":49.4425079,"lon":14.1966337,"ts":"2024-04-19T14:41:22Z","tz":1,"tags":{"climbing":"route_bottom","climbing:grade:uiaa":"2","name":"Velký kout","sport":"climbing","website":"https://www.horosvaz.cz/skaly-cesta-4332/"}},"11830909642":{"lat":49.4425136,"lon":14.1966334,"ts":"2024-04-19T14:41:22Z","tz":1,"tags":{"climbing":"route_bottom","climbing:grade:uiaa":"4","name":"Ičmis","sport":"climbing","website":"https://www.horosvaz.cz/skaly-cesta-4331/"}},"11830909643":{"lat":49.4425193,"lon":14.1966332,"ts":"2024-04-19T14:41:22Z","tz":1,"tags":{"climbing":"route_bottom","climbing:grade:uiaa":"5-","name":"P.A.D.A.M","sport":"climbing","website":"https://www.horosvaz.cz/skaly-cesta-4336/"}},"11830909644":{"lat":49.442525,"lon":14.1966329,"ts":"2024-04-19T14:41:22Z","tz":1,"tags":{"climbing":"route_bottom","climbing:grade:uiaa":"6-","name":"Zlatý Železný","sport":"climbing","website":"https://www.horosvaz.cz/skaly-cesta-4337/"}},"11830909645":{"lat":49.4425307,"lon":14.1966327,"ts":"2024-04-19T14:41:22Z","tz":1,"tags":{"climbing":"route_bottom","climbing:grade:uiaa":"5-","name":"I muži mají své dny","sport":"climbing","website":"https://www.horosvaz.cz/skaly-cesta-4338/"}},"11830909646":{"lat":49.4425364,"lon":14.1966324,"ts":"2024-04-19T14:41:22Z","tz":1,"tags":{"climbing":"route_bottom","climbing:grade:uiaa":"4","name":"Čistá spára","sport":"climbing","website":"https://www.horosvaz.cz/skaly-cesta-4339/"}},"11830909647":{"lat":49.4425421,"lon":14.1966322,"ts":"2024-04-19T14:41:22Z","tz":1,"tags":{"climbing":"route_bottom","climbing:grade:uiaa":"6+","name":"Bijte chataře","sport":"climbing","website":"https://www.horosvaz.cz/skaly-cesta-4334/"}},"11830909648":{"lat":49.4425478,"lon":14.1966319,"ts":"2024-04-19T14:41:22Z","tz":1,"tags":{"climbing":"route_bottom","climbing:grade:uiaa":"5+","name":"Kopretinová","sport":"climbing","website":"https://www.horosvaz.cz/skaly-cesta-4333/"}},"11830909649":{"lat":49.4425535,"lon":14.1966317,"ts":"2024-04-19T14:41:22Z","tz":1,"tags":{"climbing":"route_bottom","climbing:grade:uiaa":"6","name":"Fekálka","sport":"climbing","website":"https://www.horosvaz.cz/skaly-cesta-4341/"}},"11830909650":{"lat":49.4425592,"lon":14.1966314,"ts":"2024-04-19T14:41:22Z","tz":1,"tags":{"climbing":"route_bottom","climbing:grade:uiaa":"7-","name":"Hladká","sport":"climbing","website":"https://www.horosvaz.cz/skaly-cesta-4342/"}},"11830909651":{"lat":49.4425649,"lon":14.1966312,"ts":"2024-04-19T14:41:22Z","tz":1,"tags":{"climbing":"route_bottom","climbing:grade:uiaa":"7","name":"Buď a nebo","sport":"climbing","website":"https://www.horosvaz.cz/skaly-cesta-4343/"}},"11830909652":{"lat":49.4425706,"lon":14.1966309,"ts":"2024-04-19T14:41:22Z","tz":1,"tags":{"climbing":"route_bottom","climbing:grade:uiaa":"6","name":"P P","sport":"climbing","website":"https://www.horosvaz.cz/skaly-cesta-4344/"}},"11830909653":{"lat":49.4425763,"lon":14.1966307,"ts":"2024-04-19T14:41:22Z","tz":1,"tags":{"climbing":"route_bottom","climbing:grade:uiaa":"6+","name":"Revmatická","sport":"climbing","website":"https://www.horosvaz.cz/skaly-cesta-4345/"}},"11830909654":{"lat":49.442582,"lon":14.1966304,"ts":"2024-04-19T14:41:22Z","tz":1,"tags":{"climbing":"route_bottom","climbing:grade:uiaa":"3","name":"Pampeliška","sport":"climbing","website":"https://www.horosvaz.cz/skaly-cesta-4335/"}},"11830909655":{"lat":49.4425877,"lon":14.1966301,"ts":"2024-04-19T14:41:22Z","tz":1,"tags":{"climbing":"route_bottom","climbing:grade:uiaa":"6","name":"Bernard","sport":"climbing","website":"https://www.horosvaz.cz/skaly-cesta-4346/"}},"11830909656":{"lat":49.4425934,"lon":14.1966299,"ts":"2024-04-19T14:41:22Z","tz":1,"tags":{"climbing":"route_bottom","climbing:grade:uiaa":"5-","name":"Zelená kuželka","sport":"climbing","website":"https://www.horosvaz.cz/skaly-cesta-4340/"}},"11830943159":{"lat":49.4610921,"lon":14.1974338,"ts":"2024-04-19T14:44:00Z","tz":1,"tags":{"climbing":"route_bottom","climbing:grade:uiaa":"7","name":"Absolutní nesmysl","sport":"climbing","website":"https://www.horosvaz.cz/skaly-cesta-4283/"}},"11830943160":{"lat":49.4611025,"lon":14.1974295,"ts":"2024-04-19T14:44:00Z","tz":1,"tags":{"climbing":"route_bottom","climbing:grade:uiaa":"8-","name":"Rozum v hrsti","sport":"climbing","website":"https://www.horosvaz.cz/skaly-cesta-4284/"}},"11830943161":{"lat":49.4611128,"lon":14.1974226,"ts":"2024-04-19T14:44:00Z","tz":1,"tags":{"climbing":"route_bottom","climbing:grade:uiaa":"7-","name":"Kominík","sport":"climbing","website":"https://www.horosvaz.cz/skaly-cesta-4282/"}},"11830943162":{"lat":49.461124,"lon":14.1974124,"ts":"2024-04-19T14:44:00Z","tz":1,"tags":{"climbing":"route_bottom","climbing:grade:uiaa":"6+","name":"Huba Buba","sport":"climbing","website":"https://www.horosvaz.cz/skaly-cesta-4285/"}},"11830943163":{"lat":49.4611357,"lon":14.1974041,"ts":"2024-04-19T14:44:00Z","tz":1,"tags":{"climbing":"route_bottom","climbing:grade:uiaa":"8","name":"D.N.A","sport":"climbing","website":"https://www.horosvaz.cz/skaly-cesta-4286/"}},"11830943164":{"lat":49.4611477,"lon":14.1973966,"ts":"2024-04-19T14:44:00Z","tz":1,"tags":{"climbing":"route_bottom","climbing:grade:uiaa":"8-","name":"Svatební oznámení","sport":"climbing","website":"https://www.horosvaz.cz/skaly-cesta-4287/"}},"11830943165":{"lat":49.4611594,"lon":14.1973883,"ts":"2024-04-19T14:44:00Z","tz":1,"tags":{"climbing":"route_bottom","climbing:grade:uiaa":"9-","name":"Rozvodové řízení","sport":"climbing","website":"https://www.horosvaz.cz/skaly-cesta-4288/"}},"11830943166":{"lat":49.4611702,"lon":14.1973794,"ts":"2024-04-19T14:44:00Z","tz":1,"tags":{"climbing":"route_bottom","climbing:grade:uiaa":"7+","name":"Muž na konci světa","sport":"climbing","website":"https://www.horosvaz.cz/skaly-cesta-4289/"}},"11830943167":{"lat":49.4611814,"lon":14.1973718,"ts":"2024-04-19T14:44:00Z","tz":1,"tags":{"climbing":"route_bottom","climbing:grade:uiaa":"8","name":"Čtvrtá karta","sport":"climbing","website":"https://www.horosvaz.cz/skaly-cesta-4290/"}},"11830943168":{"lat":49.4611917,"lon":14.1973597,"ts":"2024-04-19T14:44:00Z","tz":1,"tags":{"climbing":"route_bottom","climbing:grade:uiaa":"5+/6-","name":"Přítel","sport":"climbing","website":"https://www.horosvaz.cz/skaly-cesta-4291/"}},"11834971482":{"lat":49.4620581,"lon":14.1964911,"ts":"2024-04-21T13:54:47Z","tz":1,"tags":{"climbing":"route_bottom","climbing:grade:uiaa":"7-","name":"? Ukazováček","sport":"climbing","website":"https://www.horosvaz.cz/skaly-cesta-4253/"}},"11834971483":{"lat":49.462066,"lon":14.1964903,"ts":"2024-04-21T13:54:47Z","tz":1,"tags":{"climbing":"route_bottom","climbing:grade:uiaa":"5+","name":"? Placka","sport":"climbing","website":"https://www.horosvaz.cz/skaly-cesta-4222/"}},"11834971484":{"lat":49.4620738,"lon":14.1964894,"ts":"2024-04-21T13:54:47Z","tz":1,"tags":{"climbing":"route_bottom","climbing:grade:uiaa":"5","name":"? Převážně neškodná","sport":"climbing","website":"https://www.horosvaz.cz/skaly-cesta-4221/"}},"11834971485":{"lat":49.4620817,"lon":14.1964885,"ts":"2024-04-21T13:54:47Z","tz":1,"tags":{"climbing":"route_bottom","climbing:grade:uiaa":"5-","name":"? Božská Ema","sport":"climbing","website":"https://www.horosvaz.cz/skaly-cesta-4220/"}},"11834971486":{"lat":49.4620895,"lon":14.1964876,"ts":"2024-04-21T13:54:47Z","tz":1,"tags":{"climbing":"route_bottom","climbing:grade:uiaa":"1","name":"Via Dřeváta (Sestupová cesta)","sport":"climbing","website":"https://www.horosvaz.cz/skaly-cesta-4250/"}},"11834971487":{"lat":49.4620974,"lon":14.1964868,"ts":"2024-04-21T13:54:47Z","tz":1,"tags":{"climbing":"route_bottom","climbing:grade:uiaa":"7-","name":"ZZ Top","sport":"climbing","website":"https://www.horosvaz.cz/skaly-cesta-4249/"}},"11834971488":{"lat":49.4621053,"lon":14.1964859,"ts":"2024-04-21T13:54:47Z","tz":1,"tags":{"climbing":"route_bottom","climbing:grade:uiaa":"4-","name":"Mára na hrad","sport":"climbing","website":"https://www.horosvaz.cz/skaly-cesta-4248/"}},"11834971489":{"lat":49.4621131,"lon":14.196485,"ts":"2024-04-21T13:54:47Z","tz":1,"tags":{"climbing":"route_bottom","climbing:grade:uiaa":"6","name":"Zachovalá 40","sport":"climbing","website":"https://www.horosvaz.cz/skaly-cesta-4247/"}},"11834971490":{"lat":49.462121,"lon":14.1964842,"ts":"2025-02-10T09:50:12Z","tz":1,"tags":{"climbing":"route_bottom","climbing:grade:uiaa":"6+","name":"Barták do senátu","sport":"climbing","website":"https://www.horosvaz.cz/skaly-cesta-4246/","wikimedia_commons":"File:Jickovice - Hlavní oblast, střední část.jpg","wikimedia_commons:path":"0.961,0.889|0.833,0.6|0.805,0.521|0.725,0.408|0.575,0.262"}},"11834971491":{"lat":49.4621322,"lon":14.1964859,"ts":"2025-02-10T09:50:12Z","tz":1,"tags":{"climbing":"route_bottom","climbing:grade:uiaa":"5+","name":"Lomikámen","sport":"climbing","website":"https://www.horosvaz.cz/skaly-cesta-4245/","wikimedia_commons":"File:Jickovice - Hlavní oblast, střední část.jpg","wikimedia_commons:path":"0.944,0.874|0.79,0.527|0.73,0.439|0.575,0.262"}},"11834971492":{"lat":49.4621435,"lon":14.1964829,"ts":"2025-02-10T09:50:12Z","tz":1,"tags":{"climbing":"route_bottom","climbing:grade:uiaa":"5","name":"Kamenolom","sport":"climbing","website":"https://www.horosvaz.cz/skaly-cesta-86947/","wikimedia_commons":"File:Jickovice - Hlavní oblast, střední část.jpg","wikimedia_commons:path":"0.928,0.874|0.842,0.715|0.767,0.526|0.692,0.436|0.575,0.262"}},"11834971493":{"lat":49.4621528,"lon":14.1964768,"ts":"2025-02-10T09:40:21Z","tz":1,"tags":{"climbing":"route_bottom","climbing:grade:uiaa":"5+","name":"Blafák","sport":"climbing","website":"https://www.horosvaz.cz/skaly-cesta-4244/","wikimedia_commons":"File:Jickovice - Hlavní oblast, střední část.jpg","wikimedia_commons:path":"0.907,0.953|0.827,0.787B|0.839,0.743|0.759,0.565|0.68,0.463|0.611,0.365|0.575,0.262"}},"11834971494":{"lat":49.4621603,"lon":14.1964685,"ts":"2025-02-10T09:40:21Z","tz":1,"tags":{"climbing":"route_bottom","climbing:grade:uiaa":"5","name":"Knifák","sport":"climbing","website":"https://www.horosvaz.cz/skaly-cesta-4243/","wikimedia_commons":"File:Jickovice - Hlavní oblast, střední část.jpg","wikimedia_commons:path":"0.874,0.931|0.803,0.777|0.769,0.634|0.68,0.463|0.611,0.365|0.575,0.262"}},"11834971495":{"lat":49.4621685,"lon":14.1964624,"ts":"2025-02-10T09:40:21Z","tz":1,"tags":{"climbing":"route_bottom","climbing:grade:uiaa":"4","name":"Čečenci jdou do sokola","sport":"climbing","website":"https://www.horosvaz.cz/skaly-cesta-4242/","wikimedia_commons":"File:Jickovice - Hlavní oblast, střední část.jpg","wikimedia_commons:path":"0.808,0.901|0.684,0.651|0.662,0.545|0.611,0.365|0.575,0.262"}},"11834971496":{"lat":49.462176,"lon":14.1964589,"ts":"2025-02-10T09:40:21Z","tz":1,"tags":{"climbing":"route_bottom","climbing:grade:uiaa":"5","name":"Kosovci v koutě","sport":"climbing","website":"https://www.horosvaz.cz/skaly-cesta-4241/","wikimedia_commons":"File:Jickovice - Hlavní oblast, střední část.jpg","wikimedia_commons:path":"0.808,0.901|0.629,0.543|0.626,0.493|0.612,0.414|0.575,0.262"}},"11834971497":{"lat":49.4621845,"lon":14.1964532,"ts":"2025-02-10T09:40:21Z","tz":1,"tags":{"climbing":"route_bottom","climbing:grade:uiaa":"5","name":"Srbové na plotně","sport":"climbing","website":"https://www.horosvaz.cz/skaly-cesta-4240/","wikimedia_commons":"File:Jickovice - Hlavní oblast, střední část.jpg","wikimedia_commons:path":"0.808,0.901|0.596,0.479|0.549,0.343|0.575,0.262"}},"11834971498":{"lat":49.4621923,"lon":14.1964484,"ts":"2025-02-10T09:40:21Z","tz":1,"tags":{"climbing":"route_bottom","climbing:grade:uiaa":"7-","name":"Muší oči","sport":"climbing","website":"https://www.horosvaz.cz/skaly-cesta-4239/","wikimedia_commons":"File:Jickovice - Hlavní oblast, střední část.jpg","wikimedia_commons:path":"0.75,0.884|0.618,0.572B|0.549,0.395A"}},"11834971499":{"lat":49.4621999,"lon":14.1964423,"ts":"2025-02-10T09:40:21Z","tz":1,"tags":{"climbing":"route_bottom","climbing:grade:uiaa":"3+","name":"Přednostenská zahrádka","sport":"climbing","website":"https://www.horosvaz.cz/skaly-cesta-4238/","wikimedia_commons":"File:Jickovice - Hlavní oblast, střední část.jpg","wikimedia_commons:path":"0.635,0.749|0.507,0.417|0.503,0.364|0.433,0.167"}},"11834971500":{"lat":49.4622069,"lon":14.1964389,"ts":"2025-02-10T09:40:21Z","tz":1,"tags":{"climbing":"route_bottom","climbing:grade:uiaa":"6","name":"Platýz","sport":"climbing","website":"https://www.horosvaz.cz/skaly-cesta-4237/","wikimedia_commons":"File:Jickovice - Hlavní oblast, střední část.jpg","wikimedia_commons:path":"0.576,0.847|0.538,0.622|0.532,0.53|0.404,0.143"}},"11834971501":{"lat":49.4622173,"lon":14.1964319,"ts":"2025-02-10T09:40:21Z","tz":1,"tags":{"climbing":"route_bottom","climbing:grade:uiaa":"6+","name":"Narovnaný Platýz","sport":"climbing","website":"https://www.horosvaz.cz/skaly-cesta-65929/","wikimedia_commons":"File:Jickovice - Hlavní oblast, střední část.jpg","wikimedia_commons:path":"0.576,0.847|0.538,0.622|0.486,0.554|0.398,0.237|0.33,0.098"}},"11834971502":{"lat":49.4622253,"lon":14.1964249,"ts":"2025-02-10T09:40:21Z","tz":1,"tags":{"climbing":"route_bottom","climbing:grade:uiaa":"6","name":"Trnitá","sport":"climbing","website":"https://www.horosvaz.cz/skaly-cesta-4236/","wikimedia_commons":"File:Jickovice - Hlavní oblast, střední část.jpg","wikimedia_commons:path":"0.447,0.862|0.444,0.7|0.404,0.505B|0.368,0.389B|0.303,0.232|0.286,0.074"}},"11834971503":{"lat":49.4622316,"lon":14.1964197,"ts":"2025-02-10T09:40:21Z","tz":1,"tags":{"climbing":"route_bottom","climbing:grade:uiaa":"6-","name":"Něžná mrcha","sport":"climbing","website":"https://www.horosvaz.cz/skaly-cesta-4235/","wikimedia_commons":"File:Jickovice - Hlavní oblast, střední část.jpg","wikimedia_commons:path":"0.419,0.853|0.33,0.446|0.261,0.206|0.207,0.143"}},"11834971504":{"lat":49.4622355,"lon":14.1964179,"ts":"2025-02-10T09:40:21Z","tz":1,"tags":{"climbing":"route_bottom","climbing:grade:uiaa":"6","name":"Návrat ztraceného přítele","sport":"climbing","website":"https://www.horosvaz.cz/skaly-cesta-4234/","wikimedia_commons":"File:Jickovice - Hlavní oblast, střední část.jpg","wikimedia_commons:path":"0.35,0.892|0.293,0.67|0.316,0.597|0.246,0.353|0.207,0.143"}},"11834971505":{"lat":49.4622408,"lon":14.1964121,"ts":"2025-02-10T09:40:21Z","tz":1,"tags":{"climbing":"route_bottom","climbing:grade:uiaa":"4+","name":"Když milenky pláčou","sport":"climbing","website":"https://www.horosvaz.cz/skaly-cesta-4233/","wikimedia_commons":"File:Jickovice - Hlavní oblast, střední část.jpg","wikimedia_commons:path":"0.29,0.879"}},"11834971506":{"lat":49.4622392,"lon":14.1964031,"ts":"2024-04-21T13:54:47Z","tz":1,"tags":{"climbing":"route_bottom","climbing:grade:uiaa":"6","name":"Umění žít a milovat","sport":"climbing","website":"https://www.horosvaz.cz/skaly-cesta-4230/"}},"11834971507":{"lat":49.4622367,"lon":14.1963977,"ts":"2024-04-21T13:54:47Z","tz":1,"tags":{"climbing":"route_bottom","climbing:grade:uiaa":"5","name":"Velikonoční","sport":"climbing","website":"https://www.horosvaz.cz/skaly-cesta-4232/"}},"11834971508":{"lat":49.4622359,"lon":14.1963916,"ts":"2024-04-21T13:54:47Z","tz":1,"tags":{"climbing":"route_bottom","climbing:grade:uiaa":"7+","name":"Ramjanbe","sport":"climbing","website":"https://www.horosvaz.cz/skaly-cesta-4231/"}},"11834971509":{"lat":49.4622329,"lon":14.196382,"ts":"2024-04-21T13:54:47Z","tz":1,"tags":{"climbing":"route_bottom","climbing:grade:uiaa":"8-","name":"Circle Jerk","sport":"climbing","website":"https://www.horosvaz.cz/skaly-cesta-99750/"}},"11834971510":{"lat":49.4622301,"lon":14.196375,"ts":"2024-04-21T13:54:47Z","tz":1,"tags":{"climbing":"route_bottom","climbing:grade:uiaa":"5","name":"Turecká šavle","sport":"climbing","website":"https://www.horosvaz.cz/skaly-cesta-4228/"}},"11834971511":{"lat":49.4622265,"lon":14.1963687,"ts":"2024-04-21T13:54:47Z","tz":1,"tags":{"climbing":"route_bottom","climbing:grade:uiaa":"7-","name":"Divoké srdce","sport":"climbing","website":"https://www.horosvaz.cz/skaly-cesta-4227/"}},"11834971512":{"lat":49.4622231,"lon":14.196362,"ts":"2024-04-21T13:54:47Z","tz":1,"tags":{"climbing":"route_bottom","climbing:grade:uiaa":"6-","name":"Vrchol blaha","sport":"climbing","website":"https://www.horosvaz.cz/skaly-cesta-4229/"}},"11834971513":{"lat":49.4622204,"lon":14.1963535,"ts":"2024-04-21T13:54:47Z","tz":1,"tags":{"climbing":"route_bottom","climbing:grade:uiaa":"7-","name":"Extrasuprbombamegagiganářez","sport":"climbing","website":"https://www.horosvaz.cz/skaly-cesta-4226/"}},"11834971514":{"lat":49.4622173,"lon":14.1963465,"ts":"2024-04-21T13:54:47Z","tz":1,"tags":{"climbing":"route_bottom","climbing:grade:uiaa":"7-","name":"Úžas úžasovič","sport":"climbing","website":"https://www.horosvaz.cz/skaly-cesta-4225/"}},"11834971515":{"lat":49.462214,"lon":14.1963352,"ts":"2024-04-21T13:54:47Z","tz":1,"tags":{"climbing":"route_bottom","climbing:grade:uiaa":"4+","name":"Schody na balkon","sport":"climbing","website":"https://www.horosvaz.cz/skaly-cesta-4224/"}},"11834971516":{"lat":49.46221,"lon":14.1963267,"ts":"2024-04-21T13:54:47Z","tz":1,"tags":{"climbing":"route_bottom","climbing:grade:uiaa":"7-","name":"Masala Bea","sport":"climbing","website":"https://www.horosvaz.cz/skaly-cesta-4218/"}},"11834971517":{"lat":49.4622072,"lon":14.1963168,"ts":"2024-04-21T13:54:47Z","tz":1,"tags":{"climbing":"route_bottom","climbing:grade:uiaa":"7-","name":"Morálové hovno","sport":"climbing","website":"https://www.horosvaz.cz/skaly-cesta-4223/"}},"11834971518":{"lat":49.4622043,"lon":14.196309,"ts":"2024-04-21T13:54:47Z","tz":1,"tags":{"climbing":"route_bottom","climbing:grade:uiaa":"6","name":"Dubová hrana L1","sport":"climbing","website":"https://www.horosvaz.cz/skaly-cesta-4219/"}},"11920530906":{"lat":49.4617151,"lon":14.1967283,"ts":"2024-05-20T20:40:02Z","tz":1,"tags":{"climbing":"route_bottom","climbing:grade:uiaa":"6+","name":"Krátká stěnka","sport":"climbing","website":"https://www.horosvaz.cz/skaly-cesta-4276/"}},"11920530907":{"lat":49.4617212,"lon":14.1967118,"ts":"2024-05-20T20:40:02Z","tz":1,"tags":{"climbing":"route_bottom","climbing:grade:uiaa":"6+","name":"Pravá spára","sport":"climbing","website":"https://www.horosvaz.cz/skaly-cesta-4275/"}},"11920530908":{"lat":49.4617273,"lon":14.1966954,"ts":"2024-05-20T20:40:02Z","tz":1,"tags":{"climbing":"route_bottom","climbing:grade:uiaa":"6","name":"Levá spára","sport":"climbing","website":"https://www.horosvaz.cz/skaly-cesta-4274/"}},"11920530909":{"lat":49.4617334,"lon":14.196679,"ts":"2024-05-20T20:40:02Z","tz":1,"tags":{"climbing":"route_bottom","climbing:grade:uiaa":"5+","name":"Kout out","sport":"climbing","website":"https://www.horosvaz.cz/skaly-cesta-4273/"}},"11920530910":{"lat":49.4617394,"lon":14.1966625,"ts":"2024-05-20T20:40:02Z","tz":1,"tags":{"climbing":"route_bottom","climbing:grade:uiaa":"7+","name":"Žehlička","sport":"climbing","website":"https://www.horosvaz.cz/skaly-cesta-4272/"}},"11920530911":{"lat":49.4617455,"lon":14.1966461,"ts":"2024-05-20T20:40:02Z","tz":1,"tags":{"climbing":"route_bottom","climbing:grade:uiaa":"4","name":"Ještě neví","sport":"climbing","website":"https://www.horosvaz.cz/skaly-cesta-4271/"}},"11920530912":{"lat":49.4617516,"lon":14.1966296,"ts":"2024-05-20T20:40:02Z","tz":1,"tags":{"climbing":"route_bottom","climbing:grade:uiaa":"3","name":"Sokolíčci","sport":"climbing","website":"https://www.horosvaz.cz/skaly-cesta-4270/"}},"11920530913":{"lat":49.4617576,"lon":14.1966132,"ts":"2024-05-20T20:40:02Z","tz":1,"tags":{"climbing":"route_bottom","climbing:grade:uiaa":"6+","name":"Tanec svatého víta","sport":"climbing","website":"https://www.horosvaz.cz/skaly-cesta-4269/"}},"11920530914":{"lat":49.4617637,"lon":14.1965967,"ts":"2024-05-20T20:40:02Z","tz":1,"tags":{"climbing":"route_bottom","climbing:grade:uiaa":"7-","name":"Romance gdur","sport":"climbing","website":"https://www.horosvaz.cz/skaly-cesta-4268/"}},"11920530915":{"lat":49.4617698,"lon":14.1965803,"ts":"2024-05-20T20:40:02Z","tz":1,"tags":{"climbing":"route_bottom","name":"Jihozápadní kout","sport":"climbing","website":"https://www.horosvaz.cz/skaly-cesta-4260/"}},"11920530916":{"lat":49.4617758,"lon":14.1965638,"ts":"2024-05-20T20:40:02Z","tz":1,"tags":{"climbing":"route_bottom","climbing:grade:uiaa":"7-","name":"Všechno je jinak","sport":"climbing","website":"https://www.horosvaz.cz/skaly-cesta-4267/"}},"11920530917":{"lat":49.4617819,"lon":14.1965474,"ts":"2024-05-20T20:40:02Z","tz":1,"tags":{"climbing":"route_bottom","climbing:grade:uiaa":"3-","name":"Zatracený ženský","sport":"climbing","website":"https://www.horosvaz.cz/skaly-cesta-4261/"}},"11920530918":{"lat":49.461788,"lon":14.1965309,"ts":"2024-05-20T20:40:02Z","tz":1,"tags":{"climbing":"route_bottom","climbing:grade:uiaa":"5-","name":"Kvak","sport":"climbing","website":"https://www.horosvaz.cz/skaly-cesta-4266/"}},"11920530919":{"lat":49.461794,"lon":14.1965145,"ts":"2024-05-20T20:40:02Z","tz":1,"tags":{"climbing":"route_bottom","climbing:grade:uiaa":"5+","name":"Hrana","sport":"climbing","website":"https://www.horosvaz.cz/skaly-cesta-4263/"}},"11920530920":{"lat":49.4618001,"lon":14.196498,"ts":"2024-05-20T20:40:02Z","tz":1,"tags":{"climbing":"route_bottom","climbing:grade:uiaa":"3","name":"75B","sport":"climbing","website":"https://www.horosvaz.cz/skaly-cesta-4259/"}},"11920530921":{"lat":49.4618062,"lon":14.1964816,"ts":"2024-05-20T20:40:02Z","tz":1,"tags":{"climbing":"route_bottom","climbing:grade:uiaa":"3-","name":"Mílova","sport":"climbing","website":"https://www.horosvaz.cz/skaly-cesta-4265/"}},"11920530922":{"lat":49.4618031,"lon":14.1964683,"ts":"2024-05-20T20:40:02Z","tz":1,"tags":{"climbing":"route_bottom","climbing:grade:uiaa":"6-","name":"V výlez","sport":"climbing","website":"https://www.horosvaz.cz/skaly-cesta-4264/"}},"11920530923":{"lat":49.4617967,"lon":14.1964627,"ts":"2024-05-20T20:40:02Z","tz":1,"tags":{"climbing":"route_bottom","climbing:grade:uiaa":"7","name":"Jdou po mě jdou","sport":"climbing","website":"https://www.horosvaz.cz/skaly-cesta-4258/"}},"11920530924":{"lat":49.4617929,"lon":14.1964546,"ts":"2024-05-20T20:40:02Z","tz":1,"tags":{"climbing":"route_bottom","climbing:grade:uiaa":"4-","name":"Os bos","sport":"climbing","website":"https://www.horosvaz.cz/skaly-cesta-4262/"}},"11920530925":{"lat":49.4617894,"lon":14.1964452,"ts":"2024-05-20T20:40:02Z","tz":1,"tags":{"climbing":"route_bottom","climbing:grade:uiaa":"3+","name":"Dunivá hrana","sport":"climbing","website":"https://www.horosvaz.cz/skaly-cesta-4257/"}},"11920530926":{"lat":49.4617822,"lon":14.1964402,"ts":"2024-05-20T20:40:02Z","tz":1,"tags":{"climbing":"route_bottom","climbing:grade:uiaa":"4-","name":"Přímá mechová plotna","sport":"climbing","website":"https://www.horosvaz.cz/skaly-cesta-4256/"}},"11920530927":{"lat":49.4617783,"lon":14.1964301,"ts":"2024-05-20T20:40:02Z","tz":1,"tags":{"climbing":"route_bottom","climbing:grade:uiaa":"5+","name":"Koutová mechová plotna","sport":"climbing","website":"https://www.horosvaz.cz/skaly-cesta-4255/"}},"11920530928":{"lat":49.4617731,"lon":14.1964239,"ts":"2024-05-20T20:40:02Z","tz":1,"tags":{"climbing":"route_bottom","climbing:grade:uiaa":"5","name":"Honzův kout","sport":"climbing","website":"https://www.horosvaz.cz/skaly-cesta-4254/"}},"11920530929":{"lat":49.4617664,"lon":14.1964215,"ts":"2024-05-20T20:40:02Z","tz":1,"tags":{"climbing":"route_bottom","climbing:grade:uiaa":"7-","name":"Ukazováček","sport":"climbing","website":"https://www.horosvaz.cz/skaly-cesta-113369/"}},"11920530930":{"lat":49.4617637,"lon":14.1964114,"ts":"2024-05-20T20:40:02Z","tz":1,"tags":{"climbing":"route_bottom","climbing:grade:uiaa":"4","name":"Přes nos","sport":"climbing","website":"https://www.horosvaz.cz/skaly-cesta-4252/"}},"11920530931":{"lat":49.4617644,"lon":14.196395,"ts":"2024-05-20T20:40:02Z","tz":1,"tags":{"climbing":"route_bottom","climbing:grade:uiaa":"6+","name":"Tři zdvihy","sport":"climbing","website":"https://www.horosvaz.cz/skaly-cesta-4251/"}},"11920530932":{"lat":49.4617622,"lon":14.1963849,"ts":"2024-05-20T20:40:02Z","tz":1,"tags":{"climbing":"route_bottom","climbing:grade:uiaa":"5-","name":"Cesta osamělých fešáků","sport":"climbing","website":"https://www.horosvaz.cz/skaly-cesta-113368/"}},"12573364172":{"lat":49.4624838,"lon":14.196027,"ts":"2025-02-10T06:04:03Z","tz":1,"tags":{"climbing":"route_bottom","climbing:grade:uiaa":"7+","name":"Svobodova hrana","sport":"climbing","wikimedia_commons":"File:Jickovice - Hlavní oblast, levá část3.jpg","wikimedia_commons:path":"0.777,0.864|0.664,0.529B|0.635,0.382B|0.632,0.249|0.511,0.211B|0.473,0.051"}},"12615716816":{"lat":49.4623409,"lon":14.1961045,"ts":"2025-02-24T13:24:20Z","tz":1,"tags":{"author":"Adam Černý, Jan Václavík, 2025","climbing":"route_bottom","climbing:grade:uiaa":"5+","name":"openclimbing","sport":"climbing","wikimedia_commons":"File:Jickovice - Hlavní oblast, levá část7.jpg","wikimedia_commons:path":"0.378,0.959|0.358,0.441|0.346,0.297|0.345,0.15|0.363,0.101A"}},"12615716817":{"lat":49.4623371,"lon":14.1961071,"ts":"2025-02-24T13:24:20Z","tz":1,"tags":{"author":"Adam Černý, Jan Václavík, 2025","climbing":"route_bottom","climbing:grade:uiaa":"5+","name":".org","sport":"climbing","wikimedia_commons":"File:Jickovice - Hlavní oblast, levá část7.jpg","wikimedia_commons:path":"0.917,0.962|0.814,0.759|0.765,0.616|0.686,0.482|0.639,0.389|0.496,0.271|0.41,0.133|0.363,0.101A"}}}