{"17592091":{"lat":49.2414098,"lon":14.3774058,"ts":"2024-05-14T08:12:46Z","tz":1,"tags":{"climbing":"crag","name":"Výří skála","site":"climbing","sport":"climbing","type":"site","website":"https://www.horosvaz.cz/skaly-skala-10385/"}},"17641658":{"lat":49.3077404,"lon":14.1125239,"ts":"2024-05-27T09:39:34Z","tz":1,"tags":{"climbing":"crag","name":"Májovka","site":"climbing","sport":"climbing","type":"site","website":"https://www.horosvaz.cz/skaly-skala-6309/"}},"17641665":{"lat":49.3014353,"lon":14.1050379,"ts":"2024-05-27T09:40:42Z","tz":1,"tags":{"climbing":"crag","name":"Šedomodrá","site":"climbing","sport":"climbing","type":"site","website":"https://www.horosvaz.cz/skaly-skala-6305/"}},"17641666":{"lat":49.309839,"lon":14.122408,"ts":"2024-05-27T09:40:58Z","tz":1,"tags":{"climbing":"crag","name":"Svatováclavské skály","site":"climbing","sport":"climbing","type":"site","website":"https://www.horosvaz.cz/skaly-skala-7983/"}},"17641667":{"lat":49.3063303,"lon":14.1080813,"ts":"2024-05-27T09:41:14Z","tz":1,"tags":{"climbing":"crag","name":"Čertovka","site":"climbing","sport":"climbing","type":"site","website":"https://www.horosvaz.cz/skaly-skala-6308/"}},"17641937":{"lat":49.3267364,"lon":14.1545027,"ts":"2024-05-27T10:43:26Z","tz":1,"tags":{"climbing":"crag","name":"Zelená věž","site":"climbing","sport":"climbing","type":"site","website":"https://www.horosvaz.cz/skaly-skala-6311/"}},"17641997":{"lat":49.2993156,"lon":14.1092973,"ts":"2024-05-27T10:58:37Z","tz":1,"tags":{"climbing":"crag","name":"Trio","site":"climbing","sport":"climbing","type":"site","website":"https://www.horosvaz.cz/skaly-skala-6314/"}},"17641999":{"lat":49.3003986,"lon":14.1074419,"ts":"2024-05-27T10:59:38Z","tz":1,"tags":{"climbing":"crag","name":"Vstupní","site":"climbing","sport":"climbing","type":"site","website":"https://www.horosvaz.cz/skaly-skala-6313/"}},"17673952":{"lat":49.2828523,"lon":14.3431516,"ts":"2024-06-04T03:00:27Z","tz":1,"tags":{"climbing":"crag","name":"Bezpečná","site":"climbing","sport":"climbing","type":"site","website":"https://www.horosvaz.cz/skaly-skala-19972/"}},"17673954":{"lat":49.2837658,"lon":14.3427904,"ts":"2024-06-04T03:01:59Z","tz":1,"tags":{"climbing":"crag","name":"Vodní koutek","site":"climbing","sport":"climbing","type":"site","website":"https://www.horosvaz.cz/skaly-skala-19973/"}},"3345879534":{"lat":49.3053968,"lon":14.133374,"ts":"2019-03-13T19:08:04Z","tz":1,"tags":{"addr:city":"Písek","addr:housenumber":"1506","addr:postcode":"39701","addr:street":"U Vodárny","leisure":"sports_centre","name":"Lezecké centrum LEZETOP","opening_hours":"Mo-Su 10:00-22:00","phone":"+420 382 210 499","sport":"climbing","website":"https://stenapisek.cz/"}},"4584126131":{"lat":49.3362884,"lon":14.1600987,"ts":"2017-01-01T17:36:31Z","tz":1,"tags":{"name":"Lezecký sektor Lipice","sport":"climbing","url":"http://www.lezec.cz/pruvodcx.php?key=1147"}},"11903336026":{"lat":49.2414197,"lon":14.37749,"ts":"2024-05-14T08:12:46Z","tz":1,"tags":{"climbing":"route_bottom","climbing:grade:uiaa":"9","name":"Dream","sport":"climbing","website":"https://www.horosvaz.cz/skaly-cesta-61784/"}},"11903336027":{"lat":49.2414179,"lon":14.3774747,"ts":"2024-05-14T08:12:46Z","tz":1,"tags":{"climbing":"route_bottom","climbing:grade:uiaa":"6+","name":"Pravé y","sport":"climbing","website":"https://www.horosvaz.cz/skaly-cesta-61786/"}},"11903336028":{"lat":49.2414161,"lon":14.3774594,"ts":"2024-05-14T08:12:46Z","tz":1,"tags":{"climbing":"route_bottom","climbing:grade:uiaa":"6-","name":"Chudák holka","sport":"climbing","website":"https://www.horosvaz.cz/skaly-cesta-61787/"}},"11903336029":{"lat":49.2414143,"lon":14.3774441,"ts":"2024-05-14T08:12:46Z","tz":1,"tags":{"climbing":"route_bottom","climbing:grade:uiaa":"5","name":"Levé y","sport":"climbing","website":"https://www.horosvaz.cz/skaly-cesta-61788/"}},"11903336030":{"lat":49.2414125,"lon":14.3774288,"ts":"2024-05-14T08:12:46Z","tz":1,"tags":{"climbing":"route_bottom","climbing:grade:uiaa":"7-","name":"Srdeční záležitost","sport":"climbing","website":"https://www.horosvaz.cz/skaly-cesta-61789/"}},"11903336031":{"lat":49.2414107,"lon":14.3774135,"ts":"2024-05-14T08:12:46Z","tz":1,"tags":{"climbing":"route_bottom","climbing:grade:uiaa":"?","name":"Projekt","sport":"climbing","website":"https://www.horosvaz.cz/skaly-cesta-61785/"}},"11903336032":{"lat":49.2414089,"lon":14.3773982,"ts":"2024-05-14T08:12:46Z","tz":1,"tags":{"climbing":"route_bottom","climbing:grade:uiaa":"8-","name":"Maturita","sport":"climbing","website":"https://www.horosvaz.cz/skaly-cesta-61795/"}},"11903336033":{"lat":49.2414071,"lon":14.3773829,"ts":"2024-05-14T08:12:46Z","tz":1,"tags":{"climbing":"route_bottom","climbing:grade:uiaa":"7+","name":"Varianta Maturity","sport":"climbing","website":"https://www.horosvaz.cz/skaly-cesta-61794/"}},"11903336034":{"lat":49.2414054,"lon":14.3773676,"ts":"2024-05-14T08:12:46Z","tz":1,"tags":{"climbing":"route_bottom","climbing:grade:uiaa":"5","name":"Cesta pro tebe","sport":"climbing","website":"https://www.horosvaz.cz/skaly-cesta-61790/"}},"11903336035":{"lat":49.2414036,"lon":14.3773523,"ts":"2024-05-14T08:12:46Z","tz":1,"tags":{"climbing":"route_bottom","climbing:grade:uiaa":"5+","name":"Narozeninová","sport":"climbing","website":"https://www.horosvaz.cz/skaly-cesta-61791/"}},"11903336036":{"lat":49.2414018,"lon":14.377337,"ts":"2024-05-14T08:12:46Z","tz":1,"tags":{"climbing":"route_bottom","climbing:grade:uiaa":"4","name":"Malinová","sport":"climbing","website":"https://www.horosvaz.cz/skaly-cesta-61792/"}},"11903336037":{"lat":49.2414,"lon":14.3773217,"ts":"2024-05-14T08:12:46Z","tz":1,"tags":{"climbing":"route_bottom","climbing:grade:uiaa":"3+","name":"Lehoučká","sport":"climbing","website":"https://www.horosvaz.cz/skaly-cesta-61793/"}},"11936719458":{"lat":49.3077764,"lon":14.1128464,"ts":"2024-05-27T09:39:34Z","tz":1,"tags":{"climbing":"route_bottom","climbing:grade:uiaa":"5-","name":"Vál","sport":"climbing","website":"https://www.horosvaz.cz/skaly-cesta-45187/"}},"11936719459":{"lat":49.307774,"lon":14.1128249,"ts":"2024-05-27T09:39:34Z","tz":1,"tags":{"climbing":"route_bottom","climbing:grade:uiaa":"5-","name":"Nos","sport":"climbing","website":"https://www.horosvaz.cz/skaly-cesta-45188/"}},"11936719460":{"lat":49.3077716,"lon":14.1128034,"ts":"2024-05-27T09:39:34Z","tz":1,"tags":{"climbing":"route_bottom","climbing:grade:uiaa":"3+","name":"Kout","sport":"climbing","website":"https://www.horosvaz.cz/skaly-cesta-45215/"}},"11936719461":{"lat":49.3077692,"lon":14.1127819,"ts":"2024-05-27T09:39:34Z","tz":1,"tags":{"climbing":"route_bottom","climbing:grade:uiaa":"5-","name":"Plavecká","sport":"climbing","website":"https://www.horosvaz.cz/skaly-cesta-45189/"}},"11936719462":{"lat":49.3077668,"lon":14.1127604,"ts":"2024-05-27T09:39:34Z","tz":1,"tags":{"climbing":"route_bottom","climbing:grade:uiaa":"7","name":"Diretka","sport":"climbing","website":"https://www.horosvaz.cz/skaly-cesta-45190/"}},"11936719463":{"lat":49.3077644,"lon":14.1127389,"ts":"2024-05-27T09:39:34Z","tz":1,"tags":{"climbing":"route_bottom","climbing:grade:uiaa":"5","name":"Levá varianta Májové","sport":"climbing","website":"https://www.horosvaz.cz/skaly-cesta-45191/"}},"11936719464":{"lat":49.307762,"lon":14.1127174,"ts":"2024-05-27T09:39:34Z","tz":1,"tags":{"climbing":"route_bottom","climbing:grade:uiaa":"5+","name":"Májová","sport":"climbing","website":"https://www.horosvaz.cz/skaly-cesta-45214/"}},"11936719465":{"lat":49.3077596,"lon":14.1126959,"ts":"2024-05-27T09:39:34Z","tz":1,"tags":{"climbing":"route_bottom","climbing:grade:uiaa":"6+","name":"Převisy","sport":"climbing","website":"https://www.horosvaz.cz/skaly-cesta-45192/"}},"11936719466":{"lat":49.3077572,"lon":14.1126744,"ts":"2024-05-27T09:39:34Z","tz":1,"tags":{"climbing":"route_bottom","climbing:grade:uiaa":"6","name":"Plotny","sport":"climbing","website":"https://www.horosvaz.cz/skaly-cesta-45193/"}},"11936719467":{"lat":49.3077548,"lon":14.1126529,"ts":"2024-05-27T09:39:34Z","tz":1,"tags":{"climbing":"route_bottom","name":"Malý traverz (Boulder)","sport":"climbing","website":"https://www.horosvaz.cz/skaly-cesta-45209/"}},"11936719468":{"lat":49.3077524,"lon":14.1126314,"ts":"2024-05-27T09:39:34Z","tz":1,"tags":{"climbing":"route_bottom","climbing:grade:uiaa":"6","name":"Zdeňkova","sport":"climbing","website":"https://www.horosvaz.cz/skaly-cesta-45213/"}},"11936719826":{"lat":49.3015234,"lon":14.105028,"ts":"2024-05-27T09:40:42Z","tz":1,"tags":{"climbing":"route_bottom","climbing:grade:uiaa":"5+","name":"Zrádná","sport":"climbing","website":"https://www.horosvaz.cz/skaly-cesta-45181/"}},"11936719827":{"lat":49.3015099,"lon":14.1050295,"ts":"2024-05-27T09:40:42Z","tz":1,"tags":{"climbing":"route_bottom","name":"Varianta Federální","sport":"climbing","website":"https://www.horosvaz.cz/skaly-cesta-45168/"}},"11936719828":{"lat":49.3014963,"lon":14.105031,"ts":"2024-05-27T09:40:42Z","tz":1,"tags":{"climbing":"route_bottom","climbing:grade:uiaa":"7+","name":"Federální","sport":"climbing","website":"https://www.horosvaz.cz/skaly-cesta-45180/"}},"11936719829":{"lat":49.3014828,"lon":14.1050326,"ts":"2024-05-27T09:40:42Z","tz":1,"tags":{"climbing":"route_bottom","climbing:grade:uiaa":"5+","name":"LETECKÁ (Zapomenutá)","sport":"climbing","website":"https://www.horosvaz.cz/skaly-cesta-45169/"}},"11936719830":{"lat":49.3014692,"lon":14.1050341,"ts":"2024-05-27T09:40:42Z","tz":1,"tags":{"climbing":"route_bottom","climbing:grade:uiaa":"6","name":"Vzpomínka","sport":"climbing","website":"https://www.horosvaz.cz/skaly-cesta-45170/"}},"11936719831":{"lat":49.3014557,"lon":14.1050356,"ts":"2024-05-27T09:40:42Z","tz":1,"tags":{"climbing":"route_bottom","climbing:grade:uiaa":"7","name":"Šedá plotna","sport":"climbing","website":"https://www.horosvaz.cz/skaly-cesta-45171/"}},"11936719832":{"lat":49.3014421,"lon":14.1050372,"ts":"2024-05-27T09:40:42Z","tz":1,"tags":{"climbing":"route_bottom","climbing:grade:uiaa":"7","name":"Levá","sport":"climbing","website":"https://www.horosvaz.cz/skaly-cesta-45172/"}},"11936719833":{"lat":49.3014286,"lon":14.1050387,"ts":"2024-05-27T09:40:42Z","tz":1,"tags":{"climbing":"route_bottom","climbing:grade:uiaa":"7+","name":"Cesta nikam","sport":"climbing","website":"https://www.horosvaz.cz/skaly-cesta-45173/"}},"11936719834":{"lat":49.301415,"lon":14.1050402,"ts":"2024-05-27T09:40:42Z","tz":1,"tags":{"climbing":"route_bottom","climbing:grade:uiaa":"6","name":"Plotýnka","sport":"climbing","website":"https://www.horosvaz.cz/skaly-cesta-45174/"}},"11936719835":{"lat":49.3014014,"lon":14.1050418,"ts":"2024-05-27T09:40:42Z","tz":1,"tags":{"climbing":"route_bottom","climbing:grade:uiaa":"4+","name":"Kominická","sport":"climbing","website":"https://www.horosvaz.cz/skaly-cesta-45179/"}},"11936719836":{"lat":49.3013879,"lon":14.1050433,"ts":"2024-05-27T09:40:42Z","tz":1,"tags":{"climbing":"route_bottom","climbing:grade:uiaa":"6","name":"Varianta Oregon","sport":"climbing","website":"https://www.horosvaz.cz/skaly-cesta-45175/"}},"11936719837":{"lat":49.3013743,"lon":14.1050448,"ts":"2024-05-27T09:40:42Z","tz":1,"tags":{"climbing":"route_bottom","climbing:grade:uiaa":"6","name":"Oregon","sport":"climbing","website":"https://www.horosvaz.cz/skaly-cesta-45176/"}},"11936719838":{"lat":49.3013608,"lon":14.1050463,"ts":"2024-05-27T09:40:42Z","tz":1,"tags":{"climbing":"route_bottom","climbing:grade:uiaa":"5+","name":"Stará","sport":"climbing","website":"https://www.horosvaz.cz/skaly-cesta-45177/"}},"11936719839":{"lat":49.3013472,"lon":14.1050479,"ts":"2024-05-27T09:40:42Z","tz":1,"tags":{"climbing":"route_bottom","climbing:grade:uiaa":"6","name":"Gamos","sport":"climbing","website":"https://www.horosvaz.cz/skaly-cesta-45178/"}},"11936721186":{"lat":49.3098081,"lon":14.122494,"ts":"2024-05-27T09:40:58Z","tz":1,"tags":{"climbing":"route_bottom","climbing:grade:uiaa":"3","name":"Březnová","sport":"climbing","website":"https://www.horosvaz.cz/skaly-cesta-45216/"}},"11936721187":{"lat":49.309815,"lon":14.1224749,"ts":"2024-05-27T09:40:58Z","tz":1,"tags":{"climbing":"route_bottom","climbing:grade:uiaa":"5","name":"Přes převis","sport":"climbing","website":"https://www.horosvaz.cz/skaly-cesta-45217/"}},"11936721188":{"lat":49.3098218,"lon":14.1224558,"ts":"2024-05-27T09:40:58Z","tz":1,"tags":{"climbing":"route_bottom","climbing:grade:uiaa":"6","name":"Chladná","sport":"climbing","website":"https://www.horosvaz.cz/skaly-cesta-45218/"}},"11936721189":{"lat":49.3098287,"lon":14.1224367,"ts":"2024-05-27T09:40:58Z","tz":1,"tags":{"climbing":"route_bottom","climbing:grade:uiaa":"3","name":"Jen tak","sport":"climbing","website":"https://www.horosvaz.cz/skaly-cesta-45219/"}},"11936721190":{"lat":49.3098356,"lon":14.1224176,"ts":"2024-05-27T09:40:58Z","tz":1,"tags":{"climbing":"route_bottom","climbing:grade:uiaa":"4-","name":"Hladká","sport":"climbing","website":"https://www.horosvaz.cz/skaly-cesta-45220/"}},"11936721191":{"lat":49.3098424,"lon":14.1223985,"ts":"2024-05-27T09:40:58Z","tz":1,"tags":{"climbing":"route_bottom","climbing:grade:uiaa":"3","name":"Jižní hrana","sport":"climbing","website":"https://www.horosvaz.cz/skaly-cesta-45221/"}},"11936721192":{"lat":49.3098493,"lon":14.1223793,"ts":"2024-05-27T09:40:58Z","tz":1,"tags":{"climbing":"route_bottom","climbing:grade:uiaa":"4-","name":"Javorová","sport":"climbing","website":"https://www.horosvaz.cz/skaly-cesta-45222/"}},"11936721193":{"lat":49.3098562,"lon":14.1223602,"ts":"2024-05-27T09:40:58Z","tz":1,"tags":{"climbing":"route_bottom","climbing:grade:uiaa":"4+","name":"Podzimní","sport":"climbing","website":"https://www.horosvaz.cz/skaly-cesta-45223/"}},"11936721194":{"lat":49.309863,"lon":14.1223411,"ts":"2024-05-27T09:40:58Z","tz":1,"tags":{"climbing":"route_bottom","climbing:grade:uiaa":"4+","name":"Věřin kout","sport":"climbing","website":"https://www.horosvaz.cz/skaly-cesta-45224/"}},"11936721195":{"lat":49.3098699,"lon":14.122322,"ts":"2024-05-27T09:40:58Z","tz":1,"tags":{"climbing":"route_bottom","climbing:grade:uiaa":"5","name":"U lavičky","sport":"climbing","website":"https://www.horosvaz.cz/skaly-cesta-45225/"}},"11936755504":{"lat":49.3063474,"lon":14.1080999,"ts":"2024-05-27T09:41:14Z","tz":1,"tags":{"climbing":"route_bottom","climbing:grade:uiaa":"4","name":"Rychlovka","sport":"climbing","website":"https://www.horosvaz.cz/skaly-cesta-45182/"}},"11936755505":{"lat":49.306336,"lon":14.1080875,"ts":"2024-05-27T09:41:14Z","tz":1,"tags":{"climbing":"route_bottom","climbing:grade:uiaa":"5","name":"Vzpomínková","sport":"climbing","website":"https://www.horosvaz.cz/skaly-cesta-45183/"}},"11936755506":{"lat":49.3063247,"lon":14.1080751,"ts":"2024-05-27T09:41:14Z","tz":1,"tags":{"climbing":"route_bottom","climbing:grade:uiaa":"3+","name":"Stará cesta","sport":"climbing","website":"https://www.horosvaz.cz/skaly-cesta-45184/"}},"11936755507":{"lat":49.3063133,"lon":14.1080627,"ts":"2024-05-27T09:41:14Z","tz":1,"tags":{"climbing":"route_bottom","climbing:grade:uiaa":"3","name":"Plátkův komín","sport":"climbing","website":"https://www.horosvaz.cz/skaly-cesta-45185/"}},"11936757169":{"lat":49.30775,"lon":14.1126099,"ts":"2024-05-27T09:39:34Z","tz":1,"tags":{"climbing":"route_bottom","climbing:grade:uiaa":"4","name":"Zářez","sport":"climbing","website":"https://www.horosvaz.cz/skaly-cesta-45194/"}},"11936757170":{"lat":49.3077476,"lon":14.1125884,"ts":"2024-05-27T09:39:34Z","tz":1,"tags":{"climbing":"route_bottom","climbing:grade:uiaa":"4","name":"Ostruha","sport":"climbing","website":"https://www.horosvaz.cz/skaly-cesta-45212/"}},"11936757171":{"lat":49.3077452,"lon":14.1125669,"ts":"2024-05-27T09:39:34Z","tz":1,"tags":{"climbing":"route_bottom","climbing:grade:uiaa":"4","name":"Pilíř","sport":"climbing","website":"https://www.horosvaz.cz/skaly-cesta-45211/"}},"11936757172":{"lat":49.3077429,"lon":14.1125454,"ts":"2024-05-27T09:39:34Z","tz":1,"tags":{"climbing":"route_bottom","climbing:grade:uiaa":"6","name":"Plašmuška","sport":"climbing","website":"https://www.horosvaz.cz/skaly-cesta-45195/"}},"11936757173":{"lat":49.3077405,"lon":14.1125239,"ts":"2024-05-27T09:39:34Z","tz":1,"tags":{"climbing":"route_bottom","climbing:grade:uiaa":"6+","name":"Dobrá káva","sport":"climbing","website":"https://www.horosvaz.cz/skaly-cesta-87596/"}},"11936757174":{"lat":49.3077381,"lon":14.1125024,"ts":"2024-05-27T09:39:34Z","tz":1,"tags":{"climbing":"route_bottom","name":"První jarní","sport":"climbing","website":"https://www.horosvaz.cz/skaly-cesta-45196/"}},"11936757175":{"lat":49.3077357,"lon":14.1124809,"ts":"2024-05-27T09:39:34Z","tz":1,"tags":{"climbing":"route_bottom","climbing:grade:uiaa":"6","name":"Pieta","sport":"climbing","website":"https://www.horosvaz.cz/skaly-cesta-45210/"}},"11936757176":{"lat":49.3077333,"lon":14.1124594,"ts":"2024-05-27T09:39:34Z","tz":1,"tags":{"climbing":"route_bottom","climbing:grade:uiaa":"7+","name":"Bambusova pravda","sport":"climbing","website":"https://www.horosvaz.cz/skaly-cesta-45197/"}},"11936757177":{"lat":49.3077309,"lon":14.1124379,"ts":"2024-05-27T09:39:34Z","tz":1,"tags":{"climbing":"route_bottom","climbing:grade:uiaa":"5-","name":"Konec nadějí","sport":"climbing","website":"https://www.horosvaz.cz/skaly-cesta-45208/"}},"11936757178":{"lat":49.3077285,"lon":14.1124164,"ts":"2024-05-27T09:39:34Z","tz":1,"tags":{"climbing":"route_bottom","climbing:grade:uiaa":"5","name":"Večerní","sport":"climbing","website":"https://www.horosvaz.cz/skaly-cesta-45198/"}},"11936757179":{"lat":49.3077261,"lon":14.1123949,"ts":"2024-05-27T09:39:34Z","tz":1,"tags":{"climbing":"route_bottom","climbing:grade:uiaa":"5","name":"Studničkova cesta","sport":"climbing","website":"https://www.horosvaz.cz/skaly-cesta-45199/"}},"11936757180":{"lat":49.3077237,"lon":14.1123734,"ts":"2024-05-27T09:39:34Z","tz":1,"tags":{"climbing":"route_bottom","climbing:grade:uiaa":"6+","name":"Na paměť J. Pechouše","sport":"climbing","website":"https://www.horosvaz.cz/skaly-cesta-45207/"}},"11936757181":{"lat":49.3077213,"lon":14.1123519,"ts":"2024-05-27T09:39:34Z","tz":1,"tags":{"climbing":"route_bottom","climbing:grade:uiaa":"6+","name":"Vhloubení","sport":"climbing","website":"https://www.horosvaz.cz/skaly-cesta-45200/"}},"11936757182":{"lat":49.3077189,"lon":14.1123304,"ts":"2024-05-27T09:39:34Z","tz":1,"tags":{"climbing":"route_bottom","climbing:grade:uiaa":"5","name":"Barevná hrana","sport":"climbing","website":"https://www.horosvaz.cz/skaly-cesta-45206/"}},"11936757183":{"lat":49.3077165,"lon":14.1123089,"ts":"2024-05-27T09:39:34Z","tz":1,"tags":{"climbing":"route_bottom","climbing:grade:uiaa":"6+","name":"Ranní převis","sport":"climbing","website":"https://www.horosvaz.cz/skaly-cesta-45204/"}},"11936757184":{"lat":49.3077141,"lon":14.1122874,"ts":"2024-05-27T09:39:34Z","tz":1,"tags":{"climbing":"route_bottom","climbing:grade:uiaa":"6","name":"Vpravo od ranního převisu?","sport":"climbing","website":"https://www.horosvaz.cz/skaly-cesta-45203/"}},"11936757185":{"lat":49.3077117,"lon":14.1122659,"ts":"2024-05-27T09:39:34Z","tz":1,"tags":{"climbing":"route_bottom","climbing:grade:uiaa":"7+","name":"Cesta pro Mariku","sport":"climbing","website":"https://www.horosvaz.cz/skaly-cesta-45202/"}},"11936757186":{"lat":49.3077093,"lon":14.1122444,"ts":"2024-05-27T09:39:34Z","tz":1,"tags":{"climbing":"route_bottom","climbing:grade:uiaa":"5+","name":"Chrastítko","sport":"climbing","website":"https://www.horosvaz.cz/skaly-cesta-45201/"}},"11936757187":{"lat":49.3077069,"lon":14.1122229,"ts":"2024-05-27T09:39:34Z","tz":1,"tags":{"climbing":"route_bottom","name":"Žďákovský traverz","sport":"climbing","website":"https://www.horosvaz.cz/skaly-cesta-45186/"}},"11936757188":{"lat":49.3077045,"lon":14.1122014,"ts":"2024-05-27T09:39:34Z","tz":1,"tags":{"climbing":"route_bottom","climbing:grade:uiaa":"2","name":"Hrad","sport":"climbing","website":"https://www.horosvaz.cz/skaly-cesta-45205/"}},"11936858623":{"lat":49.3266936,"lon":14.1545338,"ts":"2024-05-27T10:43:26Z","tz":1,"tags":{"climbing":"route_bottom","climbing:grade:uiaa":"4","name":"Foxtrot pro Zdeňku - Netopíří var.","sport":"climbing","website":"https://www.horosvaz.cz/skaly-cesta-112261/"}},"11936858624":{"lat":49.3267058,"lon":14.1545249,"ts":"2024-05-27T10:43:26Z","tz":1,"tags":{"climbing":"route_bottom","climbing:grade:uiaa":"3+","name":"Foxtrot pro Zdeňku","sport":"climbing","website":"https://www.horosvaz.cz/skaly-cesta-112260/"}},"11936858625":{"lat":49.326718,"lon":14.154516,"ts":"2024-05-27T10:43:26Z","tz":1,"tags":{"climbing":"route_bottom","climbing:grade:uiaa":"6-","name":"Borháky od Algeny","sport":"climbing","website":"https://www.horosvaz.cz/skaly-cesta-101845/"}},"11936858626":{"lat":49.3267303,"lon":14.1545071,"ts":"2024-05-27T10:43:26Z","tz":1,"tags":{"climbing":"route_bottom","climbing:grade:uiaa":"6+","name":"Anglická konverzace","sport":"climbing","website":"https://www.horosvaz.cz/skaly-cesta-100885/"}},"11936858627":{"lat":49.3267425,"lon":14.1544983,"ts":"2024-05-27T10:43:26Z","tz":1,"tags":{"climbing":"route_bottom","climbing:grade:uiaa":"6+","name":"Uzel","sport":"climbing","website":"https://www.horosvaz.cz/skaly-cesta-45246/"}},"11936858628":{"lat":49.3267548,"lon":14.1544894,"ts":"2024-05-27T10:43:26Z","tz":1,"tags":{"climbing":"route_bottom","climbing:grade:uiaa":"7+/8-","name":"Kosí zpěv","sport":"climbing","website":"https://www.horosvaz.cz/skaly-cesta-45245/"}},"11936858629":{"lat":49.326767,"lon":14.1544805,"ts":"2024-05-27T10:43:26Z","tz":1,"tags":{"climbing":"route_bottom","climbing:grade:uiaa":"4","name":"Kyčelo","sport":"climbing","website":"https://www.horosvaz.cz/skaly-cesta-99729/"}},"11936858630":{"lat":49.3267792,"lon":14.1544716,"ts":"2024-05-27T10:43:26Z","tz":1,"tags":{"climbing":"route_bottom","climbing:grade:uiaa":"5+","name":"Made by mačeta","sport":"climbing","website":"https://www.horosvaz.cz/skaly-cesta-99730/"}},"11936874440":{"lat":49.3003062,"lon":14.107599,"ts":"2024-05-27T10:59:38Z","tz":1,"tags":{"climbing":"route_bottom","climbing:grade:uiaa":"5+","name":"Míšova cesta","sport":"climbing","website":"https://www.horosvaz.cz/skaly-cesta-45258/"}},"11936874441":{"lat":49.3003154,"lon":14.1075833,"ts":"2024-05-27T10:59:38Z","tz":1,"tags":{"climbing":"route_bottom","climbing:grade:uiaa":"5+","name":"Spárá","sport":"climbing","website":"https://www.horosvaz.cz/skaly-cesta-45259/"}},"11936874442":{"lat":49.3003247,"lon":14.1075676,"ts":"2024-05-27T10:59:38Z","tz":1,"tags":{"climbing":"route_bottom","climbing:grade:uiaa":"7-","name":"Starý víno","sport":"climbing","website":"https://www.horosvaz.cz/skaly-cesta-45260/"}},"11936874443":{"lat":49.3003339,"lon":14.1075519,"ts":"2024-05-27T10:59:38Z","tz":1,"tags":{"climbing":"route_bottom","climbing:grade:uiaa":"3+","name":"Boční","sport":"climbing","website":"https://www.horosvaz.cz/skaly-cesta-45265/"}},"11936874444":{"lat":49.3003432,"lon":14.1075362,"ts":"2024-05-27T10:59:38Z","tz":1,"tags":{"climbing":"route_bottom","climbing:grade:uiaa":"4+","name":"Široká spára","sport":"climbing","website":"https://www.horosvaz.cz/skaly-cesta-45266/"}},"11936874445":{"lat":49.3003524,"lon":14.1075205,"ts":"2024-05-27T10:59:38Z","tz":1,"tags":{"climbing":"route_bottom","climbing:grade:uiaa":"4+","name":"Spára","sport":"climbing","website":"https://www.horosvaz.cz/skaly-cesta-45267/"}},"11936874446":{"lat":49.3003616,"lon":14.1075048,"ts":"2024-05-27T10:59:38Z","tz":1,"tags":{"climbing":"route_bottom","climbing:grade:uiaa":"3","name":"Zvonkový traverz","sport":"climbing","website":"https://www.horosvaz.cz/skaly-cesta-45268/"}},"11936874447":{"lat":49.3003709,"lon":14.1074891,"ts":"2024-05-27T10:59:38Z","tz":1,"tags":{"climbing":"route_bottom","climbing:grade:uiaa":"6","name":"Cesta stěnkou","sport":"climbing","website":"https://www.horosvaz.cz/skaly-cesta-45261/"}},"11936874448":{"lat":49.3003801,"lon":14.1074734,"ts":"2024-05-27T10:59:38Z","tz":1,"tags":{"climbing":"route_bottom","climbing:grade:uiaa":"5-","name":"Sokolík","sport":"climbing","website":"https://www.horosvaz.cz/skaly-cesta-45269/"}},"11936874449":{"lat":49.3003894,"lon":14.1074577,"ts":"2024-05-27T10:59:38Z","tz":1,"tags":{"climbing":"route_bottom","climbing:grade:uiaa":"6","name":"Olivětínská hrana","sport":"climbing","website":"https://www.horosvaz.cz/skaly-cesta-45270/"}},"11936874450":{"lat":49.3003986,"lon":14.1074419,"ts":"2024-05-27T10:59:38Z","tz":1,"tags":{"climbing":"route_bottom","climbing:grade:uiaa":"7+","name":"Congratulations","sport":"climbing","website":"https://www.horosvaz.cz/skaly-cesta-45262/"}},"11936874451":{"lat":49.3004079,"lon":14.1074262,"ts":"2024-05-27T10:59:38Z","tz":1,"tags":{"climbing":"route_bottom","climbing:grade:uiaa":"6+","name":"Pater noster","sport":"climbing","website":"https://www.horosvaz.cz/skaly-cesta-45271/"}},"11936874452":{"lat":49.3004171,"lon":14.1074105,"ts":"2024-05-27T10:59:38Z","tz":1,"tags":{"climbing":"route_bottom","name":"Varianta","sport":"climbing","website":"https://www.horosvaz.cz/skaly-cesta-45263/"}},"11936874453":{"lat":49.3004264,"lon":14.1073948,"ts":"2024-05-27T10:59:38Z","tz":1,"tags":{"climbing":"route_bottom","climbing:grade:uiaa":"7","name":"Cesta zmrzlých úsměvů","sport":"climbing","website":"https://www.horosvaz.cz/skaly-cesta-45272/"}},"11936874454":{"lat":49.3004356,"lon":14.1073791,"ts":"2024-05-27T10:59:38Z","tz":1,"tags":{"climbing":"route_bottom","climbing:grade:uiaa":"2","name":"Široký komín","sport":"climbing","website":"https://www.horosvaz.cz/skaly-cesta-45273/"}},"11936874455":{"lat":49.3004449,"lon":14.1073634,"ts":"2024-05-27T10:59:38Z","tz":1,"tags":{"climbing":"route_bottom","climbing:grade:uiaa":"3","name":"Bezejmenná","sport":"climbing","website":"https://www.horosvaz.cz/skaly-cesta-45274/"}},"11936874456":{"lat":49.3004541,"lon":14.1073477,"ts":"2024-05-27T10:59:38Z","tz":1,"tags":{"climbing":"route_bottom","climbing:grade:uiaa":"3","name":"Akátová","sport":"climbing","website":"https://www.horosvaz.cz/skaly-cesta-45275/"}},"11936874457":{"lat":49.3004633,"lon":14.107332,"ts":"2024-05-27T10:59:38Z","tz":1,"tags":{"climbing":"route_bottom","climbing:grade:uiaa":"7","name":"Roh","sport":"climbing","website":"https://www.horosvaz.cz/skaly-cesta-45276/"}},"11936874458":{"lat":49.3004726,"lon":14.1073163,"ts":"2024-05-27T10:59:38Z","tz":1,"tags":{"climbing":"route_bottom","climbing:grade:uiaa":"6+","name":"Skobová","sport":"climbing","website":"https://www.horosvaz.cz/skaly-cesta-45277/"}},"11936874459":{"lat":49.3004818,"lon":14.1073006,"ts":"2024-05-27T10:59:38Z","tz":1,"tags":{"climbing":"route_bottom","climbing:grade:uiaa":"6","name":"Varianta Cesty přes díru","sport":"climbing","website":"https://www.horosvaz.cz/skaly-cesta-45264/"}},"11936874460":{"lat":49.3004911,"lon":14.1072848,"ts":"2024-05-27T10:59:38Z","tz":1,"tags":{"climbing":"route_bottom","climbing:grade:uiaa":"5+","name":"Přes díru","sport":"climbing","website":"https://www.horosvaz.cz/skaly-cesta-45278/"}},"11936885573":{"lat":49.2991703,"lon":14.1095879,"ts":"2024-05-27T10:58:37Z","tz":1,"tags":{"climbing":"route_bottom","climbing:grade:uiaa":"3","name":"Zahradníkův rok","sport":"climbing","website":"https://www.horosvaz.cz/skaly-cesta-45288/"}},"11936885574":{"lat":49.2991789,"lon":14.1095708,"ts":"2024-05-27T10:58:37Z","tz":1,"tags":{"climbing":"route_bottom","name":"Boulder 2000\"","sport":"climbing","website":"https://www.horosvaz.cz/skaly-cesta-45281/"}},"11936885575":{"lat":49.2991874,"lon":14.1095537,"ts":"2024-05-27T10:58:37Z","tz":1,"tags":{"climbing":"route_bottom","climbing:grade:uiaa":"6","name":"Stříbrný traverz","sport":"climbing","website":"https://www.horosvaz.cz/skaly-cesta-45282/"}},"11936885576":{"lat":49.299196,"lon":14.1095366,"ts":"2024-05-27T10:58:37Z","tz":1,"tags":{"climbing":"route_bottom","climbing:grade:uiaa":"2","name":"Kuloár","sport":"climbing","website":"https://www.horosvaz.cz/skaly-cesta-45283/"}},"11936885577":{"lat":49.2992045,"lon":14.1095195,"ts":"2024-05-27T10:58:37Z","tz":1,"tags":{"climbing":"route_bottom","climbing:grade:uiaa":"4+","name":"Milunina spára","sport":"climbing","website":"https://www.horosvaz.cz/skaly-cesta-45290/"}},"11936885578":{"lat":49.2992131,"lon":14.1095024,"ts":"2024-05-27T10:58:37Z","tz":1,"tags":{"climbing":"route_bottom","climbing:grade:uiaa":"5","name":"Líh","sport":"climbing","website":"https://www.horosvaz.cz/skaly-cesta-45284/"}},"11936885579":{"lat":49.2992216,"lon":14.1094853,"ts":"2024-05-27T10:58:37Z","tz":1,"tags":{"climbing":"route_bottom","climbing:grade:uiaa":"5+","name":"Kolibřík","sport":"climbing","website":"https://www.horosvaz.cz/skaly-cesta-45291/"}},"11936885580":{"lat":49.2992301,"lon":14.1094682,"ts":"2024-05-27T10:58:37Z","tz":1,"tags":{"climbing":"route_bottom","climbing:grade:uiaa":"7-","name":"Zpocené prsty","sport":"climbing","website":"https://www.horosvaz.cz/skaly-cesta-45279/"}},"11936885581":{"lat":49.2992387,"lon":14.1094511,"ts":"2024-05-27T10:58:37Z","tz":1,"tags":{"climbing":"route_bottom","climbing:grade:uiaa":"5-","name":"Štít","sport":"climbing","website":"https://www.horosvaz.cz/skaly-cesta-45292/"}},"11936885582":{"lat":49.2992472,"lon":14.1094341,"ts":"2024-05-27T10:58:37Z","tz":1,"tags":{"climbing":"route_bottom","climbing:grade:uiaa":"6-","name":"Iluze","sport":"climbing","website":"https://www.horosvaz.cz/skaly-cesta-45280/"}},"11936885583":{"lat":49.2992558,"lon":14.109417,"ts":"2024-05-27T10:58:37Z","tz":1,"tags":{"climbing":"route_bottom","climbing:grade:uiaa":"8-","name":"STŘÍBRNÉ NÝTY (Kořínkova cesta)","sport":"climbing","website":"https://www.horosvaz.cz/skaly-cesta-45293/"}},"11936885584":{"lat":49.2992643,"lon":14.1093999,"ts":"2024-05-27T10:58:37Z","tz":1,"tags":{"climbing":"route_bottom","climbing:grade:uiaa":"5+","name":"Za měsíc","sport":"climbing","website":"https://www.horosvaz.cz/skaly-cesta-45294/"}},"11936885585":{"lat":49.2992729,"lon":14.1093828,"ts":"2024-05-27T10:58:37Z","tz":1,"tags":{"climbing":"route_bottom","climbing:grade:uiaa":"5","name":"Mravenčí","sport":"climbing","website":"https://www.horosvaz.cz/skaly-cesta-45295/"}},"11936885586":{"lat":49.2992814,"lon":14.1093657,"ts":"2024-05-27T10:58:37Z","tz":1,"tags":{"climbing":"route_bottom","climbing:grade:uiaa":"5-","name":"Termit","sport":"climbing","website":"https://www.horosvaz.cz/skaly-cesta-45296/"}},"11936885587":{"lat":49.29929,"lon":14.1093486,"ts":"2024-05-27T10:58:37Z","tz":1,"tags":{"climbing":"route_bottom","climbing:grade:uiaa":"3","name":"Puklá","sport":"climbing","website":"https://www.horosvaz.cz/skaly-cesta-45285/"}},"11936885588":{"lat":49.2992985,"lon":14.1093315,"ts":"2024-05-27T10:58:37Z","tz":1,"tags":{"climbing":"route_bottom","climbing:grade:uiaa":"3","name":"Kapradina","sport":"climbing","website":"https://www.horosvaz.cz/skaly-cesta-45297/"}},"11936885589":{"lat":49.2993071,"lon":14.1093144,"ts":"2024-05-27T10:58:37Z","tz":1,"tags":{"climbing":"route_bottom","climbing:grade:uiaa":"5+","name":"Janina","sport":"climbing","website":"https://www.horosvaz.cz/skaly-cesta-45286/"}},"11936885590":{"lat":49.2993156,"lon":14.1092973,"ts":"2024-05-27T10:58:37Z","tz":1,"tags":{"climbing":"route_bottom","climbing:grade:uiaa":"4+","name":"Bukač","sport":"climbing","website":"https://www.horosvaz.cz/skaly-cesta-45298/"}},"11936885591":{"lat":49.2993241,"lon":14.1092803,"ts":"2024-05-27T10:58:37Z","tz":1,"tags":{"climbing":"route_bottom","climbing:grade:uiaa":"7-","name":"Starcův úlet","sport":"climbing","website":"https://www.horosvaz.cz/skaly-cesta-45299/"}},"11936885592":{"lat":49.2993327,"lon":14.1092632,"ts":"2024-05-27T10:58:37Z","tz":1,"tags":{"climbing":"route_bottom","climbing:grade:uiaa":"3","name":"Kamenná","sport":"climbing","website":"https://www.horosvaz.cz/skaly-cesta-45300/"}},"11936885593":{"lat":49.2993412,"lon":14.1092461,"ts":"2024-05-27T10:58:37Z","tz":1,"tags":{"climbing":"route_bottom","climbing:grade:uiaa":"2","name":"Normálka","sport":"climbing","website":"https://www.horosvaz.cz/skaly-cesta-45301/"}},"11936885594":{"lat":49.2993498,"lon":14.109229,"ts":"2024-05-27T10:58:37Z","tz":1,"tags":{"climbing":"route_bottom","climbing:grade:uiaa":"5","name":"Medvědí cesta","sport":"climbing","website":"https://www.horosvaz.cz/skaly-cesta-45302/"}},"11936885595":{"lat":49.2993583,"lon":14.1092119,"ts":"2024-05-27T10:58:37Z","tz":1,"tags":{"climbing":"route_bottom","climbing:grade:uiaa":"5","name":"Jalovcová","sport":"climbing","website":"https://www.horosvaz.cz/skaly-cesta-45303/"}},"11936885596":{"lat":49.2993669,"lon":14.1091948,"ts":"2024-05-27T10:58:37Z","tz":1,"tags":{"climbing":"route_bottom","climbing:grade:uiaa":"6-","name":"Kroužková","sport":"climbing","website":"https://www.horosvaz.cz/skaly-cesta-45304/"}},"11936885597":{"lat":49.2993754,"lon":14.1091777,"ts":"2024-05-27T10:58:37Z","tz":1,"tags":{"climbing":"route_bottom","climbing:grade:uiaa":"4","name":"Janovcová","sport":"climbing","website":"https://www.horosvaz.cz/skaly-cesta-45287/"}},"11936885598":{"lat":49.299384,"lon":14.1091606,"ts":"2024-05-27T10:58:37Z","tz":1,"tags":{"climbing":"route_bottom","climbing:grade:uiaa":"6","name":"Šádovka","sport":"climbing","website":"https://www.horosvaz.cz/skaly-cesta-45305/"}},"11936885599":{"lat":49.2993925,"lon":14.1091435,"ts":"2024-05-27T10:58:37Z","tz":1,"tags":{"climbing":"route_bottom","climbing:grade:uiaa":"5+","name":"Borová","sport":"climbing","website":"https://www.horosvaz.cz/skaly-cesta-45306/"}},"11936885600":{"lat":49.2994011,"lon":14.1091264,"ts":"2024-05-27T10:58:37Z","tz":1,"tags":{"climbing":"route_bottom","climbing:grade:uiaa":"5-","name":"Karlova","sport":"climbing","website":"https://www.horosvaz.cz/skaly-cesta-45307/"}},"11936885601":{"lat":49.2994096,"lon":14.1091094,"ts":"2024-05-27T10:58:37Z","tz":1,"tags":{"climbing":"route_bottom","climbing:grade:uiaa":"1","name":"Klouzačka","sport":"climbing","website":"https://www.horosvaz.cz/skaly-cesta-45308/"}},"11936885602":{"lat":49.2994181,"lon":14.1090923,"ts":"2024-05-27T10:58:37Z","tz":1,"tags":{"climbing":"route_bottom","climbing:grade:uiaa":"2","name":"Stupňová","sport":"climbing","website":"https://www.horosvaz.cz/skaly-cesta-45309/"}},"11936885603":{"lat":49.2994267,"lon":14.1090752,"ts":"2024-05-27T10:58:37Z","tz":1,"tags":{"climbing":"route_bottom","climbing:grade:uiaa":"3+","name":"Přebytečná","sport":"climbing","website":"https://www.horosvaz.cz/skaly-cesta-45310/"}},"11936885604":{"lat":49.2994352,"lon":14.1090581,"ts":"2024-05-27T10:58:37Z","tz":1,"tags":{"climbing":"route_bottom","climbing:grade:uiaa":"3","name":"Prasklá","sport":"climbing","website":"https://www.horosvaz.cz/skaly-cesta-45311/"}},"11936885605":{"lat":49.2994438,"lon":14.109041,"ts":"2024-05-27T10:58:37Z","tz":1,"tags":{"climbing":"route_bottom","climbing:grade:uiaa":"3+","name":"Koutek","sport":"climbing","website":"https://www.horosvaz.cz/skaly-cesta-45312/"}},"11936885606":{"lat":49.2994523,"lon":14.1090239,"ts":"2024-05-27T10:58:37Z","tz":1,"tags":{"climbing":"route_bottom","climbing:grade:uiaa":"4+","name":"Ranní","sport":"climbing","website":"https://www.horosvaz.cz/skaly-cesta-45313/"}},"11936885607":{"lat":49.2994609,"lon":14.1090068,"ts":"2024-05-27T10:58:37Z","tz":1,"tags":{"climbing":"route_bottom","climbing:grade:uiaa":"3","name":"Baráčnická","sport":"climbing","website":"https://www.horosvaz.cz/skaly-cesta-45289/"}},"11954802842":{"lat":49.2837539,"lon":14.342794,"ts":"2024-06-04T03:01:59Z","tz":1,"tags":{"climbing":"route_bottom","climbing:grade:uiaa":"4","name":"Klepítko","sport":"climbing","website":"https://www.horosvaz.cz/skaly-cesta-119428/"}},"11954802843":{"lat":49.2837659,"lon":14.3427904,"ts":"2024-06-04T03:01:59Z","tz":1,"tags":{"climbing":"route_bottom","climbing:grade:uiaa":"2+","name":"Dušičky","sport":"climbing","website":"https://www.horosvaz.cz/skaly-cesta-119277/"}},"11954802844":{"lat":49.2837778,"lon":14.3427868,"ts":"2024-06-04T03:01:59Z","tz":1,"tags":{"climbing":"route_bottom","climbing:grade:uiaa":"2-","name":"Outkovo schodiště","sport":"climbing","website":"https://www.horosvaz.cz/skaly-cesta-119276/"}},"11954865704":{"lat":49.2828365,"lon":14.3431516,"ts":"2024-06-04T03:00:27Z","tz":1,"tags":{"climbing":"route_bottom","climbing:grade:uiaa":"4","name":"Inverze","sport":"climbing","website":"https://www.horosvaz.cz/skaly-cesta-119275/"}},"11954865705":{"lat":49.2828523,"lon":14.3431516,"ts":"2024-06-04T03:00:27Z","tz":1,"tags":{"climbing":"route_bottom","climbing:grade:uiaa":"5","name":"Ruleta","sport":"climbing","website":"https://www.horosvaz.cz/skaly-cesta-119274/"}},"11954865706":{"lat":49.282868,"lon":14.3431517,"ts":"2024-06-04T03:00:27Z","tz":1,"tags":{"climbing":"route_bottom","climbing:grade:uiaa":"4-","name":"Kamínek jistoty","sport":"climbing","website":"https://www.horosvaz.cz/skaly-cesta-119273/"}}}