{"18186952":{"lat":47.7147275,"lon":14.07511,"ts":"2024-10-21T10:21:29Z","tz":1,"tags":{"climbing":"crag","name":"Panoramapfeiler","site":"climbing","sport":"climbing","type":"site"}},"18186954":{"lat":47.7116154,"lon":14.07219,"ts":"2025-02-08T17:33:26Z","tz":1,"tags":{"climbing":"area","name":"Großer Priel","site":"climbing","sport":"climbing","type":"site"}},"18186969":{"lat":47.6612411,"lon":14.070479,"ts":"2024-10-21T10:28:21Z","tz":1,"tags":{"climbing":"crag","name":"Südostgrat","site":"climbing","sport":"climbing","type":"site"}},"18186970":{"lat":47.66333,"lon":14.0702185,"ts":"2024-10-21T10:28:21Z","tz":1,"tags":{"climbing":"crag","name":"Nordostgrat","site":"climbing","sport":"climbing","type":"site"}},"18199652":{"lat":47.6944725,"lon":14.0640683,"ts":"2024-10-23T08:52:37Z","tz":1,"tags":{"climbing":"crag","name":"Ostwand","site":"climbing","sport":"climbing","type":"site"}},"18199653":{"lat":47.697236,"lon":14.0643388,"ts":"2024-10-23T08:53:16Z","tz":1,"tags":{"climbing":"crag","name":"Hochkareck","site":"climbing","sport":"climbing","type":"site"}},"18199679":{"lat":47.7172282,"lon":14.0642372,"ts":"2024-10-23T08:56:01Z","tz":1,"tags":{"climbing":"crag","name":"Ostwand","site":"climbing","sport":"climbing","type":"site"}},"18669230":{"lat":47.6577975,"lon":14.4032247,"ts":"2025-02-08T15:52:12Z","tz":1,"tags":{"climbing":"crag","name":"Pyhrgas","site":"climbing","sport":"climbing","type":"site"}},"128279267":{"lat":47.6985591,"lon":14.0662373,"ts":"2024-07-30T15:05:07Z","tz":1,"tags":{"climbing":"route","climbing:bolted":"yes","climbing:grade:uiaa":"6","climbing:length":"400","climbing:pitches":"10","climbing:rock":"limestone","name":"Hochkarpfeiler (VI)","sac_scale":"difficult_alpine_hiking","sport":"climbing","trail_visibility":"bad"}},"128279268":{"lat":47.6966212,"lon":14.0641449,"ts":"2024-07-30T15:12:46Z","tz":1,"tags":{"climbing":"route","climbing:bolted":"yes","climbing:grade:uiaa":"4-","climbing:length":"400","climbing:pitches":"6","climbing:rock":"limestone","horse":"unsuitable","name":"Nordost-Grat (IV-)","sac_scale":"difficult_alpine_hiking","sport":"climbing"}},"128279269":{"lat":47.6980146,"lon":14.0658773,"ts":"2015-07-25T20:17:29Z","tz":1,"tags":{"climbing":"route","name":"Nordost-Grat (IV-) Zustieg","sac_scale":"difficult_alpine_hiking","trail_visibility":"no"}},"137686092":{"lat":47.7268914,"lon":14.3052293,"ts":"2012-03-12T19:58:18Z","tz":1,"tags":{"climbing":"crag","natural":"cliff"}},"165723604":{"lat":47.6612411,"lon":14.070479,"ts":"2024-07-30T15:03:00Z","tz":1,"tags":{"bicycle":"no","climbing":"route","climbing:bolted":"no","climbing:grade:uiaa":"3","climbing:length":"400","climbing:rock":"limestone","foot":"yes","highway":"path","horse":"no","name":"Südostgrat (III)","natural":"ridge","note":"avf 1968 r402","place":"locality","sac_scale":"difficult_alpine_hiking","severity":"4","source":"avf1968, geoland.at,geoimage.at,doris.at,amap.at","trail_visibility":"no"}},"165723605":{"lat":47.66333,"lon":14.0702185,"ts":"2024-07-30T15:03:00Z","tz":1,"tags":{"bicycle":"no","climbing":"route","climbing:bolted":"no","climbing:grade:uiaa":"3","climbing:length":"400","climbing:rock":"limestone","foot":"yes","highway":"path","horse":"no","name":"Nordostgrat (III)","natural":"ridge","note":"avf 1968 r402","place":"locality","sac_scale":"difficult_alpine_hiking","severity":"4","source":"avf1968, geoland.at,geoimage.at,doris.at,amap.at","trail_visibility":"no"}},"180160748":{"lat":47.7147275,"lon":14.07511,"ts":"2025-02-08T17:32:29Z","tz":1,"tags":{"climbing":"route","climbing:bolted":"yes","climbing:grade:uiaa":"4+","climbing:pitches":"8","name":"Panoramapfeiler","sport":"climbing"}},"389745904":{"lat":47.5499492,"lon":14.1270516,"ts":"2016-01-05T18:37:56Z","tz":1,"tags":{"natural":"cliff","sport":"climbing"}},"421270263":{"lat":47.5276763,"lon":14.3221926,"ts":"2016-05-27T10:55:30Z","tz":1,"tags":{"climbing:sport":"yes","natural":"cliff","sport":"climbing"}},"503564083":{"lat":47.5485979,"lon":14.1239336,"ts":"2022-07-21T13:11:58Z","tz":1,"tags":{"natural":"cliff","sport":"climbing"}},"503564084":{"lat":47.5471264,"lon":14.1194011,"ts":"2022-07-21T13:11:58Z","tz":1,"tags":{"natural":"cliff","sport":"climbing"}},"504740687":{"lat":47.6640106,"lon":14.3390312,"ts":"2018-05-10T11:47:28Z","tz":1,"tags":{"building":"yes","name":"K2 Kletterturm","sport":"climbing"}},"560840379":{"lat":47.5330556,"lon":14.2550558,"ts":"2018-02-12T23:51:36Z","tz":1,"tags":{"barrier":"wall","sport":"climbing"}},"712647558":{"lat":47.6577975,"lon":14.4032247,"ts":"2025-02-08T15:52:12Z","tz":1,"tags":{"climbing":"route","foot":"yes","name":"Pyhrgas East Ridge","sac_scale":"difficult_alpine_hiking","source":"gps;survey","sport":"climbing","trail_visibility":"intermediate"}},"815854467":{"lat":47.7451773,"lon":14.1678881,"ts":"2020-06-14T12:29:07Z","tz":1,"tags":{"leisure":"pitch","lit":"no","name":"Hochseilgarten","sport":"climbing"}},"928263314":{"lat":47.6469703,"lon":14.2992162,"ts":"2024-12-23T22:22:15Z","tz":1,"tags":{"climbing":"crag","climbing:rock":"limestone","description":"hohe, harte Routen, danke Robert!","name":"Klettergarten Schwarzeck","sport":"climbing"}},"948274423":{"lat":47.5843311,"lon":14.1562623,"ts":"2024-07-30T15:12:46Z","tz":1,"tags":{"climbing":"route","climbing:grade:uiaa":"3-","description:de":"Schlüsselstelle kann durch Latschen umgangen werden","name":"Südwandsteig (III-)"}},"1417982514":{"lat":47.6983499,"lon":14.0658219,"ts":"2011-08-30T12:10:31Z","tz":1,"tags":{"climbing":"route_top","name":"Hochkareck","natural":"peak"}},"1417982541":{"lat":47.6976792,"lon":14.0662648,"ts":"2011-08-30T12:10:32Z","tz":1,"tags":{"climbing":"route_bottom"}},"1417982550":{"lat":47.6987682,"lon":14.0666526,"ts":"2011-08-30T12:10:32Z","tz":1,"tags":{"climbing":"route_bottom"}},"1905908442":{"lat":47.714064,"lon":14.076147,"ts":"2012-09-08T18:41:36Z","tz":1,"tags":{"climbing":"route_bottom"}},"1905908489":{"lat":47.715391,"lon":14.074073,"ts":"2018-06-20T10:38:45Z","tz":1,"tags":{"climbing":"route_top"}},"6497543566":{"lat":47.6646664,"lon":14.3407301,"ts":"2019-05-24T11:30:21Z","tz":1,"tags":{"addr:city":"Spital am Pyhrn","addr:country":"AT","addr:housenumber":"7","addr:postcode":"4582","addr:street":"Stiftsplatz","club":"sport","contact:phone":"+43 7563 621","name":"Naturfreunde Österreich","sport":"climbing"}},"12273133855":{"lat":47.6989087,"lon":14.0658733,"ts":"2024-10-21T10:29:47Z","tz":1,"tags":{"climbing":"route_bottom","name":"Alternative Spaß","sport":"climbing"}},"12281379693":{"lat":47.6944725,"lon":14.0640683,"ts":"2024-10-23T08:52:37Z","tz":1,"tags":{"climbing":"crag","name":"Ostwand","sport":"climbing"}},"12281379694":{"lat":47.6973487,"lon":14.0648521,"ts":"2024-10-23T08:52:37Z","tz":1,"tags":{"climbing":"crag","name":"Hochkareck","sport":"climbing"}},"12281385668":{"lat":47.7172282,"lon":14.0642372,"ts":"2024-10-23T08:56:01Z","tz":1,"tags":{"climbing":"crag","name":"Ostwand","sport":"climbing"}}}