{"977755842":{"lat":34.6486146,"lon":135.5093033,"ts":"2021-09-02T10:11:48Z","tz":9,"tags":{"building":"retail","fee":"yes","indoor":"yes","leisure":"sports_centre","name":"PANZA(noborun!)","sport":"climbing"}},"978693035":{"lat":34.6487579,"lon":135.5090755,"ts":"2021-09-02T10:11:48Z","tz":9,"tags":{"fee":"yes","indoor":"no","leisure":"sports_centre","name":"PANZA(sorarun!)","sport":"climbing"}},"1996826202":{"lat":34.7042702,"lon":135.4287577,"ts":"2012-11-04T11:04:59Z","tz":9,"tags":{"name":"pump","sport":"climbing","url":"http://www.pump-climbing.com/gym/osaka/index.html"}},"3698318926":{"lat":34.6809684,"lon":135.5312313,"ts":"2017-06-16T13:36:00Z","tz":9,"tags":{"leisure":"pitch","name":"Climbing Bum","sport":"climbing"}},"4035985267":{"lat":34.6967875,"lon":135.4844767,"ts":"2016-03-02T07:02:22Z","tz":9,"tags":{"name":"Rockmate Bouldering Gym","sport":"climbing"}},"5226429664":{"lat":34.6990332,"lon":135.4975327,"ts":"2019-04-20T08:38:02Z","tz":9,"tags":{"level":"0","name":"Mt.石井スポーツ","shop":"sports","sport":"climbing"}},"5647703849":{"lat":34.7037984,"lon":135.4948525,"ts":"2018-09-19T12:03:39Z","tz":9,"tags":{"level":"4","name":"Mont-bell","shop":"sports","sport":"climbing"}},"5915951815":{"lat":34.7041753,"lon":135.4947366,"ts":"2021-06-29T17:53:20Z","tz":9,"tags":{"brand":"Columbia","brand:wikidata":"Q1112588","brand:wikipedia":"en:Columbia Sportswear","clothes":"sports","level":"4","name":"Columbia","official_name":"Columbia Sportswear","shop":"clothes","sport":"climbing","wheelchair":"yes"}},"5965739275":{"lat":34.7525549,"lon":135.6879933,"ts":"2018-10-08T07:43:41Z","tz":9,"tags":{"leisure":"sports_centre","sport":"climbing"}},"9504263656":{"lat":34.7426274,"lon":135.3529964,"ts":"2023-07-17T12:49:57Z","tz":9,"tags":{"leisure":"sports_centre","name":"にしきたクライミングウォール","sport":"climbing"}},"9810393209":{"lat":34.7832211,"lon":135.5383985,"ts":"2024-08-18T11:28:48Z","tz":9,"tags":{"check_date":"2024-05-30","leisure":"sports_hall","level":"0","name":"travis","sport":"climbing"}},"11700123282":{"lat":34.7078878,"lon":135.5202383,"ts":"2024-03-11T14:32:44Z","tz":9,"tags":{"leisure":"sports_centre","name":"CLARICA","sport":"climbing"}},"12249474101":{"lat":34.7296227,"lon":135.4281837,"ts":"2024-10-14T03:38:51Z","tz":9,"tags":{"contact:instagram":"https://www.instagram.com/bouldering_gym_style/","contact:website":"https://boulderingstyle.com/","fee":"yes","leisure":"sports_centre","name":"style","sport":"climbing"}}}