{"399496134":{"lat":38.6607254,"lon":23.969637,"ts":"2024-12-23T11:15:26Z","tz":2,"tags":{"climbing":"crag","climbing:bolted":"yes","climbing:grade:french:max":"7c+","climbing:grade:french:min":"5c","climbing:length:max":"33","climbing:length:min":"10","climbing:orientation":"NW","climbing:rock":"limestone","climbing:sport":"16","ele":"500","fee":"no","indoor":"no","int_name":"Katavolo","name":"Κατάβολο","natural":"cliff","source":"http://www.climbinkymi.gr/","sport":"climbing","url":"https://climbinkymi.wordpress.com/kymi-and-climbing/katavolo-crag/"}},"400016118":{"lat":38.5487803,"lon":24.0344388,"ts":"2022-09-20T07:23:32Z","tz":2,"tags":{"alt_name":"Μπουγάζι","alt_name:en":"Mpougazi","climbing:bolted":"yes","climbing:grade:french:max":"7b","climbing:grade:french:min":"6a","climbing:length:max":"35","climbing:length:min":"18","climbing:orientation":"SE","climbing:rock":"limestone","climbing:sport":"16","ele":"185","fee":"no","height":"22","indoor":"no","name":"Μπουγάζι","name:de":"Μπουγάζι / Bougazi","name:el":"Μπουγάζι","name:en":"Μπουγάζι / Bougazi","natural":"cliff","source":"http://www.climbinkymi.gr/","sport":"climbing","url":"https://climbinkymi.wordpress.com/kymi-and-climbing/vrysi-area/vrysi-crag/"}},"426107010":{"lat":38.6688566,"lon":23.9257045,"ts":"2018-11-13T22:38:02Z","tz":2,"tags":{"climbing:boulder":"yes","natural":"bare_rock","sport":"climbing"}},"501465940":{"lat":38.5946861,"lon":24.0486566,"ts":"2020-09-11T22:41:11Z","tz":2,"tags":{"alt_name":"Ταξιάρχες","alt_name:de":"TAXIARCHES","alt_name:el":"Ταξιάρχες","climbing:bolted":"yes","climbing:grade:uiaa:max":"IV+","climbing:grade:uiaa:min":"II-","climbing:length:max":"10","climbing:orientation":"N;NE","climbing:rock":"limestone","climbing:sport":"9","ele":"470","fee":"no","indoor":"no","name":"Δημοτικό","name:de":"Grundschule","name:el":"Δημοτικό","natural":"cliff","sport":"climbing","url":"https://climbinkymi.wordpress.com/kymi-and-climbing/taxiarches-area/grundschule-crag/"}},"682673732":{"lat":38.549498,"lon":24.0337449,"ts":"2019-04-09T12:32:50Z","tz":2,"tags":{"access":"yes","climbing":"crag","climbing:bolted":"yes","climbing:grade:french:max":"8a","climbing:grade:french:min":"6a+","climbing:length:max":"40","climbing:orientation":"s","climbing:rock":"limestone","climbing:sport":"21","ele":"235","fee":"no","int_name":"Dragonera","name":"Δραγονέρα","natural":"cliff","sport":"climbing","url":"https://climbinkymi.wordpress.com/kymi-and-climbing/vrysi-area/bougazi-dragonera-crag/"}},"4035518304":{"lat":38.548558,"lon":24.0308563,"ts":"2025-02-21T00:59:07Z","tz":2,"tags":{"climbing:rock":"limestone","climbing:trad":"1","fee":"no","indoor":"no","name":"Ο Χορός της Λήδας","name:el":"Ο Χορός της Λήδας","name:en":"O Choros Tis Lidas","name:ru":"О хорос тис лидас","source":"http://www.climbinkymi.gr/","sport":"climbing","url":"http://www.climbinkymi.gr"}},"4922702264":{"lat":38.6492314,"lon":24.0225399,"ts":"2017-06-18T19:27:18Z","tz":2,"tags":{"alt_name":"Βίταλα","alt_name:el":"Βίταλα","alt_name:en":"Vitala","climbing:bolted":"yes","climbing:grade:french:min":"5c","climbing:length:max":"19","climbing:orientation":"S;SE","climbing:rock":"limestone","climbing:sport":"8","ele":"530","name":"Σπηλιά Κάμπου","name:el":"Σπηλιά Κάμπου","name:en":"Spilia Kampou","natural":"cliff","sport":"climbing","url":"https://climbinkymi.wordpress.com/kymi-and-climbing/vitala-area/spilia-kampou-crag/"}}}