{"14045253":{"lat":43.1076111,"lon":-71.1512089,"ts":"2023-10-31T05:23:10Z","tz":-5,"tags":{"climbing":"crag","climbing:rock":"granite","name":"Blair Woods Climbing","site":"sport","sport":"climbing","type":"site"}},"14651172":{"lat":43.1198613,"lon":-71.1818055,"ts":"2023-05-31T18:39:39Z","tz":-5,"tags":{"climbing":"area","name":"Pawtuckaway Climbing","sport":"climbing","type":"site","wikidata":"Q118918188"}},"14651186":{"lat":43.1224897,"lon":-71.1870088,"ts":"2022-10-04T00:08:12Z","tz":-5,"tags":{"climbing":"crag","name":"Devil's Den Climbing","sport":"climbing","type":"site"}},"14651187":{"lat":43.1192861,"lon":-71.1848011,"ts":"2022-10-03T17:38:54Z","tz":-5,"tags":{"climbing":"crag","name":"Boulder Natural","sport":"climbing","type":"site"}},"1052234959":{"lat":43.1179079,"lon":-71.1790192,"ts":"2023-05-31T21:28:47Z","tz":-5,"tags":{"climbing":"crag","climbing:boulder":"no","climbing:length":"15m","climbing:rock":"granite","climbing:sport":"no","climbing:toprope":"yes","climbing:trad":"yes","climbing:url:mountainproject":"https://www.mountainproject.com/v/105944303","climbing:url:openbeta":"https://openbeta.io/crag/f335a18a-9835-5d4c-a57f-830122af9476","climbing:url:thecrag":"https://www.thecrag.com/12683779","height":"15","name":"Lower Slabs","natural":"cliff","sport":"climbing"}},"1052234960":{"lat":43.1182825,"lon":-71.1780883,"ts":"2024-10-13T21:51:13Z","tz":-5,"tags":{"climbing":"crag","climbing:rock":"granite","climbing:sport":"no","climbing:toprope":"yes","climbing:trad":"yes","climbing:url:mountainproject":"https://www.mountainproject.com/v/105929416","climbing:url:openbeta":"https://openbeta.io/crag/cb1db843-3572-58d9-9a0a-c9e7b15644ec","climbing:url:thecrag":"https://www.thecrag.com/12683803","name":"Upper Cliff","natural":"cliff","sport":"climbing"}},"1100732751":{"lat":43.1226876,"lon":-71.1873236,"ts":"2023-05-31T21:28:47Z","tz":-5,"tags":{"climbing":"crag","climbing:rock":"granite","climbing:sport":"yes","climbing:trad":"yes","climbing:url:mountainproject":"https://www.mountainproject.com/v/105944312","climbing:url:openbeta":"https://openbeta.io/crag/892b59fd-c472-570d-a02d-81274371fa84","climbing:url:thecrag":"https://www.thecrag.com/6653745828","name":"Devil's Den Cliff","natural":"cliff","sport":"climbing"}},"1174616388":{"lat":43.1218947,"lon":-71.1855627,"ts":"2023-05-20T19:43:27Z","tz":-5,"tags":{"climbing":"crag","climbing:trad":"yes","name":"Ridgeline Climbing","natural":"cliff","sport":"climbing"}},"7425922532":{"lat":43.180598,"lon":-71.1678001,"ts":"2020-04-20T13:41:42Z","tz":-5,"tags":{"leisure":"sports_centre","name":"Kir Tipus","sport":"climbing"}},"9291726287":{"lat":43.1075317,"lon":-71.1523259,"ts":"2022-04-24T11:27:59Z","tz":-5,"tags":{"climbing":"boulder","climbing:boulder":"yes","climbing:rock":"granite","climbing:sport":"no","climbing:toprope":"no","climbing:trad":"no","name":"Crack Boulder","natural":"stone","sport":"climbing"}},"9291726288":{"lat":43.1068736,"lon":-71.1532251,"ts":"2022-04-16T12:19:46Z","tz":-5,"tags":{"climbing":"boulder","climbing:boulder":"yes","climbing:rock":"granite","climbing:sport":"no","climbing:toprope":"no","climbing:trad":"no","name":"Pinnacle Boulder","natural":"stone","sport":"climbing"}},"9291726289":{"lat":43.106653,"lon":-71.153235,"ts":"2022-04-24T11:27:59Z","tz":-5,"tags":{"climbing":"boulder","climbing:boulder":"yes","climbing:rock":"granite","climbing:sport":"no","climbing:toprope":"no","climbing:trad":"no","name":"Warmup Boulder","natural":"stone","sport":"climbing"}},"9291726290":{"lat":43.1068732,"lon":-71.1535537,"ts":"2022-04-24T11:27:59Z","tz":-5,"tags":{"climbing":"boulder","climbing:boulder":"yes","climbing:rock":"granite","climbing:sport":"no","climbing:toprope":"no","climbing:trad":"no","name":"Forgotten Boulder","natural":"stone","sport":"climbing"}},"10073443679":{"lat":43.1091678,"lon":-71.153643,"ts":"2022-10-03T17:32:48Z","tz":-5,"tags":{"climbing":"boulder","climbing:boulder":"yes","climbing:rock":"granite","climbing:sport":"no","climbing:trad":"no","name":"Hill Top Boulder","natural":"stone","sport":"climbing"}},"10073443680":{"lat":43.1084564,"lon":-71.1529997,"ts":"2022-10-03T17:32:48Z","tz":-5,"tags":{"climbing":"boulder","climbing:rock":"granite","climbing:sport":"no","climbing:trad":"no","name":"Swirley Boulder","natural":"stone","sport":"climbing"}},"10073443681":{"lat":43.1088911,"lon":-71.148864,"ts":"2022-10-03T17:32:48Z","tz":-5,"tags":{"climbing":"boulder","name":"Welcome Boulders","natural":"stone","sport":"climbing"}},"10073443682":{"lat":43.107696,"lon":-71.1508764,"ts":"2022-10-03T17:32:48Z","tz":-5,"tags":{"climbing":"boulder","natural":"stone","sport":"climbing"}},"10073443683":{"lat":43.106331,"lon":-71.1517287,"ts":"2022-10-03T17:32:48Z","tz":-5,"tags":{"climbing":"boulder","natural":"stone","sport":"climbing"}},"10073471620":{"lat":43.1217735,"lon":-71.1864375,"ts":"2023-05-31T21:28:47Z","tz":-5,"tags":{"climbing":"boulder","climbing:sport":"no","climbing:trad":"no","climbing:url:mountainproject":"https://www.mountainproject.com/v/121960589","climbing:url:openbeta":"https://openbeta.io/crag/a2dc92df-b6e8-55b8-b0fb-ac1aa09a569c","climbing:url:thecrag":"https://www.thecrag.com/6645035499","name":"Premier Boulder","natural":"stone","sport":"climbing"}},"10074053536":{"lat":43.1230917,"lon":-71.1872197,"ts":"2022-10-04T00:08:12Z","tz":-5,"tags":{"climbing":"boulder","name":"Up in Smoke Boulder","natural":"stone","sport":"climbing"}},"10729867098":{"lat":43.1186029,"lon":-71.1802261,"ts":"2023-03-12T13:36:06Z","tz":-5,"tags":{"climbing":"boulder","name":"Overlooked","natural":"rock","sport":"climbing"}}}