{"6718383584":{"lat":43.8108287,"lon":-91.2056038,"ts":"2019-08-17T13:32:17Z","tz":-6,"tags":{"climbing":"crag","name":"Adidas Wall","sport":"climbing"}},"6718390385":{"lat":43.8112081,"lon":-91.2056467,"ts":"2019-08-17T13:32:17Z","tz":-6,"tags":{"climbing":"crag","name":"Bling Bling Wall","sport":"climbing"}},"6718390386":{"lat":43.8115216,"lon":-91.2058452,"ts":"2019-08-17T13:32:17Z","tz":-6,"tags":{"climbing":"crag","name":"Psychobitch Wall","sport":"climbing"}},"6718390387":{"lat":43.8116685,"lon":-91.2060367,"ts":"2020-10-29T23:32:38Z","tz":-6,"tags":{"climbing":"crag","name":"Donkey Punch Wall","sport":"climbing"}},"6718390388":{"lat":43.8125749,"lon":-91.2093445,"ts":"2020-11-02T12:50:06Z","tz":-6,"tags":{"climbing":"crag","name":"Meader Wall","sport":"climbing"}},"6718390389":{"lat":43.810847,"lon":-91.2116378,"ts":"2019-11-20T21:48:26Z","tz":-6,"tags":{"climbing":"crag","name":"The Point","sport":"climbing"}},"6718390390":{"lat":43.8108199,"lon":-91.1988211,"ts":"2019-11-17T12:21:40Z","tz":-6,"tags":{"climbing":"crag","height":"13 meters","name":"Witch's Cauldren","sport":"climbing"}}}