{"237305862":{"lat":47.7377524,"lon":8.1614964,"ts":"2024-11-27T19:40:31Z","tz":1,"tags":{"building":"yes","building:colour":"grey","charge":"1.00 EUR","ele":"1010","fee":"yes","height":"51.3","image":"File:Rothaus-Z채pfle-Turm.JPG","man_made":"tower","name":"Rothaus-Z채pfle-Turm","panoramax":"64102d4e-e718-4564-8701-7970bb74b1a5","roof:levels":"0","roof:shape":"flat","sport":"climbing","tourism":"viewpoint","tower:type":"observation","website":"https://www.schwarzwald.com/bilder-galerie/aussichtspunkte/zaepfle-turm.html","wikidata":"Q2168590","wikipedia":"de:Rothaus-Z채pfle-Turm"}},"1015944438":{"lat":47.6932307,"lon":8.2794856,"ts":"2024-12-14T18:25:54Z","tz":1,"tags":{"height":"50","image":"https://www.naturpark-suedschwarzwald.de/eip/media/freizeitangebote/freizeitangebote_37983_1.jpg","name":"Schwedenfelsen","natural":"cliff","sport":"climbing"}},"1237607181":{"lat":47.6941273,"lon":8.2792992,"ts":"2024-12-14T18:25:54Z","tz":1,"tags":{"height":"50","material":"granite","name":"Schwedenfelsen","number_of_routes":"41","restrictions":"Neutourenverbot, Magnesiaverbot und keine Klettekurse.","sport":"climbing"}},"1237607341":{"lat":47.6706226,"lon":8.2535069,"ts":"2021-07-23T09:29:51Z","tz":1,"tags":{"height":"20","material":"gneiss","name":"Hagenbuchfels","number_of_routes":"18","restrictions":"Keine Kletterkurse.","sport":"climbing","type":"single rock"}},"1237607457":{"lat":47.6871875,"lon":8.2638493,"ts":"2021-08-29T13:19:06Z","tz":1,"tags":{"height":"35","material":"porphyry","name":"Falkenstein","natural":"rock","number_of_routes":"44","restrictions":"Befristete Sperre, keine Kletterkurse. Kletterverbot am Ostgipfel, ab Falllinie rechts des Eisenkreuzes!","sport":"climbing","type":"single rock"}},"5663174377":{"lat":47.5946791,"lon":8.1248395,"ts":"2018-06-04T09:19:39Z","tz":1,"tags":{"name":"Albbruck Erikafels","sport":"climbing"}},"5663174378":{"lat":47.5955245,"lon":8.125207,"ts":"2023-04-09T09:51:10Z","tz":1,"tags":{"name":"Wasserschlossfluh","sport":"climbing"}},"9989928835":{"lat":47.6876905,"lon":8.2676494,"ts":"2022-12-24T15:05:20Z","tz":1,"tags":{"climbing":"crag","name":"Tannholzwand","sport":"climbing"}},"11263954914":{"lat":47.6587091,"lon":8.1017229,"ts":"2023-10-15T08:45:03Z","tz":1,"tags":{"alt_name":"Unterer Rappenfels","climbing":"crag","climbing:bolted":"yes","climbing:grade:uiaa:max":"9-","climbing:grade:uiaa:min":"6","climbing:length:max":"12","climbing:length:min":"8","climbing:rock":"granite","climbing:sport":"yes","name":"Br체ckenfels","natural":"cliff","source":"gps;survey","sport":"climbing"}},"11266728684":{"lat":47.5365016,"lon":8.2270975,"ts":"2023-10-16T12:11:41Z","tz":1,"tags":{"access":"private","leisure":"sports_centre","sport":"climbing"}}}