{"18442309":{"lat":44.1906647,"lon":8.349578,"ts":"2024-12-19T19:22:02Z","tz":1,"tags":{"climbing":"crag","climbing:sport":"yes","name":"La Cremà - Settore Alto","sport":"climbing","type":"site"}},"18442310":{"lat":44.1913346,"lon":8.3509911,"ts":"2024-12-19T19:22:02Z","tz":1,"tags":{"climbing":"crag","climbing:sport":"yes","name":"La Cremà - Settore Basso","sport":"climbing","type":"site"}},"18442311":{"lat":44.191602,"lon":8.3510036,"ts":"2024-12-19T19:22:02Z","tz":1,"tags":{"climbing":"crag","climbing:sport":"yes","name":"La Cremà - Settore Nuvola","sport":"climbing","type":"site"}},"18442400":{"lat":44.1646606,"lon":8.3240627,"ts":"2025-01-15T10:27:27Z","tz":1,"tags":{"climbing":"crag","climbing:grade:french:max":"7b","climbing:grade:french:min":"4c","name":"Caprazoppa Il Cimitero","site":"crag","sport":"climbing","type":"site","website":"http://www.outdoorfinaleligure.com/caprazoppa-e-orera/il-cimitero/"}},"18442401":{"lat":44.1618943,"lon":8.3250319,"ts":"2024-12-21T16:12:05Z","tz":1,"tags":{"climbing":"crag","climbing:bolted":"yes","climbing:grade:french:max":"6a+","climbing:grade:french:min":"3b","climbing:length:max":"10","climbing:multipitch":"no","climbing:orientation":"S;SW;W","climbing:quality":"solid","climbing:routes":"10","climbing:sport":"yes","climbing:toprope":"yes","fee":"no","indoor":"no","name":"Cava di Rio Fine","sport":"climbing","type":"site","url":"https://www.thecrag.com/en/climbing/italy/finale-ligure/caprazoppa/area/1441686498"}},"18442402":{"lat":44.1632199,"lon":8.3186067,"ts":"2024-12-29T21:18:17Z","tz":1,"tags":{"climbing":"crag","climbing:grade:french:max":"6b","climbing:grade:french:mean":"5a","climbing:grade:french:min":"4a","climbing:length:max":"20","climbing:length:min":"10","climbing:orientation":"SSE","climbing:rock":"limestone","climbing:routes":"23","climbing:sport":"yes","climbing:url:thecrag":"https://www.thecrag.com/2493346419","ele":"230","height":"16","name":"Falesia delle Cento Corde","sport":"climbing","type":"site","wikimedia_commons":"File:Falesia delle Cento Corde.jpg","wikimedia_commons:2":"File:Falesia delle Cento Corde 2.jpg"}},"18442403":{"lat":44.1644907,"lon":8.3254346,"ts":"2025-01-15T10:24:18Z","tz":1,"tags":{"climbing":"crag","climbing:grade:french:max":"6b+","climbing:grade:french:min":"5c","name":"Caprazoppa Parsifal","site":"climbing","sport":"climbing","type":"site","website":"http://www.outdoorfinaleligure.com/caprazoppa-e-orera/parsifal/"}},"18442404":{"lat":44.1651115,"lon":8.3248177,"ts":"2024-12-19T19:38:19Z","tz":1,"tags":{"climbing":"crag","climbing:grade:french:max":"6c","climbing:grade:french:min":"5a","climbing:sport":"yes","name":"Caprazoppa L'Orizzonte","sport":"climbing","type":"site","website":"http://www.outdoorfinaleligure.com/caprazoppa-e-orera/lorizzone/"}},"18446575":{"lat":44.193258,"lon":8.3544714,"ts":"2024-12-29T21:01:25Z","tz":1,"tags":{"climbing":"crag","climbing:sport":"yes","name":"Bric Reseghe","note":"(climbing only Aug-Dec)","sport":"climbing","type":"site"}},"18446611":{"lat":44.1966927,"lon":8.3614479,"ts":"2025-01-01T20:55:14Z","tz":1,"tags":{"climbing":"crag","climbing:sport":"yes","name":"Rocca di Corno, Zona rossa","sport":"climbing","type":"site"}},"18446612":{"lat":44.1955503,"lon":8.3624557,"ts":"2025-01-01T20:46:14Z","tz":1,"tags":{"climbing":"crag","climbing:sport":"yes","name":"Rocca di Corno, Settore Sud","sport":"climbing","type":"site"}},"18447694":{"lat":44.2119051,"lon":8.3598708,"ts":"2024-12-21T12:14:48Z","tz":1,"tags":{"climbing":"crag","climbing:grade:french:max":"8c","climbing:grade:french:min":"5a","climbing:multipitch":"yes","climbing:orientation":"NW","climbing:routes":"50","climbing:sport":"yes","name":"Rocca degli Uccelli","sport":"climbing","type":"site","url":"https://www.thecrag.com/de/klettern/italy/finale-ligure/rocca-degli-uccelli","website":"https://www.finaleoutdoor.com/"}},"18447761":{"lat":44.1724705,"lon":8.319628,"ts":"2024-12-21T12:43:35Z","tz":1,"tags":{"climbing":"crag","climbing:bolted":"yes","climbing:multipitch":"yes","climbing:sport":"yes","name":"Rocce dell'Orera - settore sinistro","sport":"climbing","type":"site","url":"https://www.thecrag.com/en/climbing/italy/finale-ligure/rocca-dellorera"}},"18447762":{"lat":44.1728775,"lon":8.3179731,"ts":"2024-12-21T12:43:35Z","tz":1,"tags":{"climbing":"crag","climbing:bolted":"yes","climbing:multipitch":"yes","climbing:sport":"yes","name":"Rocce dell'Orera - settore destro","sport":"climbing","type":"site","url":"https://www.thecrag.com/en/climbing/italy/finale-ligure/rocca-dellorera"}},"18447764":{"lat":44.1772018,"lon":8.3236233,"ts":"2024-12-21T12:46:31Z","tz":1,"tags":{"climbing":"crag","name":"Paretina di Finalborgo","sport":"climbing","type":"site"}},"18447917":{"lat":44.191867,"lon":8.3106617,"ts":"2025-01-05T11:55:09Z","tz":1,"tags":{"climbing":"crag","name":"Parete delle Gemme","sport":"climbing","type":"site","wikimedia_commons":"File:Parete-delle-gemme.jpg"}},"18447920":{"lat":44.1887667,"lon":8.312623,"ts":"2024-12-21T13:04:03Z","tz":1,"tags":{"climbing":"crag","name":"Placca dell'Oasi","sport":"climbing","type":"site"}},"18447929":{"lat":44.1900701,"lon":8.3141687,"ts":"2024-12-21T13:10:10Z","tz":1,"tags":{"climbing":"crag","name":"Placca Piotti","sport":"climbing","type":"site"}},"18448784":{"lat":44.1914342,"lon":8.3230907,"ts":"2024-12-21T18:04:01Z","tz":1,"tags":{"climbing":"crag","name":"Terzo Livello","sport":"climbing","type":"site"}},"18448785":{"lat":44.1937968,"lon":8.3234031,"ts":"2024-12-21T18:04:01Z","tz":1,"tags":{"climbing":"crag","name":"Zambaland","sport":"climbing","type":"site"}},"18448786":{"lat":44.1957321,"lon":8.3207002,"ts":"2024-12-21T18:04:01Z","tz":1,"tags":{"climbing":"crag","name":"Bric Scimarco, Settore Antri Rossi","sport":"climbing","type":"site"}},"18448787":{"lat":44.1969063,"lon":8.3209587,"ts":"2024-12-21T18:04:01Z","tz":1,"tags":{"climbing":"crag","name":"Bric Scimarco - Settore Superiore","sport":"climbing","type":"site"}},"18448788":{"lat":44.1998686,"lon":8.3144205,"ts":"2024-12-21T18:04:01Z","tz":1,"tags":{"climbing":"crag","name":"Pilastrino Mirovino","sport":"climbing","type":"site"}},"18448789":{"lat":44.1974154,"lon":8.3183795,"ts":"2024-12-21T18:04:01Z","tz":1,"tags":{"climbing":"area","name":"Rocca Carpanea","type":"site"}},"18453655":{"lat":44.2060949,"lon":8.3205785,"ts":"2024-12-22T18:40:21Z","tz":1,"tags":{"climbing":"crag","name":"Bric del Frate - Settore Sinistro","sport":"climbing","type":"site"}},"18453656":{"lat":44.2029235,"lon":8.3236414,"ts":"2024-12-22T18:40:21Z","tz":1,"tags":{"climbing":"area","name":"Valle Aquila","type":"site"}},"18453657":{"lat":44.2066885,"lon":8.3187247,"ts":"2024-12-22T18:40:21Z","tz":1,"tags":{"climbing":"crag","name":"Bric del Frate - Settore Centrale","sport":"climbing","type":"site"}},"18490485":{"lat":44.2072529,"lon":8.3743185,"ts":"2025-01-01T20:24:55Z","tz":1,"tags":{"climbing":"crag","climbing:rock":"limestone","climbing:sport":"yes","name":"Falesia della Gazella","sport":"climbing","type":"site"}},"18490523":{"lat":44.195717,"lon":8.3629361,"ts":"2025-01-01T20:46:14Z","tz":1,"tags":{"climbing":"crag","name":"Rocca di Corno, Settore Sudest","sport":"climbing","type":"site"}},"18490538":{"lat":44.1967647,"lon":8.3612223,"ts":"2025-01-01T20:55:14Z","tz":1,"tags":{"climbing":"crag","name":"Rocca di Corno, Settore Ovest","sport":"climbing","type":"site"}},"18504916":{"lat":44.2145782,"lon":8.344064,"ts":"2025-01-05T11:08:02Z","tz":1,"tags":{"access":"yes","climbing":"crag","climbing:grade:french:max":"7a","climbing:grade:french:mean":"6a+","climbing:grade:french:min":"3c","climbing:length":"15","climbing:length:max":"30","climbing:length:min":"8","climbing:multipitch":"yes","climbing:quality":"solid","climbing:rock":"limestone","climbing:routes":"80","climbing:sport":"yes","climbing:url:thecrag":"https://www.thecrag.com/2496236559","ele":"330","fee":"no","name":"Cordon Bleu","sport":"climbing","type":"site"}},"18504917":{"lat":44.2128254,"lon":8.3445749,"ts":"2025-01-05T11:08:02Z","tz":1,"tags":{"climbing":"crag","name":"Avancorpo Placconata centrale di Rian Cornei","sport":"climbing","type":"site"}},"18504918":{"lat":44.2138432,"lon":8.3444231,"ts":"2025-01-05T11:08:02Z","tz":1,"tags":{"climbing":"crag","climbing:grade:french:max":"7a","climbing:grade:french:min":"4c","climbing:length:max":"14","climbing:length:min":"9","climbing:rock":"limestone","climbing:sport":"yes","climbing:url:thecrag":"https://www.thecrag.com/en/climbing/italy/finale-ligure/rian-cornei/area/2496160839","ele":"350","name":"Antro delle Streghe","natural":"cliff","source":"survey","sport":"climbing","type":"site"}},"59429112":{"lat":44.1355384,"lon":8.2017975,"ts":"2015-06-16T12:59:31Z","tz":1,"tags":{"name":"settore Parco Giochi basso","sport":"climbing"}},"59429114":{"lat":44.1352748,"lon":8.2020027,"ts":"2015-06-16T12:59:31Z","tz":1,"tags":{"name":"settore Parco Giochi alto","sport":"climbing"}},"59429115":{"lat":44.1402892,"lon":8.2024199,"ts":"2015-12-21T10:57:52Z","tz":1,"tags":{"climbing:bolted":"yes","climbing:sport":"yes","name":"settore Gumbi","sport":"climbing"}},"219332315":{"lat":44.2055498,"lon":8.3216231,"ts":"2024-12-22T18:40:21Z","tz":1,"tags":{"climbing":"crag","name":"La Caffettiera","natural":"cliff","sport":"climbing"}},"219400085":{"lat":44.2040148,"lon":8.3245087,"ts":"2024-12-22T18:40:21Z","tz":1,"tags":{"climbing":"crag","name":"Sakrestia","natural":"cliff","sport":"climbing"}},"219400086":{"lat":44.2050333,"lon":8.3226881,"ts":"2024-12-22T18:40:21Z","tz":1,"tags":{"climbing":"crag","name":"Parete dell'Aquila","natural":"cliff","sport":"climbing"}},"287550008":{"lat":44.2116247,"lon":8.3441353,"ts":"2014-09-07T20:52:51Z","tz":1,"tags":{"name":"Rian Cornei Settore E - Falesia dell'Eco","natural":"cliff","sport":"climbing"}},"292474000":{"lat":44.1344835,"lon":8.2034769,"ts":"2015-06-16T12:59:30Z","tz":1,"tags":{"climbing:bolted":"2m","climbing:length":"20","climbing:orientation":"SW","climbing:quality":"solid","climbing:sport":"yes","ele":"270","name":"Settore Santa Lucia","sport":"climbing"}},"295343038":{"lat":44.1344652,"lon":8.2038965,"ts":"2015-06-16T12:59:29Z","tz":1,"tags":{"name":"Red Rock","sport":"climbing"}},"325816674":{"lat":44.2035403,"lon":8.1849159,"ts":"2021-07-16T14:02:33Z","tz":1,"tags":{"climbing:multipitch":"yes","climbing:rock":"quartzite","climbing:sport":"yes","name":"Via Ferrata degli Artisti","natural":"bare_rock","sport":"climbing","website":"http://www.comune.magliolo.sv.it/index.php?option=com_content&view=article&id=29&Itemid=23"}},"342606805":{"lat":44.0886058,"lon":8.1214287,"ts":"2020-11-21T17:12:47Z","tz":1,"tags":{"access":"yes","climbing":"crag","climbing:sport":"yes","fee":"no","name":"Emisfero","natural":"cliff","outdoor":"yes","sport":"climbing","url":"https://www.thecrag.com/climbing/italy/albenga/area/448320231"}},"437548075":{"lat":44.2063323,"lon":8.3288934,"ts":"2024-12-22T18:40:21Z","tz":1,"tags":{"climbing":"crag","name":"Falesia del Gorilla","natural":"bare_rock","sport":"climbing"}},"460568921":{"lat":44.1057663,"lon":8.0862083,"ts":"2020-11-21T17:12:47Z","tz":1,"tags":{"access":"yes","climbing":"crag","climbing:bolted":"yes","climbing:orientation":"S","climbing:rock":"limestone","climbing:sport":"yes","fee":"no","name":"Terminal","natural":"cliff","outdoor":"yes","sport":"climbing","url":"https://www.thecrag.com/en/climbing/italy/albenga/area/396575046"}},"461137233":{"lat":44.193265,"lon":8.3544714,"ts":"2025-01-02T13:11:31Z","tz":1,"tags":{"name":"Bric Reseghe","natural":"cliff","sport":"climbing"}},"482028186":{"lat":44.2012342,"lon":8.3279027,"ts":"2024-12-22T18:40:21Z","tz":1,"tags":{"climbing":"crag","name":"Il Sasso","natural":"cliff","sport":"climbing"}},"674051515":{"lat":44.1970849,"lon":8.3630467,"ts":"2020-09-17T21:19:36Z","tz":1,"tags":{"leisure":"sports_centre","name":"Rocca di Corno, Settore del Ghiro Est","sport":"climbing"}},"674079012":{"lat":44.1961696,"lon":8.3212506,"ts":"2024-12-21T18:04:01Z","tz":1,"tags":{"climbing":"crag","name":"Bric Scimarco - Settore Superiore","sport":"climbing"}},"674079019":{"lat":44.1983153,"lon":8.3223069,"ts":"2018-04-10T09:59:33Z","tz":1,"tags":{"name":"Tre Frati","sport":"climbing"}},"867687826":{"lat":44.1959132,"lon":8.3198326,"ts":"2020-11-06T10:59:26Z","tz":1,"tags":{"climbing:multipitch":"yes","climbing:sport":"yes","name":"Parete Dimenticata","natural":"cliff","sport":"climbing"}},"875534867":{"lat":44.1174189,"lon":8.0873782,"ts":"2020-11-21T17:12:47Z","tz":1,"tags":{"access":"yes","climbing":"crag","climbing:bolted":"yes","climbing:orientation":"SW","climbing:rock":"limestone","climbing:sport":"yes","name":"Mystral","natural":"cliff","outdoor":"yes","sport":"climbing","url":"https://www.thecrag.com/climbing/italy/albenga/area/3039431823"}},"875534868":{"lat":44.1176257,"lon":8.0906037,"ts":"2020-11-21T17:12:47Z","tz":1,"tags":{"access":"yes","climbing":"crag","climbing:bolted":"yes","climbing:orientation":"S","climbing:rock":"limestone","climbing:sport":"yes","name":"Inferno","natural":"cliff","outdoor":"yes","sport":"climbing","url":"https://www.thecrag.com/climbing/italy/albenga/area/3039432021"}},"875534869":{"lat":44.1174008,"lon":8.0899528,"ts":"2020-11-21T17:12:47Z","tz":1,"tags":{"access":"yes","climbing":"crag","climbing:bolted":"yes","climbing:orientation":"S","climbing:rock":"limestone","climbing:sport":"yes","name":"Papapuk","natural":"cliff","outdoor":"yes","sport":"climbing","url":"https://www.thecrag.com/climbing/italy/albenga/area/3039431955"}},"875534870":{"lat":44.1171843,"lon":8.0894579,"ts":"2020-11-21T17:12:47Z","tz":1,"tags":{"access":"yes","climbing":"crag","climbing:bolted":"yes","climbing:orientation":"S","climbing:rock":"limestone","climbing:sport":"yes","name":"Austria Team","natural":"cliff","outdoor":"yes","sport":"climbing","url":"https://www.thecrag.com/climbing/italy/albenga/area/3039431889"}},"875534873":{"lat":44.10186,"lon":8.1022573,"ts":"2022-11-02T19:06:53Z","tz":1,"tags":{"access":"yes","climbing":"crag","climbing:bolted":"yes","climbing:orientation":"SW","climbing:rock":"limestone","climbing:sport":"yes","fee":"no","name":"Ippodromo","natural":"cliff","outdoor":"yes","sport":"climbing","url":"https://www.thecrag.com/climbing/italy/albenga/area/3039400434"}},"875534874":{"lat":44.0963404,"lon":8.1086094,"ts":"2020-11-21T17:12:47Z","tz":1,"tags":{"access":"yes","climbing":"crag","climbing:sport":"yes","fee":"no","name":"Belvedere dei Nonni","natural":"cliff","outdoor":"yes","sport":"climbing","url":"https://www.thecrag.com/climbing/italy/albenga/area/3039427959"}},"875534875":{"lat":44.0950318,"lon":8.1094573,"ts":"2020-11-21T17:12:47Z","tz":1,"tags":{"access":"yes","climbing":"crag","climbing:sport":"yes","fee":"no","name":"Mondo Sommerso","natural":"cliff","outdoor":"yes","sport":"climbing","url":"https://www.thecrag.com/climbing/italy/albenga/area/3039428025"}},"875534876":{"lat":44.0898764,"lon":8.1155174,"ts":"2020-11-21T17:12:47Z","tz":1,"tags":{"access":"yes","climbing":"crag","climbing:sport":"yes","fee":"no","name":"Segreto","natural":"cliff","outdoor":"yes","sport":"climbing","url":"https://www.thecrag.com/climbing/italy/albenga/area/3039399888"}},"1052316469":{"lat":44.2014308,"lon":8.3227904,"ts":"2022-04-20T12:07:30Z","tz":1,"tags":{"climbing:sport":"yes","ele":"300","name":"Tibet","natural":"cliff","sport":"climbing","url":"https://www.thecrag.com/en/climbing/italy/finale-ligure/valle-aquila/area/1950858624"}},"1165037182":{"lat":44.1978735,"lon":8.3526063,"ts":"2023-04-24T09:34:22Z","tz":1,"tags":{"name":"Falesia Casa Del Vacchè","natural":"cliff","sport":"climbing"}},"1225703948":{"lat":44.1430875,"lon":8.2014953,"ts":"2024-12-23T11:11:24Z","tz":1,"tags":{"climbing":"crag","fee":"no","name":"Settore Orsi e Topi","natural":"cliff","sport":"climbing"}},"1265630599":{"lat":44.1366522,"lon":8.1924798,"ts":"2024-12-23T10:08:12Z","tz":1,"tags":{"climbing":"crag","climbing:grade:french:max":"7a","climbing:grade:french:min":"4","climbing:sport":"yes","description":"numerose vie con difficoltà dal 4 al 7a di lunghezza tra i 15 e 35m; anche un paio di multipitch","fee":"no","name":"La Cava - settore Placca dell'Artista","sport":"climbing"}},"1265630600":{"lat":44.1370493,"lon":8.1918171,"ts":"2024-12-23T10:08:12Z","tz":1,"tags":{"climbing":"crag","fee":"no","name":"La Cava - settore Litigometro","sport":"climbing"}},"1265630601":{"lat":44.1368808,"lon":8.1910491,"ts":"2024-03-23T19:48:51Z","tz":1,"tags":{"building":"no","description":"10 vie dal 5B al 7A","fee":"no","leisure":"sports_centre","name":"La Cava - settore Cristalleria","sport":"climbing"}},"1265630602":{"lat":44.1371441,"lon":8.1907571,"ts":"2024-03-23T19:48:51Z","tz":1,"tags":{"building":"no","description":"monotiri e multipitch","fee":"no","leisure":"sports_centre","name":"La Cava - settore Placca Rosa","sport":"climbing"}},"1345055941":{"lat":44.1442012,"lon":8.2015637,"ts":"2024-12-23T11:11:24Z","tz":1,"tags":{"climbing":"crag","climbing:sport":"yes","fee":"no","name":"Settore Cascata","natural":"cliff","sport":"climbing"}},"2048956986":{"lat":44.2057483,"lon":8.3171518,"ts":"2023-11-12T19:29:50Z","tz":1,"tags":{"climbing:bolted":"yes","climbing:grade:uiaa:max":"6c+","climbing:grade:uiaa:mean":"6a+","climbing:grade:uiaa:min":"3b","climbing:orientation":"W","description":"Circa 35 monitiri e un paio di multipitch con gradi dal 3b al 6c+","leisure":"sports_centre","name":"Paretina di Pian - Marino","sport":"climbing"}},"2060747714":{"lat":44.2075359,"lon":8.3454377,"ts":"2020-09-09T21:48:37Z","tz":1,"tags":{"leisure":"sports_centre","name":"Gola dei Briganti inferiore","sport":"climbing"}},"2060747715":{"lat":44.2076093,"lon":8.342169,"ts":"2020-09-09T21:48:37Z","tz":1,"tags":{"leisure":"sports_centre","name":"Falesia del Delfino","sport":"climbing"}},"2060747716":{"lat":44.2078325,"lon":8.3428117,"ts":"2020-09-09T21:48:37Z","tz":1,"tags":{"leisure":"sports_centre","name":"Falesia del Gufo","sport":"climbing"}},"2060747718":{"lat":44.2072867,"lon":8.3422584,"ts":"2020-09-09T21:48:37Z","tz":1,"tags":{"leisure":"sports_centre","name":"Falesia del Ragno","sport":"climbing"}},"2264584731":{"lat":44.2137546,"lon":8.3401693,"ts":"2017-03-22T13:27:08Z","tz":1,"tags":{"alt_name":"Pasticceria del Bosco","climbing:rock":"limestone","climbing:sport":"yes","ele":"377","name":"Gelateria del Bosco","sport":"climbing"}},"2264584735":{"lat":44.211009,"lon":8.3381597,"ts":"2020-09-09T21:48:37Z","tz":1,"tags":{"climbing:sport":"yes","leisure":"sports_centre","name":"Ciappo delle Conche - Sett superiore","sport":"climbing"}},"2285637179":{"lat":44.2015376,"lon":8.3291219,"ts":"2024-12-22T18:40:21Z","tz":1,"tags":{"climbing":"crag","name":"Placca Dei Maleducati","sport":"climbing"}},"2285637187":{"lat":44.2030858,"lon":8.3291454,"ts":"2024-12-22T18:40:21Z","tz":1,"tags":{"climbing":"crag","name":"Superpanza","sport":"climbing"}},"2347023970":{"lat":44.2135114,"lon":8.3510692,"ts":"2020-09-10T08:10:22Z","tz":1,"tags":{"leisure":"sports_centre","name":"Sasso Scorpion","sport":"climbing"}},"2347023984":{"lat":44.2142025,"lon":8.351447,"ts":"2023-10-31T11:52:43Z","tz":1,"tags":{"leisure":"sports_centre","name":"il Pilastro","sport":"climbing","wheelchair":"no"}},"2353685755":{"lat":44.1968674,"lon":8.3183586,"ts":"2024-12-21T18:04:01Z","tz":1,"tags":{"climbing":"crag","name":"Lo Specchio","sport":"climbing"}},"2354935643":{"lat":44.2144007,"lon":8.3331513,"ts":"2020-09-09T21:48:37Z","tz":1,"tags":{"climbing:rock":"limestone","leisure":"sports_centre","name":"Settore della Caverna","sport":"climbing"}},"2505358294":{"lat":44.1986851,"lon":8.3158889,"ts":"2024-12-21T18:04:01Z","tz":1,"tags":{"climbing":"crag","climbing:grade:french:max":"8b","climbing:grade:french:min":"5b","name":"Alveare","sport":"climbing"}},"2505358303":{"lat":44.2043002,"lon":8.3304042,"ts":"2024-12-22T18:40:21Z","tz":1,"tags":{"climbing":"crag","name":"Attico settore sinistro","sport":"climbing"}},"2505358309":{"lat":44.2130838,"lon":8.3522693,"ts":"2022-04-20T12:07:30Z","tz":1,"tags":{"access":"yes","climbing:grade:french:max":"6b+","climbing:grade:french:mean":"6a","climbing:grade:french:min":"4c","climbing:length:max":"40","climbing:length:min":"13","climbing:multipitch":"yes","climbing:orientation":"SE;E;NE","climbing:quality":"solid","climbing:rock":"limestone","climbing:routes":"40","climbing:sport":"yes","fee":"no","leisure":"sports_centre","name":"Avancorpo di Boragni","opening_hours":"24/7","outdoor":"yes","sport":"climbing","url":"https://www.thecrag.com/en/climbing/italy/finale-ligure/avancorpo"}},"2505358312":{"lat":44.2163985,"lon":8.3470118,"ts":"2020-10-18T21:25:25Z","tz":1,"tags":{"description":"vie dal 6b al 7b","leisure":"sports_centre","name":"Bastionata settore destro","sport":"climbing"}},"2505358316":{"lat":44.2087261,"lon":8.3397696,"ts":"2020-09-09T21:48:37Z","tz":1,"tags":{"description":"vie dal 6a al 7a","leisure":"sports_centre","name":"Bocca di Bacco","sport":"climbing"}},"2505358319":{"lat":44.2004299,"lon":8.3224787,"ts":"2020-11-10T22:38:38Z","tz":1,"tags":{"leisure":"sports_centre","name":"Bric Grigio destro","sport":"climbing"}},"2505358326":{"lat":44.2068663,"lon":8.3165856,"ts":"2020-11-08T00:24:08Z","tz":1,"tags":{"description":"vie dal 6a al 7b","leisure":"sports_centre","name":"Bric del Frate - settore Ovest","sport":"climbing"}},"2505358329":{"lat":44.211086,"lon":8.3448857,"ts":"2020-08-01T21:30:54Z","tz":1,"tags":{"leisure":"sports_centre","name":"Falesia del Guru","sport":"climbing"}},"2780947984":{"lat":44.2071903,"lon":8.3168786,"ts":"2024-12-22T18:40:21Z","tz":1,"tags":{"climbing":"crag","name":"Bric del Frate - Nord destro","sport":"climbing"}},"2780954442":{"lat":44.199352,"lon":8.3226709,"ts":"2020-11-10T22:38:38Z","tz":1,"tags":{"leisure":"sports_centre","name":"Bric Grigio sinistro","sport":"climbing"}},"2780956848":{"lat":44.1972563,"lon":8.3214908,"ts":"2024-12-21T18:04:01Z","tz":1,"tags":{"climbing":"crag","name":"Bric Scimarco - Inferiore","sport":"climbing"}},"2780975230":{"lat":44.1960027,"lon":8.3198974,"ts":"2024-12-21T18:04:01Z","tz":1,"tags":{"climbing":"crag","name":"Grotta dell'Edera","sport":"climbing"}},"2780975234":{"lat":44.1970205,"lon":8.3174815,"ts":"2024-12-21T18:04:01Z","tz":1,"tags":{"climbing":"crag","name":"I coralli","sport":"climbing"}},"2899448067":{"lat":44.198159,"lon":8.3231304,"ts":"2020-11-10T22:38:38Z","tz":1,"tags":{"leisure":"sports_centre","name":"Falesia del Serpente","sport":"climbing"}},"2899466185":{"lat":44.1982613,"lon":8.3222177,"ts":"2020-09-11T22:41:11Z","tz":1,"tags":{"climbing:grade:uiaa:max":"6c","climbing:grade:uiaa:min":"5","climbing:length:max":"22","climbing:length:min":"9","climbing:multipitch":"yes","climbing:orientation":"Sud-Ovest","climbing:quality":"solid","climbing:rock":"sandstone","climbing:routes":"15","description":"Egoista 6b+, Amico Valter 6a, Ciciuz 5b, Bananarama 5b, Annalisa 6a, Simone 6a, Dracurella 6c, Dune 6a+, Tiramolla 5c, Diavolina 5c, Preludio 5c, Tartufon 6a+, Tartufon 6a+, Furia 6a+, Papylon 6b+, Copacabana 6c+","ele":"255","name":"Falesia del Priore","operator":"Giorgio Delfino","source":"climbook","sport":"climbing","website":"https://www.climbook.com/falesie/9401-finale-bric-grigio-falesia-del-priore"}},"2908645003":{"lat":44.213851,"lon":8.3511899,"ts":"2020-09-10T08:10:22Z","tz":1,"tags":{"leisure":"sports_centre","name":"Skarafonia","sport":"climbing"}},"2962204262":{"lat":44.1957265,"lon":8.3107742,"ts":"2020-11-09T23:01:01Z","tz":1,"tags":{"leisure":"sports_centre","name":"Perti Settore Nord","sport":"climbing"}},"2990571134":{"lat":44.1939559,"lon":8.3211733,"ts":"2024-12-21T18:04:01Z","tz":1,"tags":{"climbing":"crag","name":"Placca delle Case Valle","sport":"climbing"}},"2990571136":{"lat":44.1877533,"lon":8.3157192,"ts":"2023-02-11T07:22:02Z","tz":1,"tags":{"leisure":"sports_centre","name":"Scimmiodromo","sport":"climbing"}},"3011260811":{"lat":44.212248,"lon":8.3503127,"ts":"2020-07-29T09:15:00Z","tz":1,"tags":{"leisure":"sports_centre","name":"Gocce DOC","sport":"climbing"}},"3011260813":{"lat":44.2131768,"lon":8.3505925,"ts":"2020-07-29T13:45:10Z","tz":1,"tags":{"leisure":"sports_centre","name":"Bastionata settore sinistro","sport":"climbing"}},"3011341204":{"lat":44.2150118,"lon":8.3499094,"ts":"2020-09-10T08:12:09Z","tz":1,"tags":{"leisure":"sports_centre","name":"Sasso Crazy Brothers","sport":"climbing"}},"3011390397":{"lat":44.209543,"lon":8.3510017,"ts":"2020-09-09T21:58:53Z","tz":1,"tags":{"leisure":"sports_centre","name":"Grotta dei Pipistrelli","sport":"climbing"}},"3012068434":{"lat":44.2149685,"lon":8.3484406,"ts":"2023-11-18T16:08:39Z","tz":1,"tags":{"description":"vie dal 6b al 7b","leisure":"sports_centre","name":"Bastionata settore centrale","sport":"climbing"}},"3012068436":{"lat":44.2132187,"lon":8.3320132,"ts":"2020-09-09T21:48:37Z","tz":1,"tags":{"leisure":"sports_centre","name":"Canyon","sport":"climbing"}},"3012068437":{"lat":44.2130349,"lon":8.3319679,"ts":"2020-09-09T21:48:37Z","tz":1,"tags":{"leisure":"sports_centre","name":"Fenia - Anfiteatro","sport":"climbing"}},"3012068439":{"lat":44.2134885,"lon":8.3405092,"ts":"2020-09-09T21:48:37Z","tz":1,"tags":{"leisure":"sports_centre","name":"Italsider","sport":"climbing"}},"3012068440":{"lat":44.214188,"lon":8.3329337,"ts":"2023-11-19T11:16:01Z","tz":1,"tags":{"leisure":"sports_centre","name":"La Torre","sport":"climbing"}},"3012068441":{"lat":44.2126977,"lon":8.3318335,"ts":"2015-06-16T07:36:29Z","tz":1,"tags":{"name":"Piccolo Canyon","sport":"climbing"}},"3012068442":{"lat":44.2155673,"lon":8.3334959,"ts":"2020-09-09T21:58:53Z","tz":1,"tags":{"leisure":"sports_centre","name":"Pilastro di Cucco 2","sport":"climbing"}},"3012068443":{"lat":44.2123801,"lon":8.331791,"ts":"2020-09-09T21:48:37Z","tz":1,"tags":{"leisure":"sports_centre","name":"Placca del Polpaccio - Campanile","sport":"climbing"}},"3012068444":{"lat":44.2120273,"lon":8.3316004,"ts":"2020-09-09T21:48:37Z","tz":1,"tags":{"leisure":"sports_centre","name":"Sahara Wall","sport":"climbing"}},"3012068445":{"lat":44.2138035,"lon":8.3325378,"ts":"2023-11-16T15:04:14Z","tz":1,"tags":{"leisure":"sports_centre","name":"Monte Cucco Settore Centrale","sport":"climbing"}},"3012068446":{"lat":44.2142455,"lon":8.3383949,"ts":"2020-09-09T21:48:37Z","tz":1,"tags":{"leisure":"sports_centre","name":"Un Domani","sport":"climbing"}},"3013322880":{"lat":44.1995784,"lon":8.3293463,"ts":"2024-12-22T18:40:21Z","tz":1,"tags":{"climbing":"crag","name":"Bric Pianarella","sport":"climbing"}},"3023482767":{"lat":44.2090369,"lon":8.3512983,"ts":"2020-08-01T21:28:14Z","tz":1,"tags":{"leisure":"sports_centre","name":"Falesia del Sole","sport":"climbing"}},"3023482768":{"lat":44.2120489,"lon":8.3443739,"ts":"2020-09-09T21:48:37Z","tz":1,"tags":{"leisure":"sports_centre","name":"Falesia della Tranquillità","sport":"climbing"}},"3028560591":{"lat":44.1897109,"lon":8.4144935,"ts":"2016-08-29T12:21:01Z","tz":1,"tags":{"name":"Dancing Dalle","sport":"climbing"}},"3039938630":{"lat":44.1840297,"lon":8.3311784,"ts":"2015-06-16T07:36:27Z","tz":1,"tags":{"access":"private","description":"Falesia privata ad uso dei clienti dell'agriturismo. Circa 20 vie chiodate da Thomas","name":"Falesia I Lamoi","operator":"Agriturismo I Lamoi","sport":"climbing"}},"3065901115":{"lat":44.2125328,"lon":8.340968,"ts":"2022-09-15T11:42:39Z","tz":1,"tags":{"name":"Placca Nevruz","sport":"climbing"}},"3066401213":{"lat":44.2146697,"lon":8.3338682,"ts":"2023-11-16T12:24:47Z","tz":1,"tags":{"leisure":"sports_centre","name":"Monte Cucco - Grottone","sport":"climbing"}},"3067566754":{"lat":44.2113874,"lon":8.3441722,"ts":"2020-09-09T21:48:37Z","tz":1,"tags":{"leisure":"sports_centre","name":"Falesia dell'Eco Settore Inferiore","sport":"climbing"}},"3459059992":{"lat":44.1939244,"lon":8.3097123,"ts":"2023-11-06T23:58:04Z","tz":1,"tags":{"access":"yes","climbing:bolted":"1 m","climbing:grade:french:max":"6b+","climbing:grade:french:min":"5a","climbing:length:max":"54","climbing:length:min":"6","climbing:multipitch":"yes","climbing:orientation":"SW","climbing:quality":"solid","climbing:rock":"limestone","climbing:sport":"yes","description":"vie dal 5a al 6b+","ele":"300","fee":"no","indoor":"no","leisure":"sports_centre","name":"Falesia dei tre porcellini","opening_hours":"24/7","outdoor":"yes","sport":"climbing"}},"3459063693":{"lat":44.1947449,"lon":8.3126148,"ts":"2023-09-11T15:11:39Z","tz":1,"tags":{"climbing":"crag","climbing:boulder":"no","climbing:grade:french:max":"7a","climbing:grade:french:min":"4a","climbing:sport":"yes","climbing:traditional":"no","leisure":"sports_centre","name":"Grottino di Bric della Croce","sport":"climbing"}},"3459063694":{"lat":44.1919598,"lon":8.3123269,"ts":"2020-11-10T22:04:58Z","tz":1,"tags":{"leisure":"sports_centre","name":"Grottino di Rocca di Perti","sport":"climbing"}},"3459063695":{"lat":44.1949909,"lon":8.3101559,"ts":"2020-11-09T23:01:01Z","tz":1,"tags":{"leisure":"sports_centre","name":"Il Giardino","sport":"climbing"}},"3459063696":{"lat":44.1949109,"lon":8.309507,"ts":"2020-11-08T00:14:16Z","tz":1,"tags":{"leisure":"sports_centre","name":"La Cengia degli Androidi","sport":"climbing"}},"3459063697":{"lat":44.192159,"lon":8.311912,"ts":"2020-11-10T22:04:58Z","tz":1,"tags":{"leisure":"sports_centre","name":"Ombre Blu","sport":"climbing"}},"3459063698":{"lat":44.1959207,"lon":8.309161,"ts":"2017-03-21T15:52:21Z","tz":1,"tags":{"name":"Perti - Settore Settentrionale","sport":"climbing"}},"3459063699":{"lat":44.191706,"lon":8.312429,"ts":"2020-11-10T22:04:58Z","tz":1,"tags":{"leisure":"sports_centre","name":"Testa dell'Elefante","sport":"climbing"}},"3459063700":{"lat":44.1943067,"lon":8.3140733,"ts":"2020-11-09T23:19:39Z","tz":1,"tags":{"leisure":"sports_centre","name":"Tigrotto","sport":"climbing"}},"3459074605":{"lat":44.1936148,"lon":8.310919,"ts":"2020-11-08T00:14:16Z","tz":1,"tags":{"leisure":"sports_centre","name":"L'Olimpo","sport":"climbing"}},"3459315493":{"lat":44.1939796,"lon":8.3105845,"ts":"2020-11-08T00:14:16Z","tz":1,"tags":{"leisure":"sports_centre","name":"Perti - Settore Centrale","sport":"climbing"}},"3459324535":{"lat":44.187613,"lon":8.3158057,"ts":"2020-11-10T23:12:31Z","tz":1,"tags":{"leisure":"sports_centre","name":"Placca del Gibbone","sport":"climbing"}},"3463546873":{"lat":44.1943423,"lon":8.3095053,"ts":"2024-02-19T13:13:59Z","tz":1,"tags":{"leisure":"sports_centre","name":"Simonetta","sport":"climbing"}},"3651250208":{"lat":44.2079113,"lon":8.3507404,"ts":"2023-10-29T23:51:13Z","tz":1,"tags":{"leisure":"sports_centre","name":"Falesia del Cinghiale","sport":"climbing","wheelchair":"no"}},"3651280126":{"lat":44.2081203,"lon":8.3481477,"ts":"2020-08-04T22:17:06Z","tz":1,"tags":{"leisure":"sports_centre","name":"Striature Obese","sport":"climbing"}},"3651280127":{"lat":44.2073972,"lon":8.3494575,"ts":"2020-09-10T08:03:34Z","tz":1,"tags":{"leisure":"sports_centre","name":"Tempio del Vento parte destra","sport":"climbing"}},"3651449467":{"lat":44.2089278,"lon":8.3472567,"ts":"2020-07-29T13:43:17Z","tz":1,"tags":{"leisure":"sports_centre","name":"Falesia del Silenzio settore superiore","sport":"climbing"}},"3651449468":{"lat":44.2074078,"lon":8.3438915,"ts":"2020-09-09T21:48:37Z","tz":1,"tags":{"leisure":"sports_centre","name":"Gola dei Briganti superiore","sport":"climbing"}},"3652412387":{"lat":44.2093901,"lon":8.3454765,"ts":"2020-09-09T21:48:37Z","tz":1,"tags":{"leisure":"sports_centre","name":"Camelot II","sport":"climbing"}},"3652523031":{"lat":44.2088285,"lon":8.3518546,"ts":"2020-08-01T21:27:46Z","tz":1,"tags":{"leisure":"sports_centre","name":"Falesia del Geko","sport":"climbing"}},"3652523032":{"lat":44.2083868,"lon":8.3517476,"ts":"2020-07-29T09:06:31Z","tz":1,"tags":{"leisure":"sports_centre","name":"Falesia del Lupo","sport":"climbing"}},"3740390889":{"lat":44.1905406,"lon":8.3110409,"ts":"2020-11-10T22:04:58Z","tz":1,"tags":{"leisure":"sports_centre","name":"Settore Eku28","sport":"climbing"}},"4020476730":{"lat":44.1676013,"lon":8.2015157,"ts":"2017-11-04T18:51:07Z","tz":1,"tags":{"name":"Rocca dell'Aia","sport":"climbing"}},"4241881624":{"lat":44.2023569,"lon":8.3747788,"ts":"2016-06-13T19:49:06Z","tz":1,"tags":{"name":"Mesa Verde","sport":"climbing"}},"4241881625":{"lat":44.1984708,"lon":8.3727482,"ts":"2023-07-26T06:00:03Z","tz":1,"tags":{"climbing":"crag","name":"Monolocale","natural":"cliff","sport":"climbing"}},"4241881626":{"lat":44.1983171,"lon":8.3730414,"ts":"2023-07-26T06:00:03Z","tz":1,"tags":{"climbing":"crag","name":"Museo dell'Uomo","natural":"cliff","sport":"climbing"}},"4355123854":{"lat":44.1990233,"lon":8.3146374,"ts":"2024-12-21T18:04:01Z","tz":1,"tags":{"climbing":"crag","name":"Le Tecchie","sport":"climbing"}},"4455008589":{"lat":44.2026636,"lon":8.3245849,"ts":"2020-11-10T22:38:38Z","tz":1,"tags":{"leisure":"sports_centre","name":"La Kattedrale","sport":"climbing"}},"4455022547":{"lat":44.202676,"lon":8.3236763,"ts":"2017-03-22T10:08:18Z","tz":1,"tags":{"name":"Konvento","sport":"climbing"}},"4562013787":{"lat":44.2093573,"lon":8.3463067,"ts":"2020-08-01T21:30:17Z","tz":1,"tags":{"leisure":"sports_centre","name":"Falesia del Silenzio settore inferiore","sport":"climbing"}},"4711548697":{"lat":44.1990321,"lon":8.3153796,"ts":"2024-12-21T18:04:01Z","tz":1,"tags":{"climbing":"crag","name":"Falesia dello Scorpione","sport":"climbing"}},"4746572055":{"lat":44.2031251,"lon":8.3299729,"ts":"2020-11-10T22:38:38Z","tz":1,"tags":{"leisure":"sports_centre","name":"Pappapero","sport":"climbing"}},"4746572056":{"lat":44.2033544,"lon":8.3300782,"ts":"2024-12-22T18:40:21Z","tz":1,"tags":{"climbing":"crag","name":"Attico settore destro","sport":"climbing"}},"4746572057":{"lat":44.2037323,"lon":8.3302092,"ts":"2024-12-22T18:40:21Z","tz":1,"tags":{"climbing":"crag","name":"Attico settore centrale","sport":"climbing"}},"4746617087":{"lat":44.1987504,"lon":8.3232113,"ts":"2023-05-10T08:55:58Z","tz":1,"tags":{"name":"Bric Grigio settore Il Grottino","sport":"climbing"}},"4746617122":{"lat":44.2087591,"lon":8.3371917,"ts":"2020-09-09T21:48:37Z","tz":1,"tags":{"leisure":"sports_centre","name":"Omo ora settore basso","sport":"climbing"}},"4746617123":{"lat":44.208719,"lon":8.3377766,"ts":"2020-09-09T21:48:37Z","tz":1,"tags":{"leisure":"sports_centre","name":"Omo ora settore alto","sport":"climbing"}},"4746617133":{"lat":44.2131072,"lon":8.3509684,"ts":"2020-09-10T08:10:22Z","tz":1,"tags":{"leisure":"sports_centre","name":"Gommovisione","sport":"climbing"}},"4746636730":{"lat":44.1967254,"lon":8.3209141,"ts":"2024-12-21T18:04:01Z","tz":1,"tags":{"climbing":"route","climbing:grade:french":"6c","name":"Le False Promesse","sport":"climbing"}},"4746636731":{"lat":44.1970872,"lon":8.3210033,"ts":"2024-12-21T18:04:01Z","tz":1,"tags":{"climbing":"route","climbing:grade:french":"7a","name":"Hyperzot","sport":"climbing"}},"4746636763":{"lat":44.1959019,"lon":8.320553,"ts":"2024-12-21T18:04:01Z","tz":1,"tags":{"climbing":"route","climbing:grade:french":"6a+","name":"Granada","sport":"climbing"}},"4746636764":{"lat":44.1958106,"lon":8.3206536,"ts":"2024-12-21T18:04:01Z","tz":1,"tags":{"climbing":"route","climbing:grade:french":"6b","name":"Madrid","sport":"climbing"}},"4746636765":{"lat":44.1955622,"lon":8.3208475,"ts":"2024-12-21T18:04:01Z","tz":1,"tags":{"climbing":"route","climbing:grade:french":"6a+","name":"Super Goccia","sport":"climbing"}},"4746636766":{"lat":44.1959518,"lon":8.3209402,"ts":"2021-10-22T17:04:12Z","tz":1,"tags":{"leisure":"sports_centre","name":"Bric Scimarco, Settore Antri Rossi","sport":"climbing"}},"4746666968":{"lat":44.210708,"lon":8.3448659,"ts":"2020-09-09T21:48:37Z","tz":1,"tags":{"leisure":"sports_centre","name":"Bangladesh","sport":"climbing"}},"4746667003":{"lat":44.2087146,"lon":8.3457822,"ts":"2020-07-28T23:37:46Z","tz":1,"tags":{"leisure":"sports_centre","name":"Bombs away","sport":"climbing"}},"4746667004":{"lat":44.2085675,"lon":8.3459847,"ts":"2020-07-28T23:38:24Z","tz":1,"tags":{"leisure":"sports_centre","name":"Camelot I","sport":"climbing"}},"4746667005":{"lat":44.2141096,"lon":8.3382084,"ts":"2020-09-09T21:48:37Z","tz":1,"tags":{"leisure":"sports_centre","name":"Buridda","sport":"climbing"}},"4746696881":{"lat":44.2163797,"lon":8.3439865,"ts":"2020-09-09T21:48:37Z","tz":1,"tags":{"leisure":"sports_centre","name":"Paretina 3","sport":"climbing"}},"4746696882":{"lat":44.2176076,"lon":8.3443345,"ts":"2020-09-09T21:48:37Z","tz":1,"tags":{"leisure":"sports_centre","name":"Paretina 2","sport":"climbing"}},"4746696883":{"lat":44.2180161,"lon":8.3443948,"ts":"2020-09-09T21:48:37Z","tz":1,"tags":{"leisure":"sports_centre","name":"Paretina 1","sport":"climbing"}},"4746696884":{"lat":44.2102848,"lon":8.3389201,"ts":"2020-09-09T21:48:37Z","tz":1,"tags":{"climbing:sport":"yes","leisure":"sports_centre","name":"Passo e Chiudo","sport":"climbing"}},"4746696885":{"lat":44.2104609,"lon":8.3386859,"ts":"2020-09-09T21:48:37Z","tz":1,"tags":{"climbing:sport":"yes","leisure":"sports_centre","name":"Silvia","sport":"climbing"}},"4746696910":{"lat":44.2097106,"lon":8.3406793,"ts":"2020-09-09T21:48:37Z","tz":1,"tags":{"leisure":"sports_centre","name":"Ciappo delle Conce - settore inferiore","sport":"climbing"}},"4746697571":{"lat":44.2120821,"lon":8.3318681,"ts":"2020-09-09T21:48:37Z","tz":1,"tags":{"leisure":"sports_centre","name":"Icaro","sport":"climbing"}},"4746697572":{"lat":44.2120176,"lon":8.3317441,"ts":"2020-09-09T21:48:37Z","tz":1,"tags":{"leisure":"sports_centre","name":"Campanile","sport":"climbing"}},"4746745014":{"lat":44.2089824,"lon":8.3509885,"ts":"2020-07-28T23:17:00Z","tz":1,"tags":{"leisure":"sports_centre","name":"Falesia della Volpe","sport":"climbing"}},"4746759307":{"lat":44.2078797,"lon":8.3486609,"ts":"2020-08-01T21:27:17Z","tz":1,"tags":{"leisure":"sports_centre","name":"Tempio del Vento parte sinistra","sport":"climbing"}},"4747171435":{"lat":44.1963648,"lon":8.3633461,"ts":"2020-09-17T21:19:36Z","tz":1,"tags":{"leisure":"sports_centre","name":"Rocca di Corno, Settore Futura","sport":"climbing"}},"4747171513":{"lat":44.1968333,"lon":8.3632201,"ts":"2020-09-17T21:19:36Z","tz":1,"tags":{"leisure":"sports_centre","name":"Rocca di Corno, Golia","sport":"climbing"}},"4747195720":{"lat":44.1934378,"lon":8.3110876,"ts":"2020-11-08T00:14:16Z","tz":1,"tags":{"leisure":"sports_centre","name":"Caramella","sport":"climbing"}},"4748568370":{"lat":44.2116674,"lon":8.344249,"ts":"2020-09-09T21:48:37Z","tz":1,"tags":{"leisure":"sports_centre","name":"Falesia dell'Eco Settore Superiore","sport":"climbing"}},"4748622187":{"lat":44.2080315,"lon":8.346558,"ts":"2020-09-09T21:48:37Z","tz":1,"tags":{"leisure":"sports_centre","name":"Falesia dell'Orso","sport":"climbing"}},"4748622188":{"lat":44.2082622,"lon":8.346552,"ts":"2020-07-28T23:41:10Z","tz":1,"tags":{"leisure":"sports_centre","name":"Falesia di Parsifal","sport":"climbing"}},"4748622189":{"lat":44.2085569,"lon":8.3463367,"ts":"2020-07-28T23:38:24Z","tz":1,"tags":{"leisure":"sports_centre","name":"Falesia del Nirvana","sport":"climbing"}},"4748622263":{"lat":44.1986566,"lon":8.3285358,"ts":"2024-12-22T18:40:21Z","tz":1,"tags":{"climbing":"crag","name":"I Missili","sport":"climbing"}},"4748630599":{"lat":44.2142201,"lon":8.3378394,"ts":"2020-09-09T21:48:37Z","tz":1,"tags":{"leisure":"sports_centre","name":"Falesia dell'Invidia","sport":"climbing"}},"4748630600":{"lat":44.2081915,"lon":8.3432099,"ts":"2020-09-09T21:48:37Z","tz":1,"tags":{"leisure":"sports_centre","name":"Falesia della Formica","sport":"climbing"}},"4748630932":{"lat":44.2099063,"lon":8.3375571,"ts":"2020-09-09T21:48:37Z","tz":1,"tags":{"climbing:sport":"yes","leisure":"sports_centre","name":"Falesia degli Amici","sport":"climbing"}},"4748655651":{"lat":44.1972078,"lon":8.3173591,"ts":"2024-12-21T18:04:01Z","tz":1,"tags":{"climbing":"crag","name":"Monte Sordo - Settore Centrale","sport":"climbing"}},"4748659224":{"lat":44.1905,"lon":8.4157777,"ts":"2017-03-22T11:29:20Z","tz":1,"tags":{"name":"Easy Dalle","sport":"climbing"}},"4748664484":{"lat":44.208709,"lon":8.3402635,"ts":"2020-09-09T21:48:37Z","tz":1,"tags":{"leisure":"sports_centre","name":"Placca Graziella","sport":"climbing"}},"4748664488":{"lat":44.1984389,"lon":8.3160419,"ts":"2024-12-21T18:04:01Z","tz":1,"tags":{"climbing":"crag","name":"Placca Di Mu","sport":"climbing"}},"4748676787":{"lat":44.1916191,"lon":8.4195467,"ts":"2017-03-22T11:47:11Z","tz":1,"tags":{"name":"I Pilastri - settore secondo","sport":"climbing"}},"4748676788":{"lat":44.1915667,"lon":8.4188781,"ts":"2017-03-22T11:47:11Z","tz":1,"tags":{"name":"I Pilastri - settore primo","sport":"climbing"}},"4748832364":{"lat":44.2145126,"lon":8.3333773,"ts":"2023-11-16T12:30:10Z","tz":1,"tags":{"leisure":"sports_centre","name":"Monte Cucco - Settore Orientale","sport":"climbing"}},"4748844335":{"lat":44.1965294,"lon":8.4252045,"ts":"2021-10-03T14:15:36Z","tz":1,"tags":{"leisure":"sports_centre","name":"Nolitudine","sport":"climbing"}},"4748861899":{"lat":44.1941936,"lon":8.3224211,"ts":"2024-12-21T18:04:01Z","tz":1,"tags":{"climbing":"crag","climbing:url:thecrag":"https://www.thecrag.com/en/climbing/italy/finale-ligure/monte-sordo/area/2493364164","name":"Le Rovine","sport":"climbing"}},"4748878735":{"lat":44.1860499,"lon":8.3172168,"ts":"2017-03-22T13:44:17Z","tz":1,"tags":{"name":"Falesia del Gabbiano","sport":"climbing"}},"4748878736":{"lat":44.18675,"lon":8.3161044,"ts":"2020-11-10T23:12:31Z","tz":1,"tags":{"leisure":"sports_centre","name":"Falesia della Lucertola","sport":"climbing"}},"4748885963":{"lat":44.1977686,"lon":8.3160226,"ts":"2024-12-21T18:04:01Z","tz":1,"tags":{"climbing":"crag","name":"Falesia della Lumaca","sport":"climbing"}},"4748894745":{"lat":44.1921634,"lon":8.3168821,"ts":"2023-11-03T11:52:19Z","tz":1,"tags":{"leisure":"sports_centre","name":"Falesia del Suonatore Jones","sport":"climbing","url":"https://www.thecrag.com/en/climbing/italy/finale-ligure/rocca-di-perti/area/2013829896"}},"4748934123":{"lat":44.1951745,"lon":8.3224071,"ts":"2024-12-21T18:04:01Z","tz":1,"tags":{"climbing":"crag","name":"Grotta di Sant'Antonino","sport":"climbing"}},"4748953509":{"lat":44.2095606,"lon":8.3491797,"ts":"2020-08-01T21:19:47Z","tz":1,"tags":{"leisure":"sports_centre","name":"Estathe","sport":"climbing"}},"4748953510":{"lat":44.20888,"lon":8.3502841,"ts":"2020-07-28T23:16:31Z","tz":1,"tags":{"leisure":"sports_centre","name":"Il Vascello","sport":"climbing"}},"4749015889":{"lat":44.2091865,"lon":8.3426336,"ts":"2020-09-09T21:48:37Z","tz":1,"tags":{"leisure":"sports_centre","name":"La Consolle","sport":"climbing"}},"4749015908":{"lat":44.2090423,"lon":8.3433672,"ts":"2020-09-09T21:48:37Z","tz":1,"tags":{"leisure":"sports_centre","name":"Goletta","sport":"climbing"}},"4749055752":{"lat":44.1967234,"lon":8.3189544,"ts":"2024-12-21T18:04:01Z","tz":1,"tags":{"climbing":"crag","name":"Placca d'angolo","sport":"climbing"}},"4749063713":{"lat":44.2005425,"lon":8.3145133,"ts":"2024-12-21T18:04:01Z","tz":1,"tags":{"climbing":"crag","name":"Grotta della Pollera","sport":"climbing"}},"4749064537":{"lat":44.2114828,"lon":8.331254,"ts":"2020-09-09T21:48:37Z","tz":1,"tags":{"leisure":"sports_centre","name":"Marchetto","sport":"climbing"}},"4781055444":{"lat":44.164398,"lon":8.3268642,"ts":"2017-04-07T11:55:42Z","tz":1,"tags":{"name":"Caprazoppa, Pietra del Sol","sport":"climbing","tourism":"viewpoint"}},"4823694244":{"lat":44.2080309,"lon":8.3506885,"ts":"2023-10-29T23:51:18Z","tz":1,"tags":{"leisure":"sports_centre","name":"Falesia della Luna","sport":"climbing","wheelchair":"no"}},"5044509310":{"lat":44.1658598,"lon":8.3170246,"ts":"2017-08-19T10:08:47Z","tz":1,"tags":{"name":"Utah","sport":"climbing"}},"5511484596":{"lat":44.2181081,"lon":8.3445816,"ts":"2018-03-28T13:12:40Z","tz":1,"tags":{"climbing":"yes","information":"guidepost","tourism":"information"}},"5511484597":{"lat":44.2122685,"lon":8.3442168,"ts":"2023-02-08T08:34:29Z","tz":1,"tags":{"climbing":"yes","information":"guidepost","tourism":"information"}},"5511484598":{"lat":44.2143448,"lon":8.3419624,"ts":"2018-03-28T13:12:40Z","tz":1,"tags":{"climbing":"yes","information":"guidepost","tourism":"information"}},"5511484599":{"lat":44.2115058,"lon":8.3433183,"ts":"2018-03-28T13:12:40Z","tz":1,"tags":{"climbing":"yes","information":"guidepost","tourism":"information"}},"5511484600":{"lat":44.2070002,"lon":8.3468842,"ts":"2018-03-28T13:12:40Z","tz":1,"tags":{"climbing":"yes","information":"guidepost","tourism":"information"}},"5511484601":{"lat":44.2071001,"lon":8.3467173,"ts":"2018-03-28T13:12:40Z","tz":1,"tags":{"climbing":"yes","information":"guidepost","tourism":"information"}},"5516514563":{"lat":44.1939993,"lon":8.3094689,"ts":"2018-03-30T15:00:47Z","tz":1,"tags":{"climbing":"yes","information":"guidepost","tourism":"information"}},"5516514564":{"lat":44.1929417,"lon":8.3088625,"ts":"2018-03-30T15:00:47Z","tz":1,"tags":{"climbing":"yes","information":"guidepost","tourism":"information"}},"8087783005":{"lat":44.195941,"lon":8.3197402,"ts":"2020-11-06T10:59:26Z","tz":1,"tags":{"climbing":"route_bottom","climbing:multipitch":"yes","name":"Via Capriccio Diagonale Attacco","sport":"climbing"}},"8088599555":{"lat":44.1982384,"lon":8.3282522,"ts":"2020-11-06T15:48:48Z","tz":1,"tags":{"climbing":"route_bottom","climbing:multipitch":"yes","name":"Via Lunga","sport":"climbing"}},"8088636949":{"lat":44.199967,"lon":8.3293806,"ts":"2020-11-06T15:56:16Z","tz":1,"tags":{"climbing":"route_bottom","climbing:multipitch":"yes","name":"Via Fivy","sport":"climbing"}},"8410140577":{"lat":44.1914094,"lon":8.3174506,"ts":"2021-02-09T22:13:28Z","tz":1,"tags":{"leisure":"sports_centre","name":"Billy","sport":"climbing"}},"8967699204":{"lat":44.0984932,"lon":8.1266066,"ts":"2021-07-31T08:30:55Z","tz":1,"tags":{"name":"Tortuga","sport":"climbing"}},"9169672456":{"lat":44.1982643,"lon":8.3161894,"ts":"2024-12-21T18:04:01Z","tz":1,"tags":{"climbing":"crag","name":"Pilastro di Mu","sport":"climbing"}},"10152611403":{"lat":44.200875,"lon":8.3143378,"ts":"2024-12-21T18:04:01Z","tz":1,"tags":{"climbing":"crag","name":"La Paretina di Avatar","sport":"climbing"}},"10882937230":{"lat":44.1986621,"lon":8.3220285,"ts":"2025-01-02T12:40:35Z","tz":1,"tags":{"leisure":"sports_centre","name":"Falesia della Coccinella","sport":"climbing"}},"10933584597":{"lat":44.2146778,"lon":8.3347134,"ts":"2023-11-16T12:24:47Z","tz":1,"tags":{"name":"La taverna","sport":"climbing"}},"11343206079":{"lat":44.2063193,"lon":8.320265,"ts":"2023-11-12T11:15:03Z","tz":1,"tags":{"name":"La Piccolo Sveva","sport":"climbing"}},"11343214370":{"lat":44.206172,"lon":8.3204711,"ts":"2024-12-22T18:40:21Z","tz":1,"tags":{"climbing":"route","name":"Vai Storica Ivana;Peloso","sport":"climbing"}},"11343214371":{"lat":44.2061829,"lon":8.3204281,"ts":"2024-12-22T18:40:21Z","tz":1,"tags":{"climbing":"route","name":"Aprendiste;Cogolpetesi;Scorpione","sport":"climbing"}},"11343218191":{"lat":44.206038,"lon":8.3206851,"ts":"2024-12-22T18:40:21Z","tz":1,"tags":{"climbing":"route","name":"Gossip;Viva L’italiana","sport":"climbing"}},"11343218192":{"lat":44.2060069,"lon":8.3207289,"ts":"2024-12-22T18:40:21Z","tz":1,"tags":{"climbing":"route","name":"Fashion","sport":"climbing"}},"11343464957":{"lat":44.2064924,"lon":8.3195401,"ts":"2024-12-22T18:40:21Z","tz":1,"tags":{"climbing":"route","name":"Apassionata;Baciccia","sport":"climbing"}},"11346167745":{"lat":44.206836,"lon":8.3187569,"ts":"2023-11-13T12:04:34Z","tz":1,"tags":{"name":"Motus Interruptus; Spigolo Retro","sport":"climbing"}},"11346188651":{"lat":44.2068865,"lon":8.318428,"ts":"2023-11-13T12:00:14Z","tz":1,"tags":{"name":"Apollo; Moonlight Drive","sport":"climbing"}},"11346194571":{"lat":44.2068847,"lon":8.3179093,"ts":"2024-12-22T18:40:21Z","tz":1,"tags":{"climbing":"route","name":"Caffe Elebrato","sport":"climbing"}},"11346217688":{"lat":44.2068281,"lon":8.3188776,"ts":"2024-12-22T18:40:21Z","tz":1,"tags":{"climbing":"route","name":"Francesca","sport":"climbing"}},"11346230009":{"lat":44.2068085,"lon":8.3189367,"ts":"2024-12-22T18:40:21Z","tz":1,"tags":{"climbing":"route","name":"Cortamadura","sport":"climbing"}},"11350555542":{"lat":44.2129274,"lon":8.3319618,"ts":"2024-02-26T17:34:25Z","tz":1,"tags":{"name":"Coconut","sport":"climbing"}},"11350555543":{"lat":44.2130379,"lon":8.3319892,"ts":"2024-02-26T17:34:25Z","tz":1,"tags":{"name":"Rischiaomschia","sport":"climbing"}},"11350573779":{"lat":44.2131667,"lon":8.3320548,"ts":"2024-02-26T17:34:25Z","tz":1,"tags":{"name":"Mega Hommo","sport":"climbing"}},"11350573780":{"lat":44.2131871,"lon":8.3320526,"ts":"2024-02-26T17:34:25Z","tz":1,"tags":{"name":"Pronto Marghe","sport":"climbing"}},"11350573781":{"lat":44.2132268,"lon":8.3320634,"ts":"2024-02-26T17:34:25Z","tz":1,"tags":{"name":"Totem Immenso","sport":"climbing"}},"11350588339":{"lat":44.2128105,"lon":8.3319417,"ts":"2024-02-26T17:34:25Z","tz":1,"tags":{"name":"Ungraretti","sport":"climbing"}},"11350694682":{"lat":44.2138641,"lon":8.3326186,"ts":"2023-11-19T11:47:57Z","tz":1,"tags":{"climbing":"bolt","climbing:bolt":"anchor"}},"11350707875":{"lat":44.2139126,"lon":8.3326848,"ts":"2023-11-19T11:47:57Z","tz":1,"tags":{"climbing":"bolt","climbing:bolt":"anchor","name":"Zandoninik"}},"11350707876":{"lat":44.2139722,"lon":8.3327335,"ts":"2023-11-19T11:50:23Z","tz":1,"tags":{"climbing":"bolt","climbing:bolt":"anchor","name":"Aspettando il Sole"}},"11350708481":{"lat":44.2141527,"lon":8.3330288,"ts":"2023-11-19T11:14:27Z","tz":1,"tags":{"climbing":"bolt","climbing:bolt":"anchor","name":"Il Diedro"}},"11350708482":{"lat":44.214229,"lon":8.3330185,"ts":"2023-11-19T11:14:57Z","tz":1,"tags":{"climbing":"bolt","climbing:bolt":"anchor"}},"11350743374":{"lat":44.2139916,"lon":8.3327722,"ts":"2023-11-19T11:23:13Z","tz":1,"tags":{"climbing":"bolt","climbing:bolt":"anchor"}},"11350743375":{"lat":44.2140446,"lon":8.3327887,"ts":"2023-11-19T11:51:47Z","tz":1,"tags":{"climbing":"bolt","climbing:bolt":"anchor","name":"Adele"}},"11350821298":{"lat":44.2140477,"lon":8.3325298,"ts":"2023-11-19T11:16:01Z","tz":1,"tags":{"climbing":"route","name":"Frank Zappa"}},"11350823476":{"lat":44.2137866,"lon":8.3324552,"ts":"2023-11-19T11:16:01Z","tz":1,"tags":{"climbing":"route","name":"Janquero"}},"11350834476":{"lat":44.2141091,"lon":8.3326266,"ts":"2023-11-19T11:16:01Z","tz":1,"tags":{"climbing":"route","name":"Ra … C …"}},"11350847781":{"lat":44.21373,"lon":8.3323842,"ts":"2023-11-19T11:16:01Z","tz":1,"tags":{"climbing":"route","name":"Toccata"}},"11358685501":{"lat":44.212028,"lon":8.3601619,"ts":"2023-11-18T10:28:37Z","tz":1,"tags":{"climbing":"route_bottom","climbing:sport":"yes","sport":"climbing"}},"11358699038":{"lat":44.2118492,"lon":8.3600488,"ts":"2023-11-18T10:26:35Z","tz":1,"tags":{"climbing":"route","climbing:sport":"yes","name":"Fatti Piunla","sport":"climbing"}},"11358705165":{"lat":44.2117433,"lon":8.3591776,"ts":"2024-12-21T12:14:48Z","tz":1,"tags":{"climbing":"route","climbing:sport":"yes","name":"30 Anni Dopo;Tribulu Ma Muntu","sport":"climbing"}},"11358712840":{"lat":44.2117641,"lon":8.3589924,"ts":"2024-12-21T12:14:48Z","tz":1,"tags":{"climbing":"route","name":"Parate Principale (lower)","sport":"climbing"}},"11358734026":{"lat":44.2116734,"lon":8.3590111,"ts":"2023-11-18T10:26:35Z","tz":1,"tags":{"climbing":"route","climbing:sport":"yes","name":"New Generation","sport":"climbing"}},"11358734027":{"lat":44.2116158,"lon":8.3588894,"ts":"2023-11-18T10:26:35Z","tz":1,"tags":{"climbing":"route","climbing:sport":"yes","name":"Il Caprone","sport":"climbing"}},"11358734028":{"lat":44.2116912,"lon":8.3590654,"ts":"2024-12-21T12:14:48Z","tz":1,"tags":{"climbing":"route","climbing:sport":"yes","name":"Ridi Ridi;Arcteryx","sport":"climbing"}},"11358747638":{"lat":44.2117388,"lon":8.359127,"ts":"2024-12-21T12:14:48Z","tz":1,"tags":{"climbing":"route","climbing:sport":"yes","name":"Separati In Casa;Finalmente","sport":"climbing"}},"11358757884":{"lat":44.2116552,"lon":8.3590645,"ts":"2023-11-18T10:26:35Z","tz":1,"tags":{"climbing":"route","climbing:sport":"yes","name":"Ten Little Bunny","sport":"climbing"}},"11358767341":{"lat":44.2117549,"lon":8.3596936,"ts":"2023-11-18T10:26:35Z","tz":1,"tags":{"climbing":"route","climbing:sport":"yes","name":"Delfino Furioso","sport":"climbing"}},"11358777105":{"lat":44.2117808,"lon":8.3597818,"ts":"2023-11-18T10:26:35Z","tz":1,"tags":{"climbing":"route","climbing:sport":"yes","name":"58","sport":"climbing"}},"11358777106":{"lat":44.2117718,"lon":8.3597443,"ts":"2023-11-18T10:26:35Z","tz":1,"tags":{"climbing":"route","climbing:sport":"yes","name":"Numeri Son Numeri","sport":"climbing"}},"11358779293":{"lat":44.2115671,"lon":8.3589105,"ts":"2023-11-18T10:26:35Z","tz":1,"tags":{"climbing":"route","climbing:sport":"yes","name":"Uccellini","sport":"climbing"}},"11358780686":{"lat":44.2116701,"lon":8.3594351,"ts":"2023-11-18T10:26:35Z","tz":1,"tags":{"climbing":"route","name":"Parate Principale (upper)","sport":"climbing"}},"11358789567":{"lat":44.2117002,"lon":8.3592405,"ts":"2023-11-18T10:26:35Z","tz":1,"tags":{"climbing":"route","climbing:sport":"yes","name":"Coppa Del Nonno","sport":"climbing"}},"11359780718":{"lat":44.2117715,"lon":8.3601273,"ts":"2023-11-18T10:26:35Z","tz":1,"tags":{"climbing":"bolt","sport":"climbing"}},"11360235557":{"lat":44.2163225,"lon":8.3471221,"ts":"2023-11-18T15:32:28Z","tz":1,"tags":{"climbing":"route","name":"Bel Rimbalzo"}},"11360270044":{"lat":44.2153181,"lon":8.3478594,"ts":"2023-11-18T15:52:28Z","tz":1,"tags":{"climbing":"route_top"}},"11360281224":{"lat":44.2149,"lon":8.3485,"ts":"2023-11-18T15:52:28Z","tz":1,"tags":{"name":"Centrale (F8.0)","sport":"climbing"}},"11360281980":{"lat":44.2154611,"lon":8.3477255,"ts":"2023-11-18T15:48:39Z","tz":1,"tags":{"climbing":"route_top"}},"11366845690":{"lat":44.1413704,"lon":8.2028963,"ts":"2023-11-21T16:33:51Z","tz":1,"tags":{"name":"Grotta Dell’tutto","sport":"climbing"}},"11368519462":{"lat":44.1413885,"lon":8.2031787,"ts":"2023-11-22T13:02:05Z","tz":1,"tags":{"climbing":"route","name":"Curzio"}},"11368539519":{"lat":44.1414148,"lon":8.2030449,"ts":"2023-11-22T13:00:30Z","tz":1,"tags":{"climbing":"route","name":"Medium"}},"11368617804":{"lat":44.1414481,"lon":8.2028533,"ts":"2023-11-22T13:51:56Z","tz":1,"tags":{"climbing":"bolt","climbing:bolt":"anchor"}},"11368652624":{"lat":44.1413289,"lon":8.2035511,"ts":"2023-11-22T14:11:32Z","tz":1,"tags":{"climbing":"bolt","climbing:bolt":"anchor","name":"Oltre Lo Spazio","note":"Route top"}},"11368772798":{"lat":44.1412975,"lon":8.2035642,"ts":"2023-11-22T15:00:04Z","tz":1,"tags":{"climbing":"route","name":"Biometal"}},"11375025711":{"lat":44.1955902,"lon":8.3626744,"ts":"2023-11-25T10:45:19Z","tz":1,"tags":{"climbing":"bolt","climbing:anchor":"bolt"}},"11380135117":{"lat":44.1948939,"lon":8.3093781,"ts":"2023-11-27T18:48:08Z","tz":1,"tags":{"climbing":"route","name":"Nicora"}},"11380143574":{"lat":44.1951426,"lon":8.3092665,"ts":"2023-11-27T18:41:28Z","tz":1,"tags":{"climbing":"route","name":"Opus; L’actra Faccia Dellaluna"}},"11381261855":{"lat":44.1923972,"lon":8.3116615,"ts":"2023-11-28T12:25:53Z","tz":1,"tags":{"climbing":"route","name":"Red Carpet Gia Goat"}},"11381292262":{"lat":44.1935023,"lon":8.3108258,"ts":"2023-11-28T12:42:23Z","tz":1,"tags":{"climbing":"route","name":"Miopola"}},"11381297921":{"lat":44.1916965,"lon":8.3119954,"ts":"2023-11-28T12:21:13Z","tz":1,"tags":{"climbing":"route","name":"Gattodopoulos"}},"11381301216":{"lat":44.1926462,"lon":8.3113476,"ts":"2023-11-28T12:28:01Z","tz":1,"tags":{"climbing":"route","name":"Freezer"}},"11381313075":{"lat":44.1924803,"lon":8.311518,"ts":"2023-11-28T12:26:55Z","tz":1,"tags":{"climbing":"route","name":"Fly"}},"11381339148":{"lat":44.1935608,"lon":8.3108339,"ts":"2023-11-28T12:43:10Z","tz":1,"tags":{"climbing":"route","name":"Cuare Se…"}},"11381371303":{"lat":44.1941158,"lon":8.3103679,"ts":"2023-11-28T13:32:35Z","tz":1,"tags":{"climbing":"bolt","climbing:bolt":"anchor","name":"Pilastro Josephine?"}},"11919342312":{"lat":44.1962004,"lon":8.319301,"ts":"2024-12-21T18:04:01Z","tz":1,"tags":{"climbing":"crag","name":"Parete Dimenticata","sport":"climbing"}},"12250318511":{"lat":44.2001782,"lon":8.3300734,"ts":"2024-12-22T18:40:21Z","tz":1,"tags":{"climbing":"crag","climbing:rock":"limestone","climbing:sport":"yes","name":"La Mansarda","sport":"climbing"}},"12458582866":{"lat":44.1688829,"lon":8.2013901,"ts":"2024-12-28T09:37:36Z","tz":1,"tags":{"climbing:multipitch":"yes","name":"Ciappe Du Ciuin","sport":"climbing"}},"12461531584":{"lat":44.1630791,"lon":8.3182382,"ts":"2024-12-29T20:31:03Z","tz":1,"tags":{"climbing":"route","climbing:grade:french":"5b","name":"La Bassa","sport":"climbing"}},"12461531585":{"lat":44.1631008,"lon":8.318259,"ts":"2024-12-29T20:31:03Z","tz":1,"tags":{"climbing":"route","climbing:grade:french":"5b","name":"Scroll","sport":"climbing"}},"12461531586":{"lat":44.1631158,"lon":8.318282,"ts":"2024-12-29T20:31:03Z","tz":1,"tags":{"climbing":"route","climbing:grade:french":"5c","name":"Centocorde","sport":"climbing"}},"12461531587":{"lat":44.1631405,"lon":8.3183059,"ts":"2024-12-29T20:31:03Z","tz":1,"tags":{"climbing":"route","climbing:grade:french":"5a","name":"Scarburata","sport":"climbing"}},"12461531588":{"lat":44.1631569,"lon":8.3183497,"ts":"2024-12-29T20:31:03Z","tz":1,"tags":{"climbing":"route","climbing:grade:french":"5c","name":"Chi Non Fa Non Falla","sport":"climbing"}},"12461531589":{"lat":44.1631719,"lon":8.3183779,"ts":"2024-12-29T20:31:03Z","tz":1,"tags":{"climbing":"route","climbing:grade:french":"5b","name":"La Simonata","sport":"climbing"}},"12461614425":{"lat":44.1927408,"lon":8.3540633,"ts":"2024-12-29T21:01:25Z","tz":1,"tags":{"climbing":"route","climbing:grade:french":"5b+","name":"Supereva","sport":"climbing"}},"12461614426":{"lat":44.1927178,"lon":8.3541291,"ts":"2024-12-29T21:01:25Z","tz":1,"tags":{"climbing":"route","climbing:grade:french":"5b+","name":"Nanette","sport":"climbing"}},"12461614428":{"lat":44.1926719,"lon":8.3542275,"ts":"2024-12-29T21:01:25Z","tz":1,"tags":{"climbing":"route","climbing:grade:french":"5a","name":"I Mangiaparticule","sport":"climbing"}},"12461614429":{"lat":44.1926676,"lon":8.3543423,"ts":"2024-12-29T21:01:25Z","tz":1,"tags":{"climbing":"route","climbing:grade:french":"6a","name":"Peru","sport":"climbing"}},"12461614430":{"lat":44.1931659,"lon":8.3549634,"ts":"2024-12-29T21:01:25Z","tz":1,"tags":{"climbing":"route","climbing:grade:french":"6a","name":"Laser Harp","sport":"climbing"}},"12461614431":{"lat":44.1933492,"lon":8.3550653,"ts":"2024-12-29T21:01:25Z","tz":1,"tags":{"climbing":"route","climbing:grade:french":"6a","name":"Pippi Langstrumpf","sport":"climbing"}},"12461614432":{"lat":44.1933829,"lon":8.3550733,"ts":"2024-12-29T21:01:25Z","tz":1,"tags":{"climbing":"route","climbing:grade:french":"6a","name":"Flotte Torte","sport":"climbing"}},"12461614433":{"lat":44.1934065,"lon":8.3550853,"ts":"2024-12-29T21:01:25Z","tz":1,"tags":{"climbing":"route","climbing:grade:french":"6a+","name":"Rampensau","sport":"climbing"}},"12467465225":{"lat":44.2072268,"lon":8.3740707,"ts":"2025-01-01T20:24:55Z","tz":1,"tags":{"climbing":"route","climbing:grade:french":"6a","name":"Leoncino","sport":"climbing"}},"12467465226":{"lat":44.2072358,"lon":8.3741379,"ts":"2025-01-01T20:24:55Z","tz":1,"tags":{"climbing":"route","climbing:grade:french":"6a+","name":"Savana","sport":"climbing"}},"12467465227":{"lat":44.207237,"lon":8.3741609,"ts":"2025-01-01T20:24:55Z","tz":1,"tags":{"climbing":"route","climbing:grade:french":"6b","name":"Elefantino","sport":"climbing"}},"12467465228":{"lat":44.2072404,"lon":8.3742044,"ts":"2025-01-01T20:24:55Z","tz":1,"tags":{"climbing":"route","climbing:grade:french":"6b+","name":"Maori","sport":"climbing"}},"12467465229":{"lat":44.2072478,"lon":8.3742796,"ts":"2025-01-01T20:24:55Z","tz":1,"tags":{"climbing":"route","climbing:grade:french":"6b+","name":"Banano","sport":"climbing"}},"12467465230":{"lat":44.2072551,"lon":8.3743239,"ts":"2025-01-01T20:24:55Z","tz":1,"tags":{"climbing":"route","climbing:grade:french":"6c","name":"Datterino","sport":"climbing"}},"12467465231":{"lat":44.2072591,"lon":8.3743492,"ts":"2025-01-01T20:24:55Z","tz":1,"tags":{"climbing":"route","climbing:grade:french":"6a+","name":"Solleone","sport":"climbing"}},"12467465232":{"lat":44.2072619,"lon":8.374384,"ts":"2025-01-01T20:24:55Z","tz":1,"tags":{"climbing":"route","climbing:grade:french":"6a","name":"Dune","sport":"climbing"}},"12467465233":{"lat":44.2072625,"lon":8.3744402,"ts":"2025-01-01T20:24:55Z","tz":1,"tags":{"climbing":"route","climbing:grade:french":"5c","name":"Oasi","sport":"climbing"}},"12467465234":{"lat":44.2072591,"lon":8.3744813,"ts":"2025-01-01T20:24:55Z","tz":1,"tags":{"climbing":"route","climbing:grade:french":"5b","name":"Palma","sport":"climbing"}},"12467465235":{"lat":44.2072557,"lon":8.3745225,"ts":"2025-01-01T20:24:55Z","tz":1,"tags":{"climbing":"route","climbing:grade:french":"5c","name":"Piramide","sport":"climbing"}},"12467465236":{"lat":44.2072523,"lon":8.3745462,"ts":"2025-01-01T20:24:55Z","tz":1,"tags":{"climbing":"route","climbing:grade:french":"5c","name":"Liana","sport":"climbing"}},"12467465237":{"lat":44.2072506,"lon":8.3745707,"ts":"2025-01-01T20:24:55Z","tz":1,"tags":{"climbing":"route","climbing:grade:french":"6a","name":"Calura","sport":"climbing"}},"12467465238":{"lat":44.2072512,"lon":8.374596,"ts":"2025-01-01T20:24:55Z","tz":1,"tags":{"climbing":"route","climbing:grade:french":"6a+","name":"Giungla","sport":"climbing"}},"12467520231":{"lat":44.1955295,"lon":8.3626665,"ts":"2025-01-01T20:46:14Z","tz":1,"tags":{"climbing":"route","climbing:grade:french":"5b","climbing:pitches":"3","name":"Titomanlio","sport":"climbing"}},"12467520232":{"lat":44.1955856,"lon":8.3627789,"ts":"2025-01-01T20:46:14Z","tz":1,"tags":{"climbing":"route","climbing:grade:french":"6a","name":"E Se... Si Prova Di Qua","sport":"climbing"}},"12467520235":{"lat":44.1956653,"lon":8.3628691,"ts":"2025-01-01T20:46:14Z","tz":1,"tags":{"climbing":"route","climbing:grade:french":"6a+","name":"Julia Augusta","sport":"climbing"}},"12467520236":{"lat":44.1957169,"lon":8.3629592,"ts":"2025-01-01T20:46:14Z","tz":1,"tags":{"climbing":"route","climbing:grade:french":"6a+","name":"Angela","sport":"climbing"}},"12467520237":{"lat":44.1957606,"lon":8.3630282,"ts":"2025-01-01T20:46:14Z","tz":1,"tags":{"climbing":"route","climbing:grade:french":"5c+","name":"Irene","sport":"climbing"}},"12467520238":{"lat":44.1957528,"lon":8.3630042,"ts":"2025-01-01T20:46:14Z","tz":1,"tags":{"climbing":"route","climbing:grade:french":"5c","name":"Carla","sport":"climbing"}},"12467521838":{"lat":44.196712,"lon":8.3612851,"ts":"2025-01-01T20:55:14Z","tz":1,"tags":{"climbing":"route","climbing:grade:french":"5c","climbing:pitches":"3","name":"Massimiliano Ferretti","sport":"climbing"}},"12467521839":{"lat":44.1967226,"lon":8.3612657,"ts":"2025-01-01T20:55:14Z","tz":1,"tags":{"climbing":"route","climbing:grade:french":"6a","climbing:pitches":"2","name":"Bettabel","sport":"climbing"}},"12467521840":{"lat":44.1967018,"lon":8.361357,"ts":"2025-01-01T20:55:14Z","tz":1,"tags":{"climbing":"route","climbing:grade:french":"6b","name":"Mug","sport":"climbing"}},"12475404097":{"lat":44.2151841,"lon":8.3436875,"ts":"2025-01-05T11:08:02Z","tz":1,"tags":{"climbing":"route","climbing:grade:french":"6b","name":"Classic In Spit","sport":"climbing"}},"12475404098":{"lat":44.214854,"lon":8.3436876,"ts":"2025-01-05T11:08:02Z","tz":1,"tags":{"climbing":"route","climbing:grade:french":"5c+","name":"Giovani E Ribelli","sport":"climbing"}},"12475404099":{"lat":44.2145764,"lon":8.3437477,"ts":"2025-01-05T11:08:02Z","tz":1,"tags":{"climbing":"route","climbing:grade:french":"5a","name":"Charme","sport":"climbing"}},"12475404100":{"lat":44.2145501,"lon":8.3437644,"ts":"2025-01-05T11:08:02Z","tz":1,"tags":{"climbing":"route","climbing:grade:french":"5c","name":"Relax","sport":"climbing"}},"12475451701":{"lat":44.2145262,"lon":8.3437811,"ts":"2025-01-05T11:08:02Z","tz":1,"tags":{"climbing":"route","climbing:grade:french":"4c","name":"Minimo Sindacale","sport":"climbing"}},"12475451702":{"lat":44.2144281,"lon":8.3438011,"ts":"2025-01-05T11:08:02Z","tz":1,"tags":{"climbing":"route","climbing:grade:french":"5c","name":"Ducaerne","sport":"climbing"}},"12475451703":{"lat":44.214306,"lon":8.3438445,"ts":"2025-01-05T11:08:02Z","tz":1,"tags":{"climbing":"route","climbing:grade:french":"6b","name":"Il Momento E Ora","sport":"climbing"}},"12475451704":{"lat":44.2142055,"lon":8.3438779,"ts":"2025-01-05T11:08:02Z","tz":1,"tags":{"climbing":"route","climbing:grade:french":"6b","name":"Pinzimonio","sport":"climbing"}},"12475451705":{"lat":44.213545,"lon":8.3441751,"ts":"2025-01-05T11:08:02Z","tz":1,"tags":{"climbing":"route","climbing:grade:french":"5c","name":"Roger Rabbit","sport":"climbing"}},"12475451706":{"lat":44.2134229,"lon":8.3442485,"ts":"2025-01-05T11:08:02Z","tz":1,"tags":{"climbing":"route","climbing:grade:french":"4b","name":"Pazzapaura","sport":"climbing"}},"12475451707":{"lat":44.2134343,"lon":8.3442284,"ts":"2025-01-05T11:08:02Z","tz":1,"tags":{"climbing":"route","climbing:grade:french":"4c","name":"Kala Kalla","sport":"climbing"}},"12475451708":{"lat":44.2134171,"lon":8.3442526,"ts":"2025-01-05T11:08:02Z","tz":1,"tags":{"climbing":"route","climbing:grade:french":"5b","name":"U Cunte U Cunta","sport":"climbing"}},"12475451709":{"lat":44.21341,"lon":8.3442625,"ts":"2025-01-05T11:08:02Z","tz":1,"tags":{"climbing":"route","climbing:grade:french":"5b","name":"U Chry U Cria","sport":"climbing"}},"12475451710":{"lat":44.2134037,"lon":8.3442692,"ts":"2025-01-05T11:08:02Z","tz":1,"tags":{"climbing":"route","climbing:grade:french":"3c","name":"U Bade U Banna","sport":"climbing"}},"12475451711":{"lat":44.2133847,"lon":8.3442946,"ts":"2025-01-05T11:08:02Z","tz":1,"tags":{"climbing":"route","climbing:grade:french":"6c","name":"Rambo Kid","sport":"climbing"}},"12475451712":{"lat":44.2133649,"lon":8.3443222,"ts":"2025-01-05T11:08:02Z","tz":1,"tags":{"climbing":"route","climbing:grade:french":"6a+","name":"Paga Pantalone","sport":"climbing"}},"12475483981":{"lat":44.1917368,"lon":8.3110039,"ts":"2025-01-05T12:00:03Z","tz":1,"tags":{"climbing":"route","climbing:grade:french":"6b","name":"Ma Pensa","sport":"climbing","wikimedia_commons":"File:Parete-delle-gemme.jpg","wikimedia_commons:path":"0.787,0.604|0.765,0.459|0.739,0.384|0.729,0.327|0.678,0.267"}},"12475483982":{"lat":44.1917687,"lon":8.3109817,"ts":"2025-01-05T12:00:03Z","tz":1,"tags":{"climbing":"route","climbing:grade:french":"5c","name":"Finale By Thomas","sport":"climbing","wikimedia_commons":"File:Parete-delle-gemme.jpg","wikimedia_commons:path":"0.552,0.616|0.56,0.546|0.571,0.465|0.509,0.403|0.48,0.324|0.461,0.263|0.457,0.203|0.449,0.173|0.395,0.143|0.345,0.08"}},"12475483983":{"lat":44.1917785,"lon":8.3109346,"ts":"2025-01-05T12:00:03Z","tz":1,"tags":{"climbing":"route","climbing:grade:french":"5a","name":"La Pregunta","sport":"climbing","wikimedia_commons":"File:Parete-delle-gemme.jpg","wikimedia_commons:path":"0.192,0.647|0.188,0.537|0.17,0.44|0.168,0.365|0.165,0.29|0.24,0.236|0.34,0.237|0.28,0.174"}},"12475483984":{"lat":44.1917835,"lon":8.3109064,"ts":"2025-01-05T11:55:09Z","tz":1,"tags":{"climbing":"route","climbing:grade:french":"6a","name":"La Cascata Pietrificata","sport":"climbing"}},"12475483985":{"lat":44.1918055,"lon":8.3108114,"ts":"2025-01-05T11:55:09Z","tz":1,"tags":{"climbing":"route","climbing:grade:french":"5c","climbing:pitches":"2","name":"Via Di Walter","sport":"climbing"}},"12475483986":{"lat":44.1919172,"lon":8.3105033,"ts":"2025-01-05T11:55:09Z","tz":1,"tags":{"climbing":"route","climbing:grade:french":"5c","name":"Bar Dei Negri","sport":"climbing"}},"12475483987":{"lat":44.1919136,"lon":8.3105623,"ts":"2025-01-05T11:55:09Z","tz":1,"tags":{"climbing":"route","climbing:grade:french":"4c","name":"I Germogli","sport":"climbing"}},"12609290944":{"lat":44.1338256,"lon":8.2052145,"ts":"2025-02-22T09:18:36Z","tz":1,"tags":{"climbing:sport":"yes","name":"Giadino Delle Stelle","sport":"climbing"}},"12612565619":{"lat":44.1699557,"lon":8.1982446,"ts":"2025-02-23T10:55:37Z","tz":1,"tags":{"climbing:multipitch":"yes","name":"Scoglio Del Brecante","sport":"climbing"}},"12709498014":{"lat":44.1416503,"lon":8.2028067,"ts":"2025-03-29T09:30:42Z","tz":1,"tags":{"name":"Placche Grigie","sport":"climbing"}}}