{"282614185":{"lat":52.2714159,"lon":20.9582491,"ts":"2014-05-18T00:34:25Z","tz":1,"tags":{"leisure":"pitch","sport":"climbing"}},"768462560":{"lat":52.2779237,"lon":20.9490009,"ts":"2021-07-17T08:41:02Z","tz":1,"tags":{"leisure":"pitch","lit":"yes","sport":"climbing"}},"4216846912":{"lat":52.3024951,"lon":21.0197177,"ts":"2024-04-09T12:02:55Z","tz":1,"tags":{"addr:city":"Warszawa","addr:housenumber":"3","addr:postcode":"03-236","addr:street":"Annopol","email":"kontakt@murall.pl","internet_access":"wlan","leisure":"fitness_centre","name":"Murall Centrum Wspinaczkowe","name:de":"Murall Kletterhalle","name:en":"Murall Climbing Hall","name:es":"Murall Centro de Escalada","name:pl":"Murall Centrum Wspinaczkowe","name:ru":"Murall Скалолазный Центр","opening_hours":"Mo-Su 08:00-23:00","payment:account_cards":"yes","phone":"+48227445940","sport":"climbing","website":"https://annopol.murall.pl/"}},"4217664392":{"lat":52.2973763,"lon":20.9063394,"ts":"2023-11-09T14:21:13Z","tz":1,"tags":{"addr:city":"Warszawa","addr:housenumber":"20/22","addr:postcode":"01-940","addr:street":"Palisadowa","leisure":"sports_centre","name":"Makak Arena Wspinaczkowa","opening_hours":"Mo-Fr 10:00-23:00; Sa-Su 09:00-22:00","phone":"+48730710775","sport":"climbing","website":"https://arenamakak.pl/"}},"12534596174":{"lat":52.2903619,"lon":20.9741364,"ts":"2025-01-26T18:24:15Z","tz":1,"tags":{"climbing":"boulder","fixme":"location, shape","sport":"climbing"}}}