{"1309713895":{"lat":49.467541,"lon":22.3574642,"ts":"2024-08-22T10:36:21Z","tz":1,"tags":{"height":"18","leisure":"climbing","name":"Przewieszony Mur","natural":"cliff","rock":"sandstone","source":"knowledge","sport":"climbing"}},"1309713896":{"lat":49.4675163,"lon":22.3574321,"ts":"2024-08-22T10:36:21Z","tz":1,"tags":{"climbing:bolted":"yes","climbing:quality":"solid","climbing:rock":"limestone","climbing:sport":"yes","height":"18","name":"Przewieszony Mur","natural":"bare_rock","rock":"sandstone","source":"knowledge","sport":"climbing"}},"1309713897":{"lat":49.4680852,"lon":22.3563718,"ts":"2024-08-22T10:36:21Z","tz":1,"tags":{"climbing:quality":"solid","climbing:rock":"limestone","name":"Murek","natural":"bare_rock","rock":"sandstone","source":"knowledge","sport":"climbing"}},"1309713898":{"lat":49.467939,"lon":22.3566376,"ts":"2024-08-22T10:36:21Z","tz":1,"tags":{"height":"12","leisure":"climbing","name":"Niski Mur","natural":"cliff","rock":"sandstone","source":"knowledge","sport":"climbing"}},"1309713899":{"lat":49.4679273,"lon":22.3566344,"ts":"2024-08-22T10:36:21Z","tz":1,"tags":{"climbing:bolted":"yes","climbing:quality":"solid","climbing:rock":"limestone","climbing:sport":"yes","height":"12","name":"Niski Mur","natural":"bare_rock","rock":"sandstone","source":"knowledge","sport":"climbing"}},"1309713900":{"lat":49.4678531,"lon":22.3568852,"ts":"2024-08-22T10:36:21Z","tz":1,"tags":{"height":"35","leisure":"climbing","name":"Kamień Leski - Główna Ściana","natural":"cliff","rock":"sandstone","source":"knowledge","sport":"climbing"}},"1309713901":{"lat":49.46783,"lon":22.3568489,"ts":"2024-08-22T10:36:21Z","tz":1,"tags":{"height":"8","leisure":"climbing","name":"Kamień Leski - Południowa Ściana","natural":"cliff","rock":"sandstone","source":"knowledge","sport":"climbing"}},"1309713902":{"lat":49.4678478,"lon":22.3568649,"ts":"2024-08-22T10:36:21Z","tz":1,"tags":{"climbing:bolted":"yes","climbing:quality":"solid","climbing:rock":"limestone","climbing:sport":"yes","height":"20","name":"Kamień Leski","natural":"bare_rock","rock":"sandstone","source":"knowledge","sport":"climbing"}},"1309729995":{"lat":49.4673417,"lon":22.3581753,"ts":"2024-08-22T10:41:14Z","tz":1,"tags":{"height":"15","leisure":"climbing","name":"Ściana z Archiwum","natural":"cliff","rock":"sandstone","source":"knowledge","sport":"climbing"}},"1309729996":{"lat":49.4672467,"lon":22.3584185,"ts":"2024-08-22T10:41:14Z","tz":1,"tags":{"height":"12","leisure":"climbing","name":"Czerwona Ścianka","natural":"cliff","rock":"sandstone","source":"knowledge","sport":"climbing"}},"1309729997":{"lat":49.4672324,"lon":22.3583974,"ts":"2024-08-22T10:41:14Z","tz":1,"tags":{"climbing:quality":"solid","climbing:rock":"limestone","height":"12","name":"Czerwona Ścianka","natural":"bare_rock","rock":"sandstone","source":"knowledge","sport":"climbing"}},"1309729998":{"lat":49.4673202,"lon":22.3581753,"ts":"2024-08-22T10:41:14Z","tz":1,"tags":{"climbing:bolted":"yes","climbing:quality":"solid","climbing:rock":"limestone","climbing:sport":"yes","height":"15","name":"Ściana z Archiwum","natural":"bare_rock","rock":"sandstone","source":"knowledge","sport":"climbing"}},"1309729999":{"lat":49.4673925,"lon":22.3579597,"ts":"2024-08-22T10:41:14Z","tz":1,"tags":{"height":"20","leisure":"climbing","name":"Filar Narożny","natural":"cliff","rock":"sandstone","source":"knowledge","sport":"climbing"}},"1309730000":{"lat":49.4673396,"lon":22.3579242,"ts":"2024-08-22T10:41:14Z","tz":1,"tags":{"climbing:bolted":"yes","climbing:quality":"solid","climbing:rock":"limestone","climbing:sport":"yes","height":"20","name":"Filar Narożny","natural":"bare_rock","rock":"sandstone","source":"knowledge","sport":"climbing"}},"8677553699":{"lat":49.4570713,"lon":22.3789969,"ts":"2024-05-14T19:24:35Z","tz":1,"tags":{"leisure":"sports_centre","name":"Ściana skalna pod Kostryniem","sport":"climbing"}}}