{"128454196":{"lat":47.4300554,"lon":12.8406789,"ts":"2020-02-16T15:12:58Z","tz":1,"tags":{"addr:city":"Saalfelden am Steinernen Meer","addr:country":"AT","addr:housenumber":"30a","addr:postcode":"5760","addr:street":"Leogangerstraße","at_bev:addr_date":"2018-10-01","building":"yes","leisure":"sports_centre","name":"Kletterhalle","sport":"climbing"}},"735209352":{"lat":47.5043812,"lon":12.8039954,"ts":"2019-10-16T13:40:56Z","tz":1,"tags":{"climbing":"route","name":"Alex die Hex","sport":"climbing"}},"830316339":{"lat":47.4744049,"lon":12.7536319,"ts":"2020-07-26T13:52:34Z","tz":1,"tags":{"climbing":"route","name":"Normalweg","sport":"climbing"}},"4317599196":{"lat":47.514209,"lon":12.7608094,"ts":"2016-07-23T21:40:05Z","tz":1,"tags":{"climbing:sport":"yes","leisure":"sports_centre","name":"Hohlwegen Brechl Platte","sport":"climbing"}},"5346899701":{"lat":47.3242923,"lon":12.7363239,"ts":"2018-01-18T12:10:25Z","tz":1,"tags":{"climbing":"artificial_wall","playground":"climbingwall","sport":"climbing"}},"7750337135":{"lat":47.4816199,"lon":12.7412627,"ts":"2024-12-22T14:07:48Z","tz":1,"tags":{"climbing":"crag","name":"Kuchelhorn Südwand Wandfußplatten","sport":"climbing"}},"9901239473":{"lat":47.503784,"lon":12.7822013,"ts":"2022-07-21T07:31:09Z","tz":1,"tags":{"name":"An Reini Seini","sport":"climbing"}}}