{"11899698":{"lat":38.1616108,"lon":12.7278396,"ts":"2024-02-19T12:58:51Z","tz":1,"tags":{"climbing":"area","name":"Scogliera di Salinella","type":"site"}},"243766047":{"lat":38.1691129,"lon":12.7570507,"ts":"2017-12-08T21:36:20Z","tz":1,"tags":{"name":"Cattedrale nel deserto","natural":"cliff","sport":"climbing"}},"254594370":{"lat":38.1474075,"lon":12.7350291,"ts":"2020-11-16T15:29:31Z","tz":1,"tags":{"natural":"cliff","sport":"climbing"}},"254945726":{"lat":38.0962355,"lon":12.6702936,"ts":"2020-11-13T23:05:27Z","tz":1,"tags":{"climbing:rock":"limestone","name":"Never Sleeping Wall","natural":"cliff","sport":"climbing","website":"https://www.falesiaonline.it/falesia/never-sleeping-wall.html"}},"536697627":{"lat":38.0815712,"lon":12.6708284,"ts":"2020-04-15T07:53:14Z","tz":1,"tags":{"climbing:rock":"limestone","name":"Rocca di Cerriolo","natural":"cliff","sport":"climbing"}},"545349515":{"lat":38.1582747,"lon":12.7292228,"ts":"2020-11-16T15:29:31Z","tz":1,"tags":{"name":"Terra Media","natural":"cliff","sport":"climbing"}},"545349516":{"lat":38.1618629,"lon":12.7240078,"ts":"2017-12-07T22:19:43Z","tz":1,"tags":{"name":"Bunker","natural":"cliff","sport":"climbing"}},"545558715":{"lat":38.1497137,"lon":12.7349637,"ts":"2020-11-16T15:29:31Z","tz":1,"tags":{"name":"Pineta","natural":"cliff","sport":"climbing"}},"545724429":{"lat":38.1463979,"lon":12.7354779,"ts":"2017-12-09T20:26:24Z","tz":1,"tags":{"name":"Torre Isulidda","natural":"cliff","sport":"climbing"}},"546613937":{"lat":38.0973583,"lon":12.6922903,"ts":"2017-12-13T15:25:31Z","tz":1,"tags":{"name":"Fiamme Gialle","natural":"cliff","sport":"climbing"}},"792036945":{"lat":38.082871,"lon":12.6730333,"ts":"2020-04-15T07:53:14Z","tz":1,"tags":{"climbing:rock":"limestone","name":"Rocca di Cerriolo","natural":"cliff","sport":"climbing"}},"869898820":{"lat":38.1150947,"lon":12.7410141,"ts":"2020-11-10T22:29:21Z","tz":1,"tags":{"name":"Crown of Aragon","natural":"cliff","sport":"climbing"}},"869898821":{"lat":38.1115366,"lon":12.7413933,"ts":"2020-11-10T22:36:56Z","tz":1,"tags":{"name":"Cinema Paradiso - destra","natural":"cliff","sport":"climbing"}},"869900798":{"lat":38.1123245,"lon":12.7414517,"ts":"2020-11-16T14:55:43Z","tz":1,"tags":{"name":"Cinema Paradiso - sinistra","natural":"cliff","sport":"climbing"}},"869902020":{"lat":38.1568781,"lon":12.76025,"ts":"2020-11-30T15:34:33Z","tz":1,"tags":{"name":"Nuova Ossessione","natural":"cliff","sport":"climbing"}},"871498950":{"lat":38.1248985,"lon":12.7432963,"ts":"2020-11-13T23:07:59Z","tz":1,"tags":{"name":"Lost World","natural":"cliff","sport":"climbing"}},"872344921":{"lat":38.1456275,"lon":12.7379778,"ts":"2024-02-19T12:58:51Z","tz":1,"tags":{"name":"Greek Gods","natural":"cliff","sport":"climbing"}},"872344922":{"lat":38.1510784,"lon":12.7345144,"ts":"2020-11-16T15:29:31Z","tz":1,"tags":{"name":"Pietraia","natural":"cliff","sport":"climbing"}},"872344923":{"lat":38.1525394,"lon":12.7336231,"ts":"2020-11-16T15:29:31Z","tz":1,"tags":{"name":"El Bahira","natural":"cliff","sport":"climbing"}},"872344925":{"lat":38.1451182,"lon":12.7369231,"ts":"2020-11-16T15:29:31Z","tz":1,"tags":{"name":"Seagul","natural":"cliff","sport":"climbing"}},"872344926":{"lat":38.14844,"lon":12.7348407,"ts":"2020-11-16T15:29:31Z","tz":1,"tags":{"name":"Scomparto Rifiuti","natural":"cliff","sport":"climbing"}},"872344928":{"lat":38.145718,"lon":12.7372955,"ts":"2020-11-16T15:29:31Z","tz":1,"tags":{"name":"Far Side","natural":"cliff","sport":"climbing"}},"872344931":{"lat":38.1609256,"lon":12.725237,"ts":"2020-11-16T15:29:31Z","tz":1,"tags":{"name":"Bunker","natural":"cliff","sport":"climbing"}},"872344932":{"lat":38.1597724,"lon":12.7272131,"ts":"2022-10-09T07:23:45Z","tz":1,"tags":{"natural":"cliff","sport":"climbing"}},"872344934":{"lat":38.1567215,"lon":12.7307434,"ts":"2020-11-16T15:29:31Z","tz":1,"tags":{"name":"Portella delle Vacche","natural":"cliff","sport":"climbing"}},"872344935":{"lat":38.1549399,"lon":12.7321546,"ts":"2020-11-16T15:29:31Z","tz":1,"tags":{"name":"Nowhere","natural":"cliff","sport":"climbing"}},"872344937":{"lat":38.1558108,"lon":12.7314002,"ts":"2020-11-16T15:29:31Z","tz":1,"tags":{"name":"Il Paese Piccolo","natural":"cliff","sport":"climbing"}},"872344938":{"lat":38.155518,"lon":12.7316655,"ts":"2020-11-16T15:29:31Z","tz":1,"tags":{"name":"Il Giardino dell'Eden","natural":"cliff","sport":"climbing"}},"872344941":{"lat":38.1669092,"lon":12.7206009,"ts":"2020-11-16T15:29:31Z","tz":1,"tags":{"name":"Orange Wall","natural":"cliff","sport":"climbing"}},"872344943":{"lat":38.1676681,"lon":12.7201256,"ts":"2020-11-16T15:29:31Z","tz":1,"tags":{"natural":"cliff","sport":"climbing"}},"872344944":{"lat":38.1674134,"lon":12.7201417,"ts":"2020-11-16T15:29:31Z","tz":1,"tags":{"name":"Grotta dei Santi","natural":"cliff","sport":"climbing"}},"872344948":{"lat":38.1652867,"lon":12.7216264,"ts":"2020-11-16T15:29:31Z","tz":1,"tags":{"name":"Grotta di Atze","natural":"cliff","sport":"climbing"}},"872344950":{"lat":38.16915,"lon":12.7196752,"ts":"2020-11-16T15:29:31Z","tz":1,"tags":{"name":"Parco Giochi","natural":"cliff","sport":"climbing"}},"1252371430":{"lat":38.1456024,"lon":12.7384344,"ts":"2024-02-19T12:58:51Z","tz":1,"tags":{"name":"Secret Garden","natural":"cliff","sport":"climbing"}},"3825418678":{"lat":38.160567,"lon":12.725308,"ts":"2022-10-09T07:23:45Z","tz":1,"tags":{"climbing:orientation":"SW","climbing:sport":"yes","name":"Bunker","sport":"climbing"}},"9504344748":{"lat":38.1745796,"lon":12.7177858,"ts":"2022-02-16T12:17:09Z","tz":1,"tags":{"name":"Grotta Cala Mancina","sport":"climbing"}},"9504346224":{"lat":38.17726,"lon":12.7173502,"ts":"2022-10-09T07:23:45Z","tz":1,"tags":{"name":"White wall","sport":"climbing"}},"9504346225":{"lat":38.1750908,"lon":12.7173729,"ts":"2022-02-14T09:23:01Z","tz":1,"tags":{"name":"Zoo","sport":"climbing"}},"9506671896":{"lat":38.1726532,"lon":12.7184992,"ts":"2022-02-15T01:27:03Z","tz":1,"tags":{"name":"Scotties world","sport":"climbing"}},"9506737962":{"lat":38.1716156,"lon":12.718544,"ts":"2022-02-15T01:26:42Z","tz":1,"tags":{"name":"Campo base","sport":"climbing"}},"9510442007":{"lat":38.1762411,"lon":12.7169887,"ts":"2022-02-16T12:17:09Z","tz":1,"tags":{"name":"High wall","sport":"climbing"}},"9510442008":{"lat":38.1766817,"lon":12.7170737,"ts":"2022-10-09T07:23:45Z","tz":1,"tags":{"name":"Irenes Garden","sport":"climbing"}},"9510442009":{"lat":38.1756718,"lon":12.7171091,"ts":"2022-02-16T12:17:09Z","tz":1,"tags":{"name":"Cala Mancina","sport":"climbing"}},"9510442010":{"lat":38.1679659,"lon":12.7203939,"ts":"2022-02-16T12:17:09Z","tz":1,"tags":{"name":"Grotta del cavallo","sport":"climbing"}},"9510442013":{"lat":38.163474,"lon":12.7231174,"ts":"2022-02-16T12:17:09Z","tz":1,"tags":{"name":"Fakiros Pilar","sport":"climbing"}},"9510442014":{"lat":38.16291,"lon":12.7233013,"ts":"2022-10-09T07:23:45Z","tz":1,"tags":{"name":"Karsten Oelzz Memorial Wall","sport":"climbing"}},"9510442015":{"lat":38.1621656,"lon":12.7238496,"ts":"2022-10-09T07:23:45Z","tz":1,"tags":{"name":"Fakiros Wall","sport":"climbing"}},"10032214359":{"lat":38.145631,"lon":12.7384047,"ts":"2022-09-17T19:06:30Z","tz":1,"tags":{"name":"Il Giradino","sport":"climbing"}},"10086445398":{"lat":38.168893,"lon":12.752231,"ts":"2022-10-09T07:23:45Z","tz":1,"tags":{"climbing:multipitch":"yes","climbing:rock":"limestone","climbing:sport":"yes","climbing:trad":"yes","ele":"225","name":"Pizzo Monaco","natural":"peak","sport":"climbing"}}}