{"239630573":{"lat":51.7352049,"lon":11.034746,"ts":"2018-05-24T16:34:32Z","tz":1,"tags":{"climbing:orientation":"NW","climbing:quality":"solid","climbing:rock":"granite","name":"Feuerschiff","natural":"cliff","outdoor":"yes","sport":"climbing"}},"239630574":{"lat":51.7350079,"lon":11.0350469,"ts":"2018-05-24T16:34:32Z","tz":1,"tags":{"climbing:orientation":"NW","climbing:quality":"solid","climbing:rock":"granite","name":"Obere Steinbachtalnadel","natural":"cliff","outdoor":"yes","sport":"climbing"}},"274561932":{"lat":51.735747,"lon":11.0323619,"ts":"2019-03-11T10:14:27Z","tz":1,"tags":{"climbing:trad":"yes","natural":"cliff","sport":"climbing"}},"274561934":{"lat":51.7359189,"lon":11.031975,"ts":"2019-03-11T10:14:27Z","tz":1,"tags":{"climbing:trad":"yes","name":"Theaterwand","natural":"cliff","sport":"climbing"}},"590828594":{"lat":51.73365,"lon":11.0348373,"ts":"2018-05-24T16:34:31Z","tz":1,"tags":{"climbing:orientation":"NW","climbing:quality":"solid","climbing:rock":"granite","name":"Gnom","natural":"cliff","outdoor":"yes","sport":"climbing"}},"590828595":{"lat":51.7347128,"lon":11.0353388,"ts":"2018-05-24T16:34:32Z","tz":1,"tags":{"climbing:orientation":"NW","climbing:quality":"solid","climbing:rock":"granite","name":"Ausguck","natural":"cliff","outdoor":"yes","sport":"climbing"}},"2792548167":{"lat":51.7338652,"lon":11.0323302,"ts":"2014-11-21T15:48:37Z","tz":1,"tags":{"climbing:trad":"yes","sport":"climbing"}},"2792548179":{"lat":51.7339282,"lon":11.0325124,"ts":"2014-04-15T12:46:00Z","tz":1,"tags":{"climbing:trad":"yes","name":"Hinterewand","sport":"climbing"}},"2792615673":{"lat":51.7358454,"lon":11.0321454,"ts":"2014-10-11T16:54:28Z","tz":1,"tags":{"access":"yes","climbing:quality":"solid","climbing:rock":"granite","climbing:trad":"yes","name":"Theaterfelsen","natural":"peak","sport":"climbing"}},"8975523207":{"lat":51.7915484,"lon":10.9519941,"ts":"2021-08-02T21:08:41Z","tz":1,"tags":{"playground":"climbingwall","sport":"climbing"}},"9691432241":{"lat":51.7311951,"lon":11.0286706,"ts":"2022-04-25T10:13:11Z","tz":1,"tags":{"alt_name":"Coronabruch","climbing":"crag","climbing:bolted":"yes","climbing:rock":"granite","name":"Der Linksobere","natural":"cliff","url":"https://www.thecrag.com/en/climbing/germany/harz-mountains/area/265352979"}}}