{"3846917":{"lat":49.9214061,"lon":11.0831157,"ts":"2016-07-25T19:03:30Z","tz":1,"tags":{"alt_name":"Eulenstein","climbing":"crag","climbing:rock":"limestone","climbing:sport":"yes","name":"Eulenwand","natural":"bare_rock","sport":"climbing"}},"41683168":{"lat":49.8403013,"lon":11.1907486,"ts":"2023-01-07T07:28:57Z","tz":1,"tags":{"climbing":"crag","name":"Totenstein","natural":"cliff","source":"extrapolation","sport":"climbing"}},"85325136":{"lat":49.9814745,"lon":11.0992161,"ts":"2014-08-08T02:11:36Z","tz":1,"tags":{"climbing:bolted":"3 m","climbing:orientation":"NW;W;SW","climbing:rock":"limestone","climbing:sport":"yes","name":"Würgauer Gebiet","natural":"cliff","opening_hours":"24/7","sport":"climbing"}},"111309462":{"lat":50.0508645,"lon":11.1099001,"ts":"2020-09-11T22:41:11Z","tz":1,"tags":{"climbing:bolted":"yes","climbing:grade:uiaa:max":"7+","climbing:grade:uiaa:mean":"6","climbing:grade:uiaa:min":"3","climbing:length":"12","climbing:orientation":"S","climbing:rock":"limestone","climbing:sport":"yes","name":"Kemitzenstein","natural":"cliff","sport":"climbing","wikipedia":"de:Kemitzenstein"}},"124891025":{"lat":49.8694333,"lon":11.1350296,"ts":"2023-01-08T16:07:51Z","tz":1,"tags":{"climbing":"crag","image":"https://commons.wikimedia.org/wiki/File:Burggrub_Rotenstein-20200524-RM-155107.jpg","name":"Rothenstein","natural":"cliff","sport":"climbing","wikimedia_commons":"Category:Rotenstein (Burggrub)"}},"125941808":{"lat":49.8832434,"lon":11.1709956,"ts":"2021-08-09T06:42:57Z","tz":1,"tags":{"climbing":"crag","name":"Hoher Stein","natural":"cliff","sport":"climbing"}},"185334292":{"lat":49.8427603,"lon":11.1987768,"ts":"2023-12-19T12:54:51Z","tz":1,"tags":{"name":"Fürther Wand","natural":"cliff","sport":"climbing"}},"219450920":{"lat":50.0301142,"lon":11.2034194,"ts":"2020-02-06T21:18:51Z","tz":1,"tags":{"climbing":"crag","climbing:sport":"yes","name":"Rote Wand","natural":"cliff","sport":"climbing"}},"219544191":{"lat":50.0223934,"lon":11.0641466,"ts":"2024-12-21T18:27:08Z","tz":1,"tags":{"climbing":"crag","climbing:rock":"limestone","climbing:sport":"yes","name":"Altenburgwand","natural":"cliff","sport":"climbing"}},"252027880":{"lat":49.841491,"lon":11.1997555,"ts":"2024-11-01T21:36:15Z","tz":1,"tags":{"climbing":"crag","name":"Veilbronner Wand","natural":"cliff","sport":"climbing"}},"252082851":{"lat":49.8616145,"lon":11.181793,"ts":"2021-08-09T06:36:44Z","tz":1,"tags":{"climbing":"crag","name":"Traindorfer Wand - Nebenmassiv Pavillon","natural":"cliff","sport":"climbing"}},"252082852":{"lat":49.8614041,"lon":11.1816242,"ts":"2023-03-18T09:22:22Z","tz":1,"tags":{"climbing":"crag","name":"Traindorfer Wand - Hauptmassiv","natural":"cliff","sport":"climbing"}},"287879191":{"lat":49.9688857,"lon":11.1908546,"ts":"2022-01-01T01:35:33Z","tz":1,"tags":{"climbing:sport":"yes","name":"Treunitzer Pfeiler","natural":"cliff","sport":"climbing"}},"287879192":{"lat":49.9688572,"lon":11.1917342,"ts":"2019-06-24T14:49:32Z","tz":1,"tags":{"climbing:sport":"yes","name":"Treunitz Torstein","natural":"cliff","sport":"climbing"}},"289513418":{"lat":49.981865,"lon":11.1474031,"ts":"2014-06-24T09:40:59Z","tz":1,"tags":{"climbing":"crag","climbing:stone":"limestone","name":"Kleine Wand","natural":"cliff","sport":"climbing"}},"289513419":{"lat":49.9816727,"lon":11.1470064,"ts":"2020-09-11T22:41:11Z","tz":1,"tags":{"climbing":"crag","climbing:grade:uiaa:max":"8+","climbing:grade:uiaa:mean":"8","climbing:grade:uiaa:min":"6","climbing:length":"20","climbing:rock":"limestone","climbing:routes":"6","climbing:stone":"limestone","name":"Steinfelder Jurawand","natural":"cliff","sport":"climbing"}},"289513420":{"lat":49.9817144,"lon":11.1470003,"ts":"2014-06-24T09:40:59Z","tz":1,"tags":{"climbing":"crag","climbing:stone":"limestone","name":"Steinfelder Turm","natural":"cliff","sport":"climbing"}},"289513421":{"lat":49.9815378,"lon":11.1467555,"ts":"2014-06-24T09:40:59Z","tz":1,"tags":{"climbing":"crag","climbing:stone":"limestone","name":"Steinfelder Wand","natural":"cliff","sport":"climbing"}},"289589636":{"lat":49.9591762,"lon":11.2085609,"ts":"2020-09-11T22:41:11Z","tz":1,"tags":{"climbing":"crag","climbing:bolted":"2-5","climbing:grade:uiaa:max":"9-","climbing:grade:uiaa:min":"4","climbing:length":"22","climbing:orientation":"W","climbing:quality":"solid","climbing:rock":"limestone","climbing:sport":"yes","climbing:stone":"limestone","ele":"415","name":"Treunitzer Klettergarten","natural":"cliff","sport":"climbing"}},"416697533":{"lat":49.9106758,"lon":11.2251721,"ts":"2024-12-23T13:59:57Z","tz":1,"tags":{"climbing":"crag","name":"Neuhauser Wand","natural":"cliff","sport":"climbing"}},"417912898":{"lat":50.0559613,"lon":11.2271609,"ts":"2016-05-13T16:04:50Z","tz":1,"tags":{"climbing:bolted":"yes","climbing:length":"12","climbing:quality":"fragile","climbing:rock":"limestone","climbing:sport":"yes","name":"Waßmannwand","natural":"cliff","sport":"climbing"}},"417912899":{"lat":50.0564765,"lon":11.2258971,"ts":"2021-05-17T06:55:34Z","tz":1,"tags":{"climbing:bolted":"yes","climbing:length":"18","climbing:quality":"fragile","climbing:rock":"limestone","climbing:sport":"yes","name":"Waßmannwand","natural":"cliff","sport":"climbing"}},"492093762":{"lat":49.9994155,"lon":11.0875864,"ts":"2024-12-21T18:29:49Z","tz":1,"tags":{"climbing":"crag","climbing:rock":"limestone","climbing:sport":"yes","name":"Burglesauer Wand","natural":"bare_rock","sport":"climbing"}},"665622151":{"lat":49.8690336,"lon":11.136501,"ts":"2021-08-09T06:42:57Z","tz":1,"tags":{"climbing":"crag","height":"20","name":"Luisenwand","natural":"cliff","sport":"climbing"}},"667027086":{"lat":49.8411574,"lon":11.0706118,"ts":"2021-08-09T06:48:13Z","tz":1,"tags":{"name":"Klettergarten Frankendorf - Annasteinseite","natural":"cliff","sport":"climbing"}},"718298848":{"lat":49.9992331,"lon":11.0879028,"ts":"2024-12-21T18:29:49Z","tz":1,"tags":{"climbing":"crag","climbing:rock":"limestone","name":"Fellhorn","natural":"bare_rock","sport":"climbing"}},"718298849":{"lat":49.9992917,"lon":11.087713,"ts":"2024-12-21T18:29:49Z","tz":1,"tags":{"climbing":"crag","climbing:rock":"limestone","name":"Winklerblock","natural":"bare_rock","sport":"climbing"}},"718298854":{"lat":49.9992375,"lon":11.0875312,"ts":"2024-12-21T18:29:49Z","tz":1,"tags":{"climbing":"crag","climbing:rock":"limestone","name":"Backschüssel","natural":"bare_rock","sport":"climbing"}},"757780715":{"lat":49.9589089,"lon":11.2393615,"ts":"2020-09-11T22:41:11Z","tz":1,"tags":{"climbing":"crag","climbing:grade:uiaa:max":"10","climbing:grade:uiaa:min":"4","climbing:length":"15","climbing:length:max":"18","climbing:orientation":"S","climbing:rock":"limestone","climbing:routes":"18","climbing:sport":"yes","name":"Kuhkirchner Wand","natural":"cliff","sport":"climbing"}},"770475646":{"lat":50.0295096,"lon":11.2033292,"ts":"2021-05-04T07:47:10Z","tz":1,"tags":{"climbing":"crag","climbing:sport":"yes","name":"Altbabawand","natural":"cliff","sport":"climbing"}},"799089525":{"lat":49.9788961,"lon":11.1517922,"ts":"2020-09-11T22:41:11Z","tz":1,"tags":{"climbing":"crag","climbing:grade:uiaa:max":"7","climbing:grade:uiaa:mean":"6","climbing:grade:uiaa:min":"4+","climbing:length":"8","climbing:orientation":"SW","climbing:quality":"solid","climbing:rock":"limestone","climbing:routes":"22","climbing:sport":"yes","name":"Steinfelder Wänchen","natural":"cliff","sport":"climbing"}},"847229783":{"lat":50.0345807,"lon":11.2035227,"ts":"2022-10-02T05:47:26Z","tz":1,"tags":{"name":"Bauernschmitt Ged. W.","natural":"cliff","sport":"climbing"}},"847229784":{"lat":50.0350933,"lon":11.2035253,"ts":"2022-10-02T05:47:26Z","tz":1,"tags":{"name":"Altes Schloss (Holzgauer W. und Toni Schmid Ged. W.","natural":"cliff","sport":"climbing"}},"847229785":{"lat":50.035108,"lon":11.2032772,"ts":"2022-10-02T05:47:26Z","tz":1,"tags":{"name":"Luisenwand","natural":"cliff","sport":"climbing"}},"943771162":{"lat":50.0426236,"lon":11.2178641,"ts":"2024-12-21T18:31:04Z","tz":1,"tags":{"climbing":"crag","climbing:sport":"yes","natural":"cliff"}},"943789171":{"lat":50.0428694,"lon":11.2193561,"ts":"2022-06-21T18:07:31Z","tz":1,"tags":{"climbing:orientation":"SE","climbing:quality":"solid","climbing:rock":"limestone","climbing:sport":"yes","name":"Weihersmühler Wand","natural":"cliff","sport":"climbing"}},"975931668":{"lat":50.057331,"lon":11.1577878,"ts":"2021-09-20T12:41:04Z","tz":1,"tags":{"climbing:rock":"yes","name":"Eichiger Felszwillinge","natural":"cliff","sport":"climbing"}},"998305632":{"lat":49.994738,"lon":11.1840503,"ts":"2018-08-03T05:47:46Z","tz":1,"tags":{"name":"Boulder","sport":"climbing"}},"998305859":{"lat":49.9898473,"lon":11.187976,"ts":"2022-05-31T18:29:46Z","tz":1,"tags":{"name":"Wüstenstein","natural":"rock","sport":"climbing","tourism":"attraction"}},"1017259007":{"lat":49.9705065,"lon":11.188413,"ts":"2023-10-26T09:47:11Z","tz":1,"tags":{"climbing:sport":"yes","height":"18","name":"Treunitzer Wand","natural":"cliff","sport":"climbing"}},"1024001246":{"lat":49.8692134,"lon":11.1361067,"ts":"2022-01-23T18:35:51Z","tz":1,"tags":{"climbing":"crag","name":"Burggruber Block","natural":"cliff","sport":"climbing"}},"1077041724":{"lat":50.0211949,"lon":11.0650224,"ts":"2011-01-01T15:54:20Z","tz":1,"tags":{"name":"Katzenbuckel","sport":"climbing"}},"1127961119":{"lat":49.8417171,"lon":11.1921233,"ts":"2023-01-07T07:28:57Z","tz":1,"tags":{"climbing":"crag","name":"Leo-Maduschka-Gedächtnis-Wand","natural":"cliff","source":"extrapolation","sport":"climbing"}},"1127961120":{"lat":49.8422714,"lon":11.1926674,"ts":"2023-01-07T07:28:57Z","tz":1,"tags":{"climbing":"crag","name":"Totenstein","natural":"cliff","source":"extrapolation","sport":"climbing"}},"1460574189":{"lat":50.0246393,"lon":11.0960037,"ts":"2017-06-10T16:58:59Z","tz":1,"tags":{"climbing:rock":"yes","name":"Bindelweg/Bindelwand","sport":"climbing"}},"2319490089":{"lat":49.8408806,"lon":11.2074007,"ts":"2021-08-09T06:26:05Z","tz":1,"tags":{"climbing":"crag","climbing:sport":"yes","name":"Leidingshofer Wand","natural":"cliff","sport":"climbing"}},"2700399278":{"lat":50.0515057,"lon":11.1964738,"ts":"2023-08-20T13:53:29Z","tz":1,"tags":{"climbing:grade:uiaa":"6-8","name":"Klettern Köttelergrund","sport":"climbing"}},"4428167711":{"lat":49.9810781,"lon":11.0989217,"ts":"2025-01-11T20:05:07Z","tz":1,"tags":{"climbing":"crag","description":"Klettergipfel","name":"Nürnberger Turm","natural":"peak","sport":"climbing"}},"4428167724":{"lat":49.9813911,"lon":11.0988542,"ts":"2025-01-11T20:05:07Z","tz":1,"tags":{"climbing":"crag","description":"Kletterwand","name":"Dolomit","natural":"peak","sport":"climbing"}},"4428168214":{"lat":49.981786,"lon":11.0992369,"ts":"2025-01-11T20:05:07Z","tz":1,"tags":{"climbing":"crag","description":"Kletterwand","name":"Edelweißwand","natural":"peak","sport":"climbing"}},"4428168215":{"lat":49.9820445,"lon":11.0991525,"ts":"2025-01-11T20:05:07Z","tz":1,"tags":{"climbing":"crag","description":"Kletterwand","name":"Fiechtlwand","natural":"peak","sport":"climbing"}},"4431494276":{"lat":49.9781256,"lon":11.101282,"ts":"2025-01-11T20:05:07Z","tz":1,"tags":{"climbing":"crag","name":"Wacholderspitze","natural":"peak","sport":"climbing"}},"4795530894":{"lat":50.0085359,"lon":11.0818565,"ts":"2023-01-08T08:14:11Z","tz":1,"tags":{"name":"Kl. Stübiger Turm","natural":"peak","note":"offiziell \"Kleiner Roter Stein\"","sport":"climbing"}},"4795530895":{"lat":50.0089205,"lon":11.0820292,"ts":"2023-01-08T08:14:11Z","tz":1,"tags":{"name":"Großer Stübiger Turm","natural":"peak","note":"offiziell \"Großer Roter Stein\"","sport":"climbing"}},"4841698224":{"lat":50.0322167,"lon":11.11885,"ts":"2017-05-08T13:23:36Z","tz":1,"tags":{"climbing:rock":"limestone","climbing:sport":"yes","name":"Wattendorfer Wand","natural":"cliff","sport":"climbing"}},"4841702995":{"lat":50.0300278,"lon":11.1144149,"ts":"2017-05-08T13:27:22Z","tz":1,"tags":{"climbing:rock":"limestone","climbing:sport":"yes","name":"Juraeck","natural":"rock","sport":"climbing"}},"4841714917":{"lat":50.027072,"lon":11.1090281,"ts":"2017-05-08T13:34:54Z","tz":1,"tags":{"climbing:rock":"limestone","climbing:sport":"yes","name":"Alpenvereinswand","natural":"cliff","sport":"climbing"}},"4841714918":{"lat":50.0277792,"lon":11.1140582,"ts":"2017-05-08T13:34:54Z","tz":1,"tags":{"climbing:rock":"limestone","climbing:sport":"yes","name":"Falkenwand","natural":"cliff","sport":"climbing"}},"4841720738":{"lat":50.0272838,"lon":11.109477,"ts":"2017-05-08T13:37:17Z","tz":1,"tags":{"climbing:rock":"limestone","climbing:sport":"yes","name":"Coburger Wand","natural":"cliff","sport":"climbing"}},"4841729922":{"lat":50.0329092,"lon":11.0914545,"ts":"2017-05-08T13:42:45Z","tz":1,"tags":{"climbing:rock":"limestone","climbing:sport":"yes","name":"Eigerblock","natural":"rock","sport":"climbing"}},"4907855663":{"lat":50.0216225,"lon":11.0647676,"ts":"2018-03-14T10:18:11Z","tz":1,"tags":{"climbing:rock":"rock","name":"Katzenbuckel Hauptturm","sport":"climbing"}},"4907855665":{"lat":49.9994828,"lon":11.0844205,"ts":"2019-08-26T10:06:12Z","tz":1,"tags":{"climbing:rock":"yes","name":"Kleine Wand","sport":"climbing"}},"4907855675":{"lat":50.0486992,"lon":11.2035383,"ts":"2017-06-10T16:58:57Z","tz":1,"tags":{"climbing:rock":"yes","name":"Arnsteingrat","sport":"climbing"}},"4907855677":{"lat":49.9507174,"lon":11.0672648,"ts":"2017-06-10T16:58:57Z","tz":1,"tags":{"climbing:rock":"yes","name":"Gügel","sport":"climbing"}},"5003657422":{"lat":49.9185181,"lon":10.9184917,"ts":"2018-04-02T06:38:48Z","tz":1,"tags":{"contact:email":"bamberg@blockhelden.de","contact:phone":"+49 951 96863450","contact:website":"http://blockhelden.de/bamberg/","leisure":"sports_centre","name":"Blockhelden Bamberg","opening_hours":"09:00-23:00; Tu,Th 11:00-23:00","source":"http://blockhelden.de/kontakt-bamberg/","sport":"climbing","start_date":"2015-05-16"}},"6718820060":{"lat":49.977878,"lon":11.1921442,"ts":"2022-01-01T01:13:42Z","tz":1,"tags":{"height":"12","name":"Dachstein","natural":"cliff","sport":"climbing"}},"6718822049":{"lat":49.9774804,"lon":11.1964733,"ts":"2022-01-01T00:55:33Z","tz":1,"tags":{"height":"18m","name":"Lagerstein","natural":"rock","sport":"climbing","tourism":"attraction"}},"6718829319":{"lat":49.9745391,"lon":11.1940289,"ts":"2022-01-01T01:13:42Z","tz":1,"tags":{"description":"Zone Oblast","height":"12","name":"Vorderer Paradiestalwächter","natural":"cliff","sport":"climbing"}},"6774033386":{"lat":49.9803561,"lon":11.0988823,"ts":"2025-01-11T20:05:07Z","tz":1,"tags":{"climbing":"crag","name":"Würgauer Nadel","natural":"peak","sport":"climbing"}},"6774033387":{"lat":49.9805286,"lon":11.0989923,"ts":"2025-01-11T20:05:07Z","tz":1,"tags":{"climbing":"crag","name":"Würgauer Wand","natural":"peak","sport":"climbing"}},"6774033395":{"lat":49.9805882,"lon":11.098854,"ts":"2025-01-11T20:05:07Z","tz":1,"tags":{"climbing":"crag","name":"Bamberger Turm","natural":"peak","sport":"climbing"}},"6774033396":{"lat":49.9806764,"lon":11.0990881,"ts":"2025-01-11T20:05:07Z","tz":1,"tags":{"climbing":"crag","name":"Fermeda","natural":"peak","sport":"climbing"}},"6774033397":{"lat":49.9807596,"lon":11.0991313,"ts":"2025-01-11T20:05:07Z","tz":1,"tags":{"climbing":"crag","name":"Gewitterriß","natural":"peak","sport":"climbing"}},"6774033398":{"lat":49.9809676,"lon":11.0992957,"ts":"2025-01-19T20:40:07Z","tz":1,"tags":{"climbing":"crag","name":"Kreuzstein","natural":"peak","sport":"climbing"}},"6774033406":{"lat":49.9814639,"lon":11.0990727,"ts":"2025-01-11T20:05:07Z","tz":1,"tags":{"climbing":"crag","name":"Bayerl Gedenkwand","natural":"peak","sport":"climbing"}},"6774034535":{"lat":49.9769547,"lon":11.1024171,"ts":"2025-01-11T20:05:07Z","tz":1,"tags":{"climbing":"crag","name":"Würgauer Wändchen","natural":"peak","sport":"climbing"}},"6774041731":{"lat":49.9810801,"lon":11.099184,"ts":"2025-01-11T20:05:07Z","tz":1,"tags":{"climbing":"crag","name":"Bayreuther Wand","natural":"peak","sport":"climbing"}},"8739208448":{"lat":50.0449613,"lon":11.2323476,"ts":"2022-06-21T18:07:31Z","tz":1,"tags":{"climbing:rock":"limestone","climbing:sport":"yes","name":"Buchauer Wände","natural":"cliff","sport":"climbing"}},"8808258044":{"lat":49.8396962,"lon":11.0816382,"ts":"2023-03-19T18:38:42Z","tz":1,"tags":{"leisure":"pitch","name":"Frankendorfer Klettergarten - Landrichterseite","natural":"rock","sport":"climbing"}},"8991940736":{"lat":49.8413549,"lon":11.2007965,"ts":"2021-08-09T06:26:05Z","tz":1,"tags":{"climbing":"crag","name":"Edelweißblock","natural":"cliff","sport":"climbing"}},"8991940737":{"lat":49.8415054,"lon":11.2021975,"ts":"2021-08-09T06:26:05Z","tz":1,"tags":{"climbing":"crag","name":"Jugendturm","natural":"cliff","sport":"climbing"}},"8991951355":{"lat":49.8497532,"lon":11.2029532,"ts":"2021-08-09T06:36:44Z","tz":1,"tags":{"climbing":"crag","name":"Froschstein","natural":"cliff","sport":"climbing"}},"8991951356":{"lat":49.8437381,"lon":11.1898413,"ts":"2021-08-09T06:36:44Z","tz":1,"tags":{"climbing":"crag","name":"Nervenheilanstalt","natural":"cliff","sport":"climbing"}},"8991976045":{"lat":49.8652878,"lon":11.1302587,"ts":"2021-08-09T06:42:57Z","tz":1,"tags":{"climbing":"crag","name":"Feierabendwand","natural":"cliff","sport":"climbing"}},"8991976046":{"lat":49.8646859,"lon":11.1297207,"ts":"2021-08-09T06:42:57Z","tz":1,"tags":{"climbing":"crag","name":"Oberngruber Wand","natural":"cliff","sport":"climbing"}},"8991980337":{"lat":49.8381175,"lon":11.0692652,"ts":"2021-08-09T06:48:13Z","tz":1,"tags":{"climbing":"crag","name":"Frankendorfer Klettergarten - Dragonerwand","natural":"cliff","sport":"climbing"}},"9382877261":{"lat":49.9933763,"lon":11.1846747,"ts":"2022-01-01T00:27:38Z","tz":1,"tags":{"name":"Gänsestube","natural":"rock","sport":"climbing","tourism":"attraction"}},"10067923729":{"lat":50.0454101,"lon":11.2304631,"ts":"2022-10-02T06:35:49Z","tz":1,"tags":{"access:conditional":"no @ (feb 01 - jun 30)","description":"Kletterverbot per Verordnung vom 1.2.-30.7.","name":"Uhustein, Emporwand, Jörns 'Wand","natural":"cliff","sport":"climbing"}},"10067943929":{"lat":50.032452,"lon":11.20105,"ts":"2022-10-02T06:35:49Z","tz":1,"tags":{"access:conditional":"no @ (feb 01 - jun 30)","description":"Kletterverbot per Verordnung vom 1.2.-30.6.","name":"Hammerschmiedturm","natural":"cliff","sport":"climbing"}}}