{"18578703":{"lat":47.5863618,"lon":11.0606186,"ts":"2025-01-19T20:52:55Z","tz":1,"tags":{"climbing":"crag","name":"Kofel","sport":"climbing","type":"site"}},"18578704":{"lat":47.5828991,"lon":11.0625718,"ts":"2025-01-19T20:52:55Z","tz":1,"tags":{"name":"Oberammergauer Klettergärten","sport":"climbing","type":"site"}},"41202226":{"lat":47.6444022,"lon":11.0282583,"ts":"2023-07-17T13:56:34Z","tz":1,"tags":{"addr:city":"Saulgrub","addr:housename":"Ammertaler Hof","addr:housenumber":"10","addr:postcode":"82442","addr:street":"Alte Römerstraße","addr:suburb":"Wurmansau","alt_name":"Ammerrock","building":"yes","climbing:boulder":"yes","description":"Boulderhalle","indoor":"yes","internet_access":"wlan","internet_access:fee":"no","leisure":"sports_centre","name":"Ammertaler Hof","opening_hours":"Mo-Fr 08:00-22:00; Sa-Su 11:00-22:00","phone":"+49 (0)8845-758942","smoking":"outside","sport":"climbing","takeaway":"yes","tourism":"guest_house","website":"https://www.ammerrock.de/gaststaette/","wheelchair":"no"}},"243627319":{"lat":47.5814391,"lon":11.0670574,"ts":"2020-09-11T22:41:11Z","tz":1,"tags":{"climbing:bolted":"4","climbing:grade:uiaa:max":"7+","climbing:grade:uiaa:min":"3","climbing:length:max":"80","climbing:multipitch":"yes","climbing:orientation":"SE","climbing:rock":"limestone","climbing:routes":"25","climbing:sport":"yes","name":"Frauenwasserl","natural":"cliff","sport":"climbing"}},"317951351":{"lat":47.5756949,"lon":11.1612308,"ts":"2020-09-11T22:41:11Z","tz":1,"tags":{"climbing:grade:uiaa:max":"10","climbing:grade:uiaa:mean":"8+","climbing:grade:uiaa:min":"4+","climbing:length:max":"30","climbing:rock":"limestone","climbing:sport":"yes","name":"Hänga Stoa","natural":"cliff","sport":"climbing"}},"419832258":{"lat":47.5792331,"lon":11.0621536,"ts":"2025-01-19T20:52:55Z","tz":1,"tags":{"climbing":"crag","name":"Falkenwand","natural":"bare_rock","sport":"climbing"}},"461918513":{"lat":47.5797561,"lon":11.0809907,"ts":"2016-12-26T16:44:56Z","tz":1,"tags":{"climbing:bolted":"yes","climbing:orientation":"S,SW","climbing:quality":"solid","climbing:rock":"limestone","climbing:sport":"yes","name":"Kraxentrager","natural":"cliff","sport":"climbing"}},"461918514":{"lat":47.5797032,"lon":11.0805374,"ts":"2016-12-26T16:44:56Z","tz":1,"tags":{"climbing:bolted":"yes","climbing:orientation":"S,SW","climbing:quality":"solid","climbing:rock":"limestone","climbing:sport":"yes","name":"Kraxentrager","natural":"cliff","sport":"climbing"}},"461918515":{"lat":47.5802775,"lon":11.0854234,"ts":"2016-12-26T16:24:47Z","tz":1,"tags":{"climbing:bolted":"yes","climbing:orientation":"S,SO","climbing:quality":"solid","climbing:rock":"limestone","climbing:sport":"yes","name":"Little Paradise","natural":"cliff","sport":"climbing"}},"720108957":{"lat":47.5888917,"lon":11.0556632,"ts":"2020-09-11T22:41:11Z","tz":1,"tags":{"climbing":"route","climbing:grade:uiaa":"4","climbing:orientation":"NW","climbing:pitches":"1","climbing:rock":"limestone","climbing:toprope":"no","highway":"via_ferrata","ladder":"yes","name":"Leiter: Zustieg zur Norwegerwand","sport":"climbing"}},"741643780":{"lat":47.5875774,"lon":11.0813051,"ts":"2025-01-19T20:55:30Z","tz":1,"tags":{"climbing":"crag","climbing:bolted":"yes","climbing:length:max":"30","climbing:rock":"limestone","climbing:routes":"21","climbing:sport":"yes","name":"Schaffelberg","natural":"cliff","sport":"climbing"}},"746610311":{"lat":47.5863618,"lon":11.0599511,"ts":"2025-01-19T20:52:55Z","tz":1,"tags":{"climbing":"route","climbing:grade:uiaa":"4-","climbing:pitches":"3","name":"Linke Achsel","sport":"climbing"}},"807521365":{"lat":47.5836666,"lon":11.0752708,"ts":"2020-09-11T22:41:11Z","tz":1,"tags":{"climbing:grade:uiaa:max":"9","climbing:grade:uiaa:min":"6-","climbing:length:max":"70","climbing:orientation":"NW","climbing:rock":"limestone","climbing:routes":"10","climbing:sport":"yes","name":"Bärenhöhle","natural":"cliff","sport":"climbing"}},"835870658":{"lat":47.5819135,"lon":11.0674979,"ts":"2020-09-11T22:41:11Z","tz":1,"tags":{"climbing:grade:uiaa:max":"10-","climbing:grade:uiaa:min":"7-","climbing:length":"10","climbing:length:max":"12","climbing:orientation":"SE","climbing:rock":"limestone","climbing:routes":"11","climbing:sport":"yes","name":"Frauenwasserl Obelix","natural":"cliff","sport":"climbing"}},"1204183563":{"lat":47.6261084,"lon":11.2467982,"ts":"2023-08-08T10:03:27Z","tz":1,"tags":{"leisure":"pitch","name":"Kletterwand Veste","sport":"climbing","surface":"ground"}},"5334693989":{"lat":47.5877551,"lon":11.0802374,"ts":"2025-01-19T20:55:30Z","tz":1,"tags":{"climbing":"crag","climbing:bolted":"yes","climbing:rock":"limestone","natural":"cliff","sport":"climbing"}},"6758673340":{"lat":47.5887307,"lon":11.0565001,"ts":"2020-10-28T09:54:24Z","tz":1,"tags":{"access":"yes","climbing:grade:french:mean":"7b","climbing:orientation":"NW","climbing:rock":"limestone","climbing:sport":"yes","ele":"1000","name":"Norwegerwand","natural":"bare_rock","sport":"climbing"}},"7008643793":{"lat":47.586808,"lon":11.0575888,"ts":"2025-01-19T20:52:55Z","tz":1,"tags":{"access":"yes","climbing":"crag","climbing:rock":"limestone","climbing:sport":"yes","fixme":"exact position","name":"Kofelturm","sport":"climbing"}},"7240858170":{"lat":47.5984084,"lon":11.2006433,"ts":"2020-02-24T20:20:18Z","tz":1,"tags":{"sport":"climbing"}},"7801911479":{"lat":47.5824612,"lon":11.0675548,"ts":"2025-01-19T20:52:55Z","tz":1,"tags":{"climbing":"crag","climbing:grade:uiaa:max":"9","climbing:grade:uiaa:min":"6-","climbing:orientation":"SE","climbing:rock":"limestone","climbing:routes":"7","climbing:sport":"yes","name":"Frauenwasserl Nasser Riß","natural":"cliff","sport":"climbing"}},"7883995416":{"lat":47.5813108,"lon":11.0668295,"ts":"2025-01-19T20:52:55Z","tz":1,"tags":{"climbing":"crag","name":"Klettergarten Frauenwasser","natural":"rock","sport":"climbing"}},"7884006618":{"lat":47.5838174,"lon":11.0753307,"ts":"2021-05-05T18:29:56Z","tz":1,"tags":{"name":"Klettergarten Bärenhöhle","natural":"rock","sport":"climbing"}},"8396962091":{"lat":47.5806176,"lon":11.095721,"ts":"2021-02-05T17:50:29Z","tz":1,"tags":{"name":"Laberdolomiten: Zentralbereich Südseite links","sport":"climbing"}},"8396973432":{"lat":47.5805544,"lon":11.0962923,"ts":"2021-02-05T17:50:29Z","tz":1,"tags":{"name":"Laberdolomiten: Zentralbereich Südseite rechts","sport":"climbing"}},"8422363638":{"lat":47.5862506,"lon":11.0617101,"ts":"2025-01-19T20:52:55Z","tz":1,"tags":{"climbing":"crag","name":"Kofel: Sektor Südwand Unterer Teil","sport":"climbing"}},"8440184565":{"lat":47.580252,"lon":11.0789076,"ts":"2021-02-20T09:23:10Z","tz":1,"tags":{"name":"Gamswand","sport":"climbing"}},"9924408420":{"lat":47.5874859,"lon":11.0548073,"ts":"2022-08-01T10:05:52Z","tz":1,"tags":{"name":"Marxersteig","sport":"climbing"}},"10204452485":{"lat":47.5450759,"lon":11.1434282,"ts":"2022-11-20T17:43:12Z","tz":1,"tags":{"fixme":"exact position","sport":"climbing"}}}