{"8550552":{"lat":45.9968284,"lon":10.9133121,"ts":"2023-05-17T14:48:51Z","tz":1,"tags":{"climbing":"area","name":"Grande Placconata","natural":"scree","sport":"climbing"}},"15866267":{"lat":45.999583,"lon":10.9184146,"ts":"2023-05-17T14:48:51Z","tz":1,"tags":{"climbing":"area","name":"Placche Zebrate","natural":"bare_rock","sport":"climbing"}},"15866268":{"lat":46.0046514,"lon":10.921294,"ts":"2023-05-17T14:48:51Z","tz":1,"tags":{"climbing":"area","name":"Pala delle Lastiele","natural":"bare_rock","sport":"climbing"}},"15866269":{"lat":46.0021995,"lon":10.9163718,"ts":"2023-05-17T14:48:51Z","tz":1,"tags":{"climbing":"area","name":"Parete Est","natural":"bare_rock","sport":"climbing"}},"29180255":{"lat":46.0725857,"lon":11.1856532,"ts":"2016-05-30T15:22:29Z","tz":1,"tags":{"name":"Celva","natural":"cliff","sport":"climbing"}},"242743640":{"lat":46.0479081,"lon":10.946198,"ts":"2013-10-19T19:20:26Z","tz":1,"tags":{"name":"Parete del Limarò","natural":"cliff","sport":"climbing"}},"268795930":{"lat":46.0272322,"lon":10.9712019,"ts":"2022-04-01T12:44:04Z","tz":1,"tags":{"leisure":"sports_centre","name":"Falesia S.Siro","sport":"climbing"}},"268797932":{"lat":46.0102793,"lon":10.9751067,"ts":"2021-06-06T18:27:29Z","tz":1,"tags":{"name":"Area arrampicata attrezzata","name:en":"Outdoor, bolted climbing wall","sport":"climbing"}},"293114875":{"lat":46.0595994,"lon":10.9612606,"ts":"2022-04-01T13:10:07Z","tz":1,"tags":{"leisure":"sports_centre","name":"La Gola","sport":"climbing"}},"293114876":{"lat":46.0593264,"lon":10.9670808,"ts":"2019-04-03T10:48:28Z","tz":1,"tags":{"leisure":"sports_centre","name":"Falesia La Gola - Pezzent Area","sport":"climbing"}},"343876764":{"lat":45.9910614,"lon":10.9052466,"ts":"2024-07-30T15:23:58Z","tz":1,"tags":{"climbing":"route","climbing:grade:uiaa":"5","climbing:length":"900","climbing:pitches":"20","highway":"footway","name":"Via Boomerang","source":"survey"}},"374714285":{"lat":45.9794818,"lon":10.9472922,"ts":"2015-10-10T15:17:33Z","tz":1,"tags":{"name":"Area 51 - Nikolas Tesla","natural":"cliff","sport":"climbing"}},"374758444":{"lat":45.977657,"lon":10.9466071,"ts":"2015-10-10T22:00:09Z","tz":1,"tags":{"name":"Area 51","natural":"cliff","sport":"climbing"}},"381246766":{"lat":45.9916291,"lon":10.9261872,"ts":"2020-12-26T17:59:29Z","tz":1,"tags":{"climbing:boulder":"yes","name":"Masso Lorenzo","natural":"stone","sport":"climbing"}},"381246945":{"lat":45.9913552,"lon":10.9257076,"ts":"2015-11-19T16:12:53Z","tz":1,"tags":{"climbing:boulder":"yes","name":"Masso Elena","natural":"stone","sport":"climbing"}},"386318324":{"lat":46.0406286,"lon":11.0557115,"ts":"2022-08-21T19:01:46Z","tz":1,"tags":{"climbing":"crag","climbing:bolted":"yes","climbing:grade:french:max":"7b","climbing:grade:french:min":"3a","climbing:quality":"solid","fee":"no","name":"Palestra di roccia Rita e Giorgio Graffer","natural":"cliff","sport":"climbing"}},"419953267":{"lat":45.9749598,"lon":10.9143835,"ts":"2024-11-25T09:04:04Z","tz":1,"tags":{"climbing":"route","climbing:grade:uiaa":"4+","climbing:length":"40","climbing:multipitch":"9","highway":"path","name":"La Bellezza della Venere","opening_hours":"24/7","outdoor":"yes"}},"419955514":{"lat":45.9953472,"lon":10.9162984,"ts":"2023-05-17T14:48:51Z","tz":1,"tags":{"climbing":"route","name":"Gino Gianna","sport":"climbing"}},"419955515":{"lat":45.9956345,"lon":10.9165713,"ts":"2023-05-17T14:48:51Z","tz":1,"tags":{"climbing":"route","name":"Man Ilia","sport":"climbing"}},"421826836":{"lat":46.072719,"lon":11.1845902,"ts":"2016-05-30T15:22:26Z","tz":1,"tags":{"name":"Celva","natural":"cliff","sport":"climbing"}},"421826843":{"lat":46.072752,"lon":11.1841729,"ts":"2016-05-30T15:22:26Z","tz":1,"tags":{"name":"Celva","natural":"cliff","sport":"climbing"}},"463125573":{"lat":45.8716104,"lon":11.0382399,"ts":"2021-05-27T15:49:29Z","tz":1,"tags":{"climbing:length":"30 m","climbing:trad":"yes","name":"Val Scodella","natural":"cliff","sport":"climbing"}},"498085555":{"lat":45.9274913,"lon":10.900272,"ts":"2024-03-05T17:53:40Z","tz":1,"tags":{"climbing:bolted":"yes","climbing:rock":"limestone","climbing:sport":"yes","name":"Falesia Family San Martino","natural":"cliff","ref":"Settore B","sport":"climbing","website":"https://maps.gardatrentino.it/it/tour/arrampicata/falesia-family-san-martino-17-itinerari-da-3a-al-6b/15370339/"}},"521438971":{"lat":45.8722891,"lon":11.0406384,"ts":"2017-09-05T06:00:21Z","tz":1,"tags":{"name":"Val Scodella","natural":"cliff","sport":"climbing"}},"521438973":{"lat":45.8722071,"lon":11.0377702,"ts":"2017-09-05T12:18:10Z","tz":1,"tags":{"natural":"cliff","sport":"climbing"}},"593708640":{"lat":46.0706826,"lon":10.9042495,"ts":"2024-11-12T18:42:39Z","tz":1,"tags":{"name":"Promeghin","natural":"cliff","sport":"climbing"}},"637580468":{"lat":45.8798419,"lon":11.1009832,"ts":"2023-01-06T15:14:27Z","tz":1,"tags":{"name":"Falesia Di Cisterna","natural":"cliff","sport":"climbing"}},"641511741":{"lat":45.9278537,"lon":10.900303,"ts":"2024-03-07T16:18:20Z","tz":1,"tags":{"climbing:bolted":"yes","climbing:rock":"limestone","climbing:sport":"yes","name":"Falesia Family San Martino","natural":"cliff","ref":"Settore A","sport":"climbing","website":"https://maps.gardatrentino.it/it/tour/arrampicata/falesia-family-san-martino-17-itinerari-da-3a-al-6b/15370339/"}},"650658557":{"lat":46.0554377,"lon":10.9595857,"ts":"2019-04-15T14:09:40Z","tz":1,"tags":{"natural":"cliff","sport":"climbing"}},"704192508":{"lat":46.0653061,"lon":10.9115439,"ts":"2024-08-13T20:43:57Z","tz":1,"tags":{"climbing:orientation":"SSE","climbing:rock":"conglomerate","climbing:sport":"yes","name":"Falesia Dimenticata","natural":"cliff","sport":"climbing","url":"https://www.dolomiti-open.org/come-arrivare"}},"753933995":{"lat":45.9185095,"lon":10.9148496,"ts":"2024-04-21T14:10:07Z","tz":1,"tags":{"name":"Parete dell'Ir Inferiore","natural":"cliff","sport":"climbing"}},"753933996":{"lat":45.9186823,"lon":10.9188858,"ts":"2024-04-21T14:10:07Z","tz":1,"tags":{"name":"Parete dell'Ir Superiore","natural":"cliff","sport":"climbing"}},"765601126":{"lat":46.0607887,"lon":10.9252807,"ts":"2024-12-02T11:04:59Z","tz":1,"tags":{"leisure":"sports_centre","name":"Parco di arrampicata \"Limarock\"","name:de":"Klettergarten \"Limarock\"","sport":"climbing"}},"765601128":{"lat":46.0474486,"lon":10.9461358,"ts":"2022-10-15T08:50:03Z","tz":1,"tags":{"leisure":"sports_centre","name":"Limarò","sport":"climbing"}},"825755490":{"lat":45.9600614,"lon":10.9345931,"ts":"2022-07-11T13:42:24Z","tz":1,"tags":{"name":"Excalibur","natural":"cliff","sport":"climbing"}},"944288551":{"lat":45.889534,"lon":11.0589033,"ts":"2020-05-05T13:36:42Z","tz":1,"tags":{"name":"Noriglio","sport":"climbing"}},"1062812645":{"lat":45.9540925,"lon":10.9204979,"ts":"2022-05-23T07:09:06Z","tz":1,"tags":{"name":"Dimensione terzo","sport":"climbing"}},"1174008806":{"lat":45.9915542,"lon":10.9256581,"ts":"2023-06-07T15:15:54Z","tz":1,"tags":{"leisure":"sports_centre","name":"Massi di Gaggiolo","sport":"climbing"}},"1174009685":{"lat":46.0093828,"lon":10.9266995,"ts":"2023-12-28T08:07:36Z","tz":1,"tags":{"name":"Pian dela Paia","sport":"climbing"}},"1174010888":{"lat":46.0148164,"lon":10.9296642,"ts":"2023-12-28T08:14:12Z","tz":1,"tags":{"name":"Transatlantico","sport":"climbing"}},"1174013432":{"lat":46.0188101,"lon":10.9346774,"ts":"2023-12-28T08:14:12Z","tz":1,"tags":{"name":"Camerette","sport":"climbing"}},"1174013433":{"lat":46.0203839,"lon":10.9348154,"ts":"2023-12-28T08:14:12Z","tz":1,"tags":{"name":"Murro di Chitarra","sport":"climbing"}},"1174013434":{"lat":46.0214431,"lon":10.9350286,"ts":"2023-12-28T08:14:12Z","tz":1,"tags":{"name":"Baule","sport":"climbing"}},"1174013435":{"lat":46.0223871,"lon":10.9364924,"ts":"2023-06-07T15:07:40Z","tz":1,"tags":{"building":"no","leisure":"sports_centre","name":"Torre di Pietramurata","sport":"climbing"}},"1174013436":{"lat":46.0226556,"lon":10.9371032,"ts":"2023-12-28T08:14:12Z","tz":1,"tags":{"name":"Giardino di Nato","sport":"climbing"}},"1221416519":{"lat":46.0726964,"lon":10.9800576,"ts":"2023-11-05T20:55:05Z","tz":1,"tags":{"climbing:rock":"limestone","climbing:sport":"yes","name":"Giardino delle Occasioni Perdute","natural":"cliff","sport":"climbing"}},"1268693537":{"lat":45.8566531,"lon":10.9797379,"ts":"2024-04-03T14:40:00Z","tz":1,"tags":{"climbing":"boulder","name":"Parco Boulder Montalbano","website":"https://www.sat-mori.it/sezione/parco-boulder/"}},"1342362479":{"lat":45.8772852,"lon":11.0469324,"ts":"2024-12-20T20:51:43Z","tz":1,"tags":{"fixme":"shape","leisure":"sports_centre","name":"La Campana","sport":"climbing"}},"1438773974":{"lat":45.8865459,"lon":11.1574151,"ts":"2019-04-03T10:57:35Z","tz":1,"tags":{"leisure":"sports_centre","name":"Falesia di Serrada","sport":"climbing"}},"1725739819":{"lat":45.9288982,"lon":10.9028897,"ts":"2021-09-01T17:46:41Z","tz":1,"tags":{"check_date":"2021-09-01","description":"Bosco Caproni","information":"map","map_size":"site","map_type":"scheme","name":"Bosco Caproni","sport":"climbing","tourism":"information"}},"1831866724":{"lat":45.932932,"lon":11.0394778,"ts":"2012-07-20T09:26:01Z","tz":1,"tags":{"sport":"climbing"}},"1887588770":{"lat":45.8763731,"lon":11.0471041,"ts":"2024-03-10T20:12:47Z","tz":1,"tags":{"sport":"climbing"}},"1950602797":{"lat":45.9209879,"lon":10.9984228,"ts":"2017-08-23T15:51:14Z","tz":1,"tags":{"sport":"climbing"}},"2081539344":{"lat":45.8737433,"lon":10.9096362,"ts":"2022-12-23T18:03:37Z","tz":1,"tags":{"climbing:boulder":"yes","sport":"climbing"}},"2194569436":{"lat":46.0279392,"lon":10.9460088,"ts":"2022-11-26T13:13:51Z","tz":1,"tags":{"climbing:boulder":"yes","leisure":"sports_centre","name":"Campfour Boulder","sport":"climbing","wheelchair":"yes"}},"2200290913":{"lat":46.0279922,"lon":10.9699262,"ts":"2022-04-01T12:44:04Z","tz":1,"tags":{"leisure":"sports_centre","name":"Falesia S.Siro","sport":"climbing"}},"2338603983":{"lat":45.9291847,"lon":10.9025846,"ts":"2022-04-01T12:55:19Z","tz":1,"tags":{"leisure":"sports_centre","name":"Falesia Massone Policromuro","sport":"climbing"}},"2410390011":{"lat":46.0366736,"lon":11.1540893,"ts":"2020-09-11T22:41:11Z","tz":1,"tags":{"climbing:bolted":"yes","climbing:boulder":"no","climbing:deepwater":"no","climbing:grade:uiaa:max":"VII","climbing:grade:uiaa:min":"III","climbing:ice":"no","climbing:length:max":"30","climbing:length:min":"7","climbing:mixed":"no","climbing:multipitch":"no","climbing:sport":"yes","name":"Palestra di roccia Bindesi","sport":"climbing","url":"http://www.trekking-etc.it/etc/trekking/it/treks/europe/it/tn/trento/marzola/palestra-dei-bindesi/palestra-di-roccia/poi.html"}},"2450460580":{"lat":45.9746947,"lon":10.9153806,"ts":"2018-11-18T21:29:12Z","tz":1,"tags":{"climbing":"route_bottom","name":"La Bellezza della Venere"}},"2641465725":{"lat":46.046605,"lon":11.1332747,"ts":"2024-09-30T20:55:55Z","tz":1,"tags":{"addr:city":"Trento","addr:housenumber":"88","addr:postcode":"38123","addr:street":"Via della Malpensada","contact:facebook":"https://www.facebook.com/p/Sanbapolis-100063789660749","contact:instagram":"sanbapolis","contact:phone":"+39 0461 217478","contact:website":"https://www.operauni.tn.it/palestradiroccia/","fee":"yes","leisure":"sports_centre","level":"-1","name":"Palestra di roccia Sanbàpolis","opening_hours":"Mo-Su 09:00-23:00","operator":"Opera Universitaria","sport":"climbing"}},"2876402386":{"lat":45.921955,"lon":11.0128371,"ts":"2014-05-25T06:02:47Z","tz":1,"tags":{"climbing:sport":"2","name":"La Zolina","sport":"climbing"}},"3265428590":{"lat":45.8840786,"lon":10.9066521,"ts":"2015-01-02T15:02:17Z","tz":1,"tags":{"sport":"climbing"}},"3299243508":{"lat":45.8734995,"lon":10.9270299,"ts":"2019-05-13T11:29:04Z","tz":1,"tags":{"name":"Palestra di Roccia","sport":"climbing"}},"3369037366":{"lat":45.8677096,"lon":10.9518386,"ts":"2015-02-23T21:05:10Z","tz":1,"tags":{"name":"Palestra di roccia","sport":"climbing"}},"3464870829":{"lat":46.0597275,"lon":10.9666468,"ts":"2019-04-03T10:48:28Z","tz":1,"tags":{"leisure":"sports_centre","name":"Falesia La Gola - Arcadioland","sport":"climbing"}},"3470008090":{"lat":46.047487,"lon":10.9459936,"ts":"2022-04-01T12:42:32Z","tz":1,"tags":{"leisure":"sports_centre","name":"Piccolo Dain - Parete della Centrale","sport":"climbing"}},"3506636837":{"lat":45.9900002,"lon":10.9064789,"ts":"2015-05-09T09:16:35Z","tz":1,"tags":{"climbing":"route_bottom","ele":"692","name":"Via Boomerang","source":"survey"}},"3506636838":{"lat":45.9919415,"lon":10.9040142,"ts":"2015-05-09T09:16:35Z","tz":1,"tags":{"climbing":"route_top","ele":"1215","name":"Via Boomerang","source":"survey"}},"3570249399":{"lat":45.8857125,"lon":10.911836,"ts":"2022-04-01T13:24:01Z","tz":1,"tags":{"leisure":"sports_centre","name":"Palestra Naranc","sport":"climbing"}},"3583918547":{"lat":45.9542617,"lon":10.9205502,"ts":"2015-06-09T17:33:49Z","tz":1,"tags":{"name":"Lastoni di Dro","name:it":"Lastoni di Dro","sport":"climbing"}},"3599269560":{"lat":45.9026546,"lon":10.9557093,"ts":"2015-06-16T18:42:03Z","tz":1,"tags":{"sport":"climbing"}},"3780773642":{"lat":45.9795231,"lon":10.9472034,"ts":"2015-10-10T12:43:19Z","tz":1,"tags":{"name":"Nikolas Tesla","sport":"climbing"}},"3976203459":{"lat":45.8751919,"lon":10.9128276,"ts":"2016-01-29T15:48:20Z","tz":1,"tags":{"sport":"climbing"}},"4018391160":{"lat":45.857271,"lon":10.980794,"ts":"2016-02-21T19:46:58Z","tz":1,"tags":{"name":"Sas dei 4 pini","natural":"stone","sport":"climbing"}},"4171979698":{"lat":45.944746,"lon":10.8999947,"ts":"2021-08-27T06:16:07Z","tz":1,"tags":{"access":"yes","climbing:grade:french:mean":"8a+","climbing:sport":"yes","name":"Zauberfee","sport":"climbing"}},"4175487130":{"lat":45.9452617,"lon":10.9002277,"ts":"2016-05-10T06:43:58Z","tz":1,"tags":{"access":"yes","climbing:grade:french:mean":"8a+","climbing:sport":"yes","name":"Demetra","sport":"climbing"}},"4175487131":{"lat":45.9453701,"lon":10.9002677,"ts":"2018-10-12T12:27:46Z","tz":1,"tags":{"climbing:grade:french:mean":"VI+","climbing:multipitch":"yes","climbing:sport":"yes","name":"Nereidi","outdoor":"no","sport":"climbing"}},"4187041689":{"lat":45.9760742,"lon":10.9153476,"ts":"2018-11-11T17:16:13Z","tz":1,"tags":{"climbing":"crag","climbing:multipitch":"4","name":"Parete di Sherwood","sport":"climbing"}},"4187041861":{"lat":45.9732977,"lon":10.9145242,"ts":"2016-05-15T10:02:07Z","tz":1,"tags":{"sport":"climbing"}},"4187041959":{"lat":45.9760398,"lon":10.9152805,"ts":"2018-11-11T17:16:13Z","tz":1,"tags":{"climbing":"route_bottom","climbing:grade:french":"5c","climbing:pitches":"4","name":"Sceriffo di Nottingham"}},"4187041978":{"lat":45.9762886,"lon":10.9153771,"ts":"2018-11-11T17:16:13Z","tz":1,"tags":{"climbing":"route_bottom","climbing:grade:french":"5b","climbing:pitches":"4","name":"Little John"}},"4189004864":{"lat":46.0130516,"lon":10.9300113,"ts":"2022-04-01T12:40:20Z","tz":1,"tags":{"leisure":"sports_centre","name":"Via Alessandro Avancini","sport":"climbing"}},"4199421181":{"lat":45.995096,"lon":10.9167551,"ts":"2023-05-17T14:48:51Z","tz":1,"tags":{"climbing":"route_bottom","name":"Gino Gianna","sport":"climbing"}},"4199421188":{"lat":45.9954854,"lon":10.9172406,"ts":"2023-05-17T14:48:51Z","tz":1,"tags":{"climbing":"route_bottom","name":"Man Ilia","sport":"climbing"}},"4215597751":{"lat":46.0725459,"lon":11.1859247,"ts":"2023-05-17T13:38:45Z","tz":1,"tags":{"leisure":"sports_centre","name":"Falesia Celva","sport":"climbing"}},"4597900600":{"lat":45.9432901,"lon":11.0657594,"ts":"2023-06-16T06:39:11Z","tz":1,"tags":{"name":"Falesia \"Servis\"","sport":"climbing","surface":"rock"}},"4849878057":{"lat":45.9439639,"lon":10.8996901,"ts":"2017-05-12T15:53:58Z","tz":1,"tags":{"access":"yes","climbing:grade:french:mean":"6b","climbing:sport":"yes","name":"Porci con le Ali","sport":"climbing"}},"4895732825":{"lat":45.9300762,"lon":10.9038213,"ts":"2022-04-01T12:55:19Z","tz":1,"tags":{"leisure":"sports_centre","name":"Falesia Abissi","sport":"climbing"}},"5148331682":{"lat":45.9771843,"lon":10.9148779,"ts":"2022-04-01T12:29:47Z","tz":1,"tags":{"climbing":"route_bottom","climbing:grade:uiaa":"7-","leisure":"sports_centre","name":"Dinosauri","sport":"climbing"}},"5264270906":{"lat":46.037935,"lon":10.9918905,"ts":"2019-12-22T19:08:06Z","tz":1,"tags":{"name":"Falesia Castel Madruzzo","sport":"climbing"}},"5663265081":{"lat":46.0709772,"lon":10.9047434,"ts":"2019-12-22T19:10:25Z","tz":1,"tags":{"name":"Falesia Promeghin","sport":"climbing"}},"5714743734":{"lat":46.0663462,"lon":11.0995015,"ts":"2018-06-24T08:27:24Z","tz":1,"tags":{"sport":"climbing"}},"5846340893":{"lat":45.9740559,"lon":10.9149388,"ts":"2022-04-01T12:44:49Z","tz":1,"tags":{"climbing":"route_bottom","climbing:grade:uiaa":"7 / 6,A0","climbing:multipitch":"11"}},"6052997606":{"lat":45.9743717,"lon":10.9151155,"ts":"2024-08-01T22:13:36Z","tz":1,"tags":{"climbing":"route_bottom","climbing:grade:uiaa":"5+/6","climbing:multipitch":"13","leisure":"sports_centre","name":"Il Mercurio serpeggiante","sport":"climbing"}},"6052997627":{"lat":45.9750875,"lon":10.9150189,"ts":"2022-04-01T12:29:47Z","tz":1,"tags":{"climbing":"route_bottom","climbing:grade:uiaa":"7","climbing:multipitch":"10","leisure":"sports_centre","name":"Te lo do io il colorado","sport":"climbing"}},"6071665622":{"lat":46.0680644,"lon":10.9784684,"ts":"2022-08-20T15:24:29Z","tz":1,"tags":{"climbing":"route_bottom","climbing:grade:uiaa":"4+","leisure":"sports_centre","name":"Lo Spigolo Nascosto","sport":"climbing"}},"6071665623":{"lat":46.0678273,"lon":10.9791829,"ts":"2022-04-01T13:10:07Z","tz":1,"tags":{"climbing":"route_bottom","climbing:grade:uiaa":"4","leisure":"sports_centre","name":"Lo Spigolo Nascosto","sport":"climbing"}},"6103356415":{"lat":46.0556875,"lon":10.959913,"ts":"2019-12-22T19:11:33Z","tz":1,"tags":{"name":"Falesia Bassilandia","sport":"climbing"}},"6115517596":{"lat":45.9477641,"lon":11.0783869,"ts":"2018-12-04T11:35:44Z","tz":1,"tags":{"leisure":"pitch","name":"Falesia \"Val Granda\"","sport":"climbing","surface":"rock"}},"6252338463":{"lat":45.9984762,"lon":11.124874,"ts":"2024-02-26T21:37:27Z","tz":1,"tags":{"addr:city":"Mattarello","addr:housenumber":"25","addr:postcode":"38123","addr:street":"Località le Basse","charge":"11.5 EUR","check_date":"2023-11-05","contact:instagram":"infinityboulder","email":"infinityboulder@gmail.com","fee":"yes","leisure":"sports_centre","name":"Infinity Boulder","opening_hours":"Tu 07:30-23:00; We 09:00-23:00; Th 07:30-23:00; Fr 09:00-23:00; Sa, Su 10:00-20:00","operator:type":"private","payment:cash":"yes","payment:mastercard":"yes","payment:visa":"yes","phone":"+39 345 7767114","sport":"climbing","website":"http://infinityboulder.it/"}},"6340090581":{"lat":45.8419066,"lon":11.0288102,"ts":"2019-04-16T13:06:36Z","tz":1,"tags":{"climbing:rock":"limestone","climbing:sport":"yes","fee":"no","name":"Piste dei dinosauri","sport":"climbing"}},"6380885157":{"lat":45.9381165,"lon":11.115278,"ts":"2019-04-03T13:33:45Z","tz":1,"tags":{"leisure":"sports_centre","name":"Falesia Cola Grant","sport":"climbing"}},"6432886287":{"lat":46.0377099,"lon":10.9025332,"ts":"2022-04-01T13:01:57Z","tz":1,"tags":{"leisure":"sports_centre","name":"Palestra Arrampicata di Comano","sport":"climbing"}},"6468144845":{"lat":45.9952874,"lon":10.9170014,"ts":"2025-03-25T11:59:11Z","tz":1,"tags":{"climbing":"route_bottom","name":"Via Trento","sport":"climbing"}},"7600542174":{"lat":46.0676275,"lon":11.1502072,"ts":"2020-06-09T23:25:45Z","tz":1,"tags":{"leisure":"sports_centre","noname":"yes","sport":"climbing"}},"7657235082":{"lat":46.0413318,"lon":10.9445335,"ts":"2020-06-26T21:46:05Z","tz":1,"tags":{"name":"Falesia Il Posto Delle Fragole","sport":"climbing"}},"7737896074":{"lat":45.8714713,"lon":10.9184449,"ts":"2020-07-22T19:13:54Z","tz":1,"tags":{"outdoor":"yes","sport":"climbing"}},"7964465406":{"lat":45.9970968,"lon":10.9184359,"ts":"2025-03-25T11:59:11Z","tz":1,"tags":{"climbing":"route_bottom","name":"Solaris, 6c","sport":"climbing"}},"7964474653":{"lat":46.001132,"lon":10.9209243,"ts":"2025-03-25T11:59:12Z","tz":1,"tags":{"climbing":"route_bottom","name":"Nozze d'Argento, Zebratta central sector","sport":"climbing"}},"8075681137":{"lat":46.0641791,"lon":10.9257319,"ts":"2020-11-02T19:57:27Z","tz":1,"tags":{"fee":"no","leisure":"sports_centre","name":"Bolted walls","sport":"climbing"}},"8174679488":{"lat":46.0624838,"lon":10.9315847,"ts":"2020-11-28T22:29:41Z","tz":1,"tags":{"leisure":"sports_centre","name":"Il Bersaglio, Ranzo","sport":"climbing"}},"8618026600":{"lat":45.9225076,"lon":11.0163491,"ts":"2023-02-18T20:59:53Z","tz":1,"tags":{"climbing:bolted":"yes","climbing:rock":"limestone","climbing:sport":"yes","sport":"climbing"}},"8669034087":{"lat":45.8766226,"lon":11.0473672,"ts":"2021-04-26T15:50:41Z","tz":1,"tags":{"climbing:rock":"limestone","climbing:sport":"yes","fee":"no","natural":"cliff","sport":"climbing"}},"8669034088":{"lat":45.8768654,"lon":11.0474154,"ts":"2021-04-26T15:50:41Z","tz":1,"tags":{"climbing:rock":"limestone","climbing:sport":"yes","fee":"no","name":"Campana","natural":"cliff","sport":"climbing"}},"8669042964":{"lat":45.872055,"lon":11.0403056,"ts":"2021-04-26T16:01:02Z","tz":1,"tags":{"climbing:rock":"limestone","climbing:sport":"yes","climbing:trad":"yes","fee":"no","name":"Val Scodella","natural":"cliff","sport":"climbing"}},"8669042965":{"lat":45.8712055,"lon":11.0370945,"ts":"2021-04-26T16:01:02Z","tz":1,"tags":{"climbing:rock":"limestone","climbing:sport":"yes","climbing:trad":"yes","fee":"no","name":"Val Scodella","natural":"cliff","sport":"climbing"}},"8836963503":{"lat":45.8957191,"lon":10.9549772,"ts":"2024-12-23T22:21:05Z","tz":1,"tags":{"climbing":"crag","climbing:sport":"yes","name":"Climbing Ronzo","sport":"climbing"}},"9019705359":{"lat":45.9681459,"lon":10.9487644,"ts":"2021-08-19T10:35:12Z","tz":1,"tags":{"name":"Dos Pelà","sport":"climbing"}},"9019705943":{"lat":45.9274647,"lon":10.8999233,"ts":"2022-04-01T12:55:19Z","tz":1,"tags":{"leisure":"sports_centre","name":"Falesia Family San Martino","sport":"climbing"}},"9038021541":{"lat":45.8306305,"lon":11.0827457,"ts":"2021-08-26T13:15:18Z","tz":1,"tags":{"access":"yes","climbing":"crag","climbing:length:max":"16","climbing:length:min":"10","climbing:orientation":"NW","climbing:quality":"solid","climbing:rock":"limestone","climbing:sport":"yes","climbing:trad":"no","ele":"600","fee":"no","name":"Sass de la Vecia","outdoor":"yes","sport":"climbing"}},"9108928514":{"lat":45.8889644,"lon":10.917098,"ts":"2021-09-20T20:48:54Z","tz":1,"tags":{"climbing:quality":"fragile","climbing:sport":"yes","outdoor":"yes","sport":"climbing"}},"9117634024":{"lat":45.9512814,"lon":11.2386541,"ts":"2024-12-23T22:19:31Z","tz":1,"tags":{"climbing":"crag","climbing:rock":"limestone","sport":"climbing"}},"9229728306":{"lat":45.9553987,"lon":10.9199243,"ts":"2021-11-06T10:27:25Z","tz":1,"tags":{"name":"Via dei Ciclamini","sport":"climbing"}},"9266885368":{"lat":45.9954401,"lon":10.9171006,"ts":"2023-05-18T16:33:20Z","tz":1,"tags":{"climbing":"route_bottom","leisure":"sports_centre","name":"Via 46 Parallelo","sport":"climbing"}},"9266891849":{"lat":45.9951634,"lon":10.916763,"ts":"2025-03-25T11:59:12Z","tz":1,"tags":{"climbing":"route_bottom","name":"Giusy","sport":"climbing"}},"9628919828":{"lat":45.9740559,"lon":10.91495,"ts":"2022-04-01T12:44:49Z","tz":1,"tags":{"leisure":"sports_centre","name":"La Luna Argentea","sport":"climbing"}},"9628948946":{"lat":46.0556853,"lon":10.9599155,"ts":"2022-04-01T13:10:07Z","tz":1,"tags":{"leisure":"sports_centre","name":"Falesia Bassilandia","sport":"climbing"}},"9763491262":{"lat":45.9545522,"lon":10.9189146,"ts":"2022-05-23T07:09:06Z","tz":1,"tags":{"name":"Dimensione terzo","sport":"climbing"}},"9966205787":{"lat":46.0683488,"lon":10.9785278,"ts":"2022-08-20T15:24:29Z","tz":1,"tags":{"climbing":"route_bottom","climbing:grade:uiaa":"4","leisure":"sports_centre","name":"G.M.D.","sport":"climbing"}},"9966205788":{"lat":46.0688081,"lon":10.9782071,"ts":"2022-08-20T15:24:29Z","tz":1,"tags":{"climbing":"route_bottom","climbing:grade:uiaa":"5+","leisure":"sports_centre","name":"Giubileo","sport":"climbing"}},"9989993765":{"lat":45.9913153,"lon":10.9035185,"ts":"2025-03-25T11:59:12Z","tz":1,"tags":{"name":"Speranza","sport":"climbing"}},"10002089523":{"lat":45.8520826,"lon":11.0913361,"ts":"2022-09-05T12:50:41Z","tz":1,"tags":{"climbing:rock":"limestone","climbing:sport":"yes","name":"Falesia Piam del Levro - Val del Orco","natural":"cliff","sport":"climbing"}},"10015606290":{"lat":45.8680651,"lon":10.8998105,"ts":"2025-03-25T21:30:11Z","tz":1,"tags":{"name":"Le Trincee","sport":"climbing"}},"10073769165":{"lat":45.8571355,"lon":10.9617427,"ts":"2022-10-03T20:05:41Z","tz":1,"tags":{"climbing":"route","climbing:bolted":"yes","climbing:pitches":"1","sport":"climbing"}},"10831579951":{"lat":45.9762895,"lon":10.9153574,"ts":"2023-04-22T09:14:28Z","tz":1,"tags":{"leisure":"sports_centre","name":"Little John","sport":"climbing"}},"10831579952":{"lat":45.9760444,"lon":10.9152711,"ts":"2023-04-22T09:14:28Z","tz":1,"tags":{"leisure":"sports_centre","name":"Sceriffo di Nottingham","sport":"climbing"}},"10831579953":{"lat":45.9760755,"lon":10.915335,"ts":"2023-04-22T09:14:28Z","tz":1,"tags":{"leisure":"sports_centre","name":"Parete di Sherwood","sport":"climbing"}},"10845342781":{"lat":46.041216,"lon":10.9452471,"ts":"2023-04-27T05:55:30Z","tz":1,"tags":{"leisure":"sports_centre","name":"Falesia La Panoramica","sport":"climbing"}},"10845342782":{"lat":46.0413239,"lon":10.9444229,"ts":"2023-04-27T05:55:30Z","tz":1,"tags":{"leisure":"sports_centre","name":"Falesia Il Posto Delle Fragole","sport":"climbing"}},"11476887997":{"lat":45.9208429,"lon":11.0924313,"ts":"2024-01-01T20:37:24Z","tz":1,"tags":{"name":"Calliano - La mangianerchie","natural":"rock","sport":"climbing"}},"11930072991":{"lat":45.9409682,"lon":10.9175507,"ts":"2024-05-24T07:43:56Z","tz":1,"tags":{"leisure":"sports_centre","name":"Terra promessa","sport":"climbing"}},"11930074081":{"lat":45.9449696,"lon":10.9136801,"ts":"2024-05-24T07:46:46Z","tz":1,"tags":{"leisure":"sports_centre","name":"Grottosauro","sport":"climbing"}},"12255875416":{"lat":45.8565259,"lon":10.980217,"ts":"2024-10-16T19:01:52Z","tz":1,"tags":{"climbing":"boulder","climbing:boulder":"30","climbing:rock":"limestone","name":"Parco Boulder Montalbano","sport":"climbing","website":"https://www.sat-mori.it/sezione/parco-boulder/"}},"12412595728":{"lat":45.961401,"lon":10.9010803,"ts":"2024-12-11T13:16:42Z","tz":1,"tags":{"climbing":"route_bottom","name":"Archangelo","sport":"climbing"}}}