{"326285648":{"lat":51.1585309,"lon":15.5758732,"ts":"2015-11-14T08:45:41Z","tz":1,"tags":{"climbing:bolted":"yes","climbing:grade:polish:max":"VI.3+","climbing:grade:polish:min":"IV","climbing:length":"22","climbing:quality":"solid","climbing:rock":"sandstone","climbing:routes":"20","climbing:sport":"yes","height":"25","name":"Skała z medalionem","natural":"bare_rock","rock":"sandstone","source":"knowledge","sport":"climbing","url":"https://topo.wspinka.org/kaczawy/wiezyca"}},"326285649":{"lat":51.1586188,"lon":15.5759438,"ts":"2015-04-22T17:11:54Z","tz":1,"tags":{"climbing:bolted":"yes","climbing:grade:polish:max":"VI.3+","climbing:grade:polish:min":"IV","climbing:length":"12","climbing:quality":"solid","climbing:rock":"sandstone","climbing:routes":"3","climbing:sport":"yes","height":"15","name":"Wieżyca","natural":"bare_rock","rock":"sandstone","source":"knowledge","sport":"climbing"}},"326285651":{"lat":51.1586061,"lon":15.5759475,"ts":"2015-04-22T17:11:55Z","tz":1,"tags":{"height":"14","leisure":"climbing","name":"Wieżyczka","natural":"cliff","rock":"sandstone","source":"knowledge","sport":"climbing"}},"632461811":{"lat":51.1270392,"lon":15.6102033,"ts":"2022-02-01T06:10:22Z","tz":1,"tags":{"access":"yes","climbing":"crag","climbing:grade:french:min":"3","climbing:length":"14","climbing:toprope":"yes","climbing:traditional":"yes","height":"15","name":"Piaskowcowe Ściany","natural":"cliff","rock":"Sandstone","sport":"climbing","url":"https://wspinanie.pl/2021/05/plakowice-na-dolnym-slasku-topo-rejonu/"}},"1102501584":{"lat":51.1104399,"lon":15.5972014,"ts":"2022-10-10T05:55:53Z","tz":1,"tags":{"building":"yes","leisure":"sports_centre","sport":"climbing"}},"3992123171":{"lat":51.1162847,"lon":15.6157252,"ts":"2019-06-03T23:07:23Z","tz":1,"tags":{"leisure":"sports_centre","sport":"climbing"}},"10592672569":{"lat":51.1124755,"lon":15.5706942,"ts":"2023-01-29T22:12:48Z","tz":1,"tags":{"leisure":"sports_centre","sport":"climbing"}},"10968172948":{"lat":51.0943559,"lon":15.6484565,"ts":"2023-06-10T20:41:24Z","tz":1,"tags":{"name":"Dworek","sport":"climbing"}}}