{"17813208":{"lat":48.9616021,"lon":15.6803078,"ts":"2024-07-07T14:59:24Z","tz":1,"tags":{"climbing":"crag","name":"Hradby I","site":"climbing","sport":"climbing","type":"site","website":"https://www.horosvaz.cz/skaly-skala-8968/"}},"17813212":{"lat":48.961895,"lon":15.6799608,"ts":"2024-07-07T15:00:58Z","tz":1,"tags":{"climbing":"crag","name":"Čelní masiv - pravá část","site":"climbing","sport":"climbing","type":"site","website":"https://www.horosvaz.cz/skaly-skala-8967/"}},"17813213":{"lat":48.9622679,"lon":15.6799086,"ts":"2024-07-07T15:01:33Z","tz":1,"tags":{"climbing":"crag","name":"Čelní masiv - levá část","site":"climbing","sport":"climbing","type":"site","website":"https://www.horosvaz.cz/skaly-skala-8966/"}},"17813224":{"lat":48.9614474,"lon":15.68504,"ts":"2024-07-07T15:02:21Z","tz":1,"tags":{"climbing":"crag","name":"Nad zrcadlem","site":"climbing","sport":"climbing","type":"site","website":"https://www.horosvaz.cz/skaly-skala-8971/"}},"17813227":{"lat":48.9628097,"lon":15.6800748,"ts":"2024-07-07T15:02:41Z","tz":1,"tags":{"climbing":"crag","name":"Bivaková","site":"climbing","sport":"climbing","type":"site","website":"https://www.horosvaz.cz/skaly-skala-8965/"}},"17813233":{"lat":48.9833194,"lon":15.6595863,"ts":"2024-07-07T15:05:49Z","tz":1,"tags":{"climbing":"crag","name":"Tříletá","site":"climbing","sport":"climbing","type":"site","website":"https://www.horosvaz.cz/skaly-skala-7697/"}},"17813235":{"lat":48.9828916,"lon":15.6592987,"ts":"2024-07-07T15:06:48Z","tz":1,"tags":{"climbing":"crag","name":"Aréna","site":"climbing","sport":"climbing","type":"site","website":"https://www.horosvaz.cz/skaly-skala-9652/"}},"17813236":{"lat":48.9831649,"lon":15.6594775,"ts":"2024-07-07T15:07:05Z","tz":1,"tags":{"climbing":"crag","name":"Prostřední","site":"climbing","sport":"climbing","type":"site","website":"https://www.horosvaz.cz/skaly-skala-8090/"}},"12040029864":{"lat":48.9615592,"lon":15.6805344,"ts":"2024-07-07T14:59:24Z","tz":1,"tags":{"author":"Autoři neznámí","climbing":"route_bottom","climbing:grade:uiaa":"4","name":"Zelený kout","sport":"climbing","website":"https://www.horosvaz.cz/skaly-cesta-63236/"}},"12040029865":{"lat":48.9615633,"lon":15.6805128,"ts":"2024-07-07T14:59:24Z","tz":1,"tags":{"author":"Vladimír Wolf, I. Březina, 2010","climbing":"route_bottom","climbing:grade:uiaa":"6","name":"Dusné odpoledne","sport":"climbing","website":"https://www.horosvaz.cz/skaly-cesta-63235/"}},"12040029866":{"lat":48.9615674,"lon":15.6804913,"ts":"2024-07-07T14:59:24Z","tz":1,"tags":{"author":"Vladimír Wolf, I. Březina, 2010","climbing":"route_bottom","climbing:grade:uiaa":"6","name":"Neznámý hlas","sport":"climbing","website":"https://www.horosvaz.cz/skaly-cesta-63234/"}},"12040029867":{"lat":48.9615715,"lon":15.6804697,"ts":"2024-07-07T14:59:24Z","tz":1,"tags":{"author":"Ilja Březina, V. Wolf, 2010","climbing":"route_bottom","climbing:grade:uiaa":"7-","name":"Turbovětry","sport":"climbing","website":"https://www.horosvaz.cz/skaly-cesta-63233/"}},"12040029868":{"lat":48.9615756,"lon":15.6804481,"ts":"2024-07-07T14:59:24Z","tz":1,"tags":{"author":"Ilja Březina, V. Wolf, 2010","climbing":"route_bottom","climbing:grade:uiaa":"6","name":"Pružné kulky","sport":"climbing","website":"https://www.horosvaz.cz/skaly-cesta-63232/"}},"12040052751":{"lat":48.9621404,"lon":15.6799125,"ts":"2024-07-07T15:00:58Z","tz":1,"tags":{"author":"Ilja Březina, V. Wolf, 2010","climbing":"route_bottom","climbing:grade:uiaa":"4","name":"Netřeskové panství","sport":"climbing","website":"https://www.horosvaz.cz/skaly-cesta-63217/"}},"12040052752":{"lat":48.9621258,"lon":15.6799107,"ts":"2024-07-07T15:00:58Z","tz":1,"tags":{"author":"Vladimír Wolf, I. Březina, 2010","climbing":"route_bottom","climbing:grade:uiaa":"5+","name":"Mravenčí omeleta","sport":"climbing","website":"https://www.horosvaz.cz/skaly-cesta-63216/"}},"12040052753":{"lat":48.9621112,"lon":15.6799088,"ts":"2024-07-07T15:00:58Z","tz":1,"tags":{"author":"Vladimír Wolf, I. Březina, 2010","climbing":"route_bottom","climbing:grade:uiaa":"5+","name":"Hodinkové království","sport":"climbing","website":"https://www.horosvaz.cz/skaly-cesta-63215/"}},"12040052754":{"lat":48.9620966,"lon":15.679907,"ts":"2024-07-07T15:00:58Z","tz":1,"tags":{"author":"Ilja Březina, V. Wolf, 2010","climbing":"route_bottom","climbing:grade:uiaa":"6+","name":"Šípkový Růžen","sport":"climbing","website":"https://www.horosvaz.cz/skaly-cesta-63214/"}},"12040052755":{"lat":48.962082,"lon":15.6799051,"ts":"2024-07-07T15:00:58Z","tz":1,"tags":{"author":"Ilja Březina, V. Wolf, 2010","climbing":"route_bottom","climbing:grade:uiaa":"3","name":"Schodišťový kout","sport":"climbing","website":"https://www.horosvaz.cz/skaly-cesta-63213/"}},"12040052756":{"lat":48.9620674,"lon":15.6799033,"ts":"2024-07-07T15:00:58Z","tz":1,"tags":{"author":"Vladimír Wolf, I. Březina, 2010","climbing":"route_bottom","climbing:grade:uiaa":"3","name":"20 stébel trávy","sport":"climbing","website":"https://www.horosvaz.cz/skaly-cesta-63212/"}},"12040052757":{"lat":48.9620528,"lon":15.6799014,"ts":"2024-07-07T15:00:58Z","tz":1,"tags":{"author":"Autoři neznámí","climbing":"route_bottom","climbing:grade:uiaa":"3","name":"Přírodní kout","sport":"climbing","website":"https://www.horosvaz.cz/skaly-cesta-63211/"}},"12040052758":{"lat":48.9620382,"lon":15.6798996,"ts":"2024-07-07T15:00:58Z","tz":1,"tags":{"author":"Vladimír Wolf, I. Březina, 2010","climbing":"route_bottom","climbing:grade:uiaa":"6","name":"Hra barev","sport":"climbing","website":"https://www.horosvaz.cz/skaly-cesta-63210/"}},"12040052759":{"lat":48.9620235,"lon":15.6798978,"ts":"2024-07-07T15:00:58Z","tz":1,"tags":{"author":"Vladimír Wolf, I. Březina, 2010","climbing":"route_bottom","climbing:grade:uiaa":"5","name":"Krátká čárka","sport":"climbing","website":"https://www.horosvaz.cz/skaly-cesta-63209/"}},"12040052760":{"lat":48.9620089,"lon":15.6798959,"ts":"2024-07-07T15:00:58Z","tz":1,"tags":{"author":"Vladimír Wolf, I. Březina, 2010","climbing":"route_bottom","climbing:grade:uiaa":"5","name":"Vosí stěnka","sport":"climbing","website":"https://www.horosvaz.cz/skaly-cesta-63208/"}},"12040052761":{"lat":48.9619952,"lon":15.6799004,"ts":"2024-07-07T15:00:58Z","tz":1,"tags":{"author":"Vladimír Wolf, I. Březina, 2010","climbing":"route_bottom","climbing:grade:uiaa":"6-","name":"Sluneční hrana","sport":"climbing","website":"https://www.horosvaz.cz/skaly-cesta-63207/"}},"12040052762":{"lat":48.9619818,"lon":15.6799063,"ts":"2024-07-07T15:00:58Z","tz":1,"tags":{"author":"Ilja Březina, V. Wolf, 2010","climbing":"route_bottom","climbing:grade:uiaa":"7-","name":"Slunce v duši","sport":"climbing","website":"https://www.horosvaz.cz/skaly-cesta-63206/"}},"12040052763":{"lat":48.9619683,"lon":15.6799122,"ts":"2024-07-07T15:00:58Z","tz":1,"tags":{"author":"Vladimír Wolf, I. Březina, 2010","climbing":"route_bottom","climbing:grade:uiaa":"6-","name":"Stín v mysli","sport":"climbing","website":"https://www.horosvaz.cz/skaly-cesta-63205/"}},"12040052764":{"lat":48.9619548,"lon":15.6799181,"ts":"2024-07-07T15:00:58Z","tz":1,"tags":{"author":"Autoři neznámí","climbing":"route_bottom","climbing:grade:uiaa":"4","name":"Šikmý kout","sport":"climbing","website":"https://www.horosvaz.cz/skaly-cesta-63204/"}},"12040052765":{"lat":48.9619413,"lon":15.679924,"ts":"2024-07-07T15:00:58Z","tz":1,"tags":{"author":"Vladimír Wolf, I. Březina, 2010","climbing":"route_bottom","climbing:grade:uiaa":"6-","name":"Cesta přes kachní hnízdo","sport":"climbing","website":"https://www.horosvaz.cz/skaly-cesta-63203/"}},"12040052766":{"lat":48.9619278,"lon":15.6799299,"ts":"2024-07-07T15:00:58Z","tz":1,"tags":{"author":"Ilja Březina, V. Wolf, 2010","climbing":"route_bottom","climbing:grade:uiaa":"6","name":"Zatajený dech","sport":"climbing","website":"https://www.horosvaz.cz/skaly-cesta-63202/"}},"12040052767":{"lat":48.9619143,"lon":15.6799358,"ts":"2024-07-07T15:00:58Z","tz":1,"tags":{"author":"Ilja Březina, V. Wolf, 2010","climbing":"route_bottom","climbing:grade:uiaa":"6+","name":"Otrokář","sport":"climbing","website":"https://www.horosvaz.cz/skaly-cesta-63201/"}},"12040052768":{"lat":48.9619008,"lon":15.6799417,"ts":"2024-07-07T15:00:58Z","tz":1,"tags":{"author":"Vladimír Wolf, I. Březina, 2010","climbing":"route_bottom","climbing:grade:uiaa":"7-","name":"Hibernatus","sport":"climbing","website":"https://www.horosvaz.cz/skaly-cesta-63200/"}},"12040055357":{"lat":48.9627612,"lon":15.6800777,"ts":"2024-07-07T15:02:41Z","tz":1,"tags":{"author":"Autoři neznámí","climbing":"route_bottom","climbing:grade:uiaa":"4","name":"Varianta Traverzové","sport":"climbing","website":"https://www.horosvaz.cz/skaly-cesta-63173/"}},"12040055358":{"lat":48.9627751,"lon":15.6800769,"ts":"2024-07-07T15:02:41Z","tz":1,"tags":{"author":"Sylva Talla, L. Skalina, 1963","climbing":"route_bottom","climbing:grade:uiaa":"4","name":"Traverzová","sport":"climbing","website":"https://www.horosvaz.cz/skaly-cesta-63172/"}},"12040055359":{"lat":48.962789,"lon":15.6800761,"ts":"2024-07-07T15:02:41Z","tz":1,"tags":{"author":"Vladimír Wolf, I. Březina, 2010","climbing":"route_bottom","climbing:grade:uiaa":"7+","name":"Poslední list","sport":"climbing","website":"https://www.horosvaz.cz/skaly-cesta-63171/"}},"12040055360":{"lat":48.9628028,"lon":15.6800752,"ts":"2024-07-07T15:02:41Z","tz":1,"tags":{"author":"Ilja Březina, V. Wolf, 2010","climbing":"route_bottom","climbing:grade:uiaa":"6-","name":"Bahenní koupel","sport":"climbing","website":"https://www.horosvaz.cz/skaly-cesta-63170/"}},"12040055361":{"lat":48.9628167,"lon":15.6800744,"ts":"2024-07-07T15:02:41Z","tz":1,"tags":{"author":"Ilja Březina, V. Wolf, 2010","climbing":"route_bottom","climbing:grade:uiaa":"5","name":"Stokový kout","sport":"climbing","website":"https://www.horosvaz.cz/skaly-cesta-63169/"}},"12040055362":{"lat":48.9628306,"lon":15.6800735,"ts":"2024-07-07T15:02:41Z","tz":1,"tags":{"author":"Autoři neznámí","climbing":"route_bottom","name":"Věčný pramen","sport":"climbing","website":"https://www.horosvaz.cz/skaly-cesta-63168/"}},"12040055363":{"lat":48.9628444,"lon":15.6800727,"ts":"2024-07-07T15:02:41Z","tz":1,"tags":{"author":"Vladimír Wolf, I. Březina, 2010","climbing":"route_bottom","climbing:grade:uiaa":"5+","name":"Zelňačka","sport":"climbing","website":"https://www.horosvaz.cz/skaly-cesta-59887/"}},"12040055364":{"lat":48.9628583,"lon":15.6800719,"ts":"2024-07-07T15:02:41Z","tz":1,"tags":{"author":"Vladimír Wolf, I. Březina, 2010","climbing":"route_bottom","climbing:grade:uiaa":"5","name":"Špinavé schody","sport":"climbing","website":"https://www.horosvaz.cz/skaly-cesta-59888/"}},"12040058830":{"lat":48.9621569,"lon":15.6799004,"ts":"2024-07-07T15:01:33Z","tz":1,"tags":{"author":"Vladimír Wolf, I. Březina, 2011","climbing":"route_bottom","climbing:grade:uiaa":"7-","name":"Rodinná poradna","sport":"climbing","website":"https://www.horosvaz.cz/skaly-cesta-63183/"}},"12040058831":{"lat":48.9621692,"lon":15.6799013,"ts":"2024-07-07T15:01:33Z","tz":1,"tags":{"author":"Vladimír Wolf, I. Březina, 2011","climbing":"route_bottom","climbing:grade:uiaa":"6-","name":"El kondor","sport":"climbing","website":"https://www.horosvaz.cz/skaly-cesta-63182/"}},"12040058832":{"lat":48.9621815,"lon":15.6799023,"ts":"2024-07-07T15:01:33Z","tz":1,"tags":{"author":"Ilja Březina, V. Wolf, 2016","climbing":"route_bottom","climbing:grade:uiaa":"6+","name":"Trampoty keňského běžce","sport":"climbing","website":"https://www.horosvaz.cz/skaly-cesta-82087/"}},"12040058833":{"lat":48.9621938,"lon":15.6799032,"ts":"2024-07-07T15:01:33Z","tz":1,"tags":{"author":"Vladimír Wolf, I. Březina, 2011","climbing":"route_bottom","climbing:grade:uiaa":"6+","name":"Tichá domácnost","sport":"climbing","website":"https://www.horosvaz.cz/skaly-cesta-63181/"}},"12040058834":{"lat":48.9622062,"lon":15.6799041,"ts":"2024-07-07T15:01:33Z","tz":1,"tags":{"author":"Vladimír Wolf, Ilja Březina, 2016","climbing":"route_bottom","climbing:grade:uiaa":"7","name":"Tři stupně ke zlaté","sport":"climbing","website":"https://www.horosvaz.cz/skaly-cesta-82088/"}},"12040058835":{"lat":48.9622185,"lon":15.679905,"ts":"2024-07-07T15:01:33Z","tz":1,"tags":{"author":"Vladimír Wolf, I. Březina, 2010","climbing":"route_bottom","climbing:grade:uiaa":"7","name":"Černí andělé","sport":"climbing","website":"https://www.horosvaz.cz/skaly-cesta-63180/"}},"12040058836":{"lat":48.9622308,"lon":15.6799059,"ts":"2024-07-07T15:01:33Z","tz":1,"tags":{"author":"Vladimír Wolf, Ilja Březina, 2016","climbing":"route_bottom","climbing:grade:uiaa":"7","name":"Bonbónek na závěr","sport":"climbing","website":"https://www.horosvaz.cz/skaly-cesta-82086/"}},"12040058837":{"lat":48.9622432,"lon":15.6799068,"ts":"2024-07-07T15:01:33Z","tz":1,"tags":{"author":"Ilja Březina, V. Wolf, 2011","climbing":"route_bottom","climbing:grade:uiaa":"7","name":"Zpět v akci","sport":"climbing","website":"https://www.horosvaz.cz/skaly-cesta-63179/"}},"12040058838":{"lat":48.9622555,"lon":15.6799078,"ts":"2024-07-07T15:01:33Z","tz":1,"tags":{"author":"Vladimír Wolf, Ilja Březina","climbing":"route_bottom","climbing:grade:uiaa":"7","name":"Sempervivum","sport":"climbing","website":"https://www.horosvaz.cz/skaly-cesta-81820/"}},"12040058839":{"lat":48.9622678,"lon":15.6799087,"ts":"2024-07-07T15:01:33Z","tz":1,"tags":{"author":"Vladimír Wolf, Ilja Březina, 2016","climbing":"route_bottom","climbing:grade:uiaa":"8-","name":"Druhá šance","sport":"climbing","website":"https://www.horosvaz.cz/skaly-cesta-81914/"}},"12040058840":{"lat":48.9622801,"lon":15.6799096,"ts":"2024-07-07T15:01:33Z","tz":1,"tags":{"author":"Ilja Březina, V. Wolf, 2016","climbing":"route_bottom","climbing:grade:uiaa":"6-","name":"Netřes netřeskem!","sport":"climbing","website":"https://www.horosvaz.cz/skaly-cesta-81819/"}},"12040058841":{"lat":48.9622925,"lon":15.6799105,"ts":"2024-07-07T15:01:33Z","tz":1,"tags":{"author":"Ilja Březina, V. Wolf, 2010","climbing":"route_bottom","name":"Varianta Vodmašťovny","sport":"climbing","website":"https://www.horosvaz.cz/skaly-cesta-63178/"}},"12040058842":{"lat":48.9623048,"lon":15.6799114,"ts":"2024-07-07T15:01:33Z","tz":1,"tags":{"author":"Ilja Březina, V. Wolf, 2010","climbing":"route_bottom","climbing:grade:uiaa":"6+","name":"Vodmašťovna","sport":"climbing","website":"https://www.horosvaz.cz/skaly-cesta-63177/"}},"12040058843":{"lat":48.9623171,"lon":15.6799124,"ts":"2024-07-07T15:01:33Z","tz":1,"tags":{"author":"Vladimír Wolf, I. Březina, 2010","climbing":"route_bottom","climbing:grade:uiaa":"7","name":"Stříbrný vítr","sport":"climbing","website":"https://www.horosvaz.cz/skaly-cesta-63176/"}},"12040058844":{"lat":48.9623294,"lon":15.6799133,"ts":"2024-07-07T15:01:33Z","tz":1,"tags":{"author":"Vladimír Wolf, I. Březina, 2010","climbing":"route_bottom","climbing:grade:uiaa":"6","name":"Na pirátské stezce","sport":"climbing","website":"https://www.horosvaz.cz/skaly-cesta-63175/"}},"12040058845":{"lat":48.9623418,"lon":15.6799142,"ts":"2024-07-07T15:01:33Z","tz":1,"tags":{"author":"J. Bourek, 2009","climbing":"route_bottom","climbing:grade:uiaa":"6","name":"PodFuck","sport":"climbing","website":"https://www.horosvaz.cz/skaly-cesta-63174/"}},"12040058846":{"lat":48.9623541,"lon":15.6799151,"ts":"2024-07-07T15:01:33Z","tz":1,"tags":{"author":"Ilja Březina, V. Wolf, 2010","climbing":"route_bottom","climbing:grade:uiaa":"5+","name":"Inteligent service","sport":"climbing","website":"https://www.horosvaz.cz/skaly-cesta-59889/"}},"12040058847":{"lat":48.9623664,"lon":15.679916,"ts":"2024-07-07T15:01:33Z","tz":1,"tags":{"author":"Vladimír Wolf, I. Březina, 2010","climbing":"route_bottom","climbing:grade:uiaa":"5+","name":"Cesta stejných kroků","sport":"climbing","website":"https://www.horosvaz.cz/skaly-cesta-59890/"}},"12040058848":{"lat":48.9623788,"lon":15.6799169,"ts":"2024-07-07T15:01:33Z","tz":1,"tags":{"author":"Ilja Březina, V. Wolf, 2010","climbing":"route_bottom","climbing:grade:uiaa":"4+","name":"Potůček","sport":"climbing","website":"https://www.horosvaz.cz/skaly-cesta-59891/"}},"12040074369":{"lat":48.9615797,"lon":15.6804265,"ts":"2024-07-07T14:59:24Z","tz":1,"tags":{"author":"Autoři neznámí","climbing":"route_bottom","climbing:grade:uiaa":"3","name":"Zářez","sport":"climbing","website":"https://www.horosvaz.cz/skaly-cesta-63231/"}},"12040074370":{"lat":48.9615837,"lon":15.6804049,"ts":"2024-07-07T14:59:24Z","tz":1,"tags":{"author":"Vladimír Wolf, I. Březina, 2010","climbing":"route_bottom","climbing:grade:uiaa":"4","name":"Skoč do police","sport":"climbing","website":"https://www.horosvaz.cz/skaly-cesta-63230/"}},"12040074371":{"lat":48.9615878,"lon":15.6803834,"ts":"2024-07-07T14:59:24Z","tz":1,"tags":{"author":"Ilja Březina, V. Wolf, 2010","climbing":"route_bottom","climbing:grade:uiaa":"4","name":"Kanibal","sport":"climbing","website":"https://www.horosvaz.cz/skaly-cesta-63229/"}},"12040074372":{"lat":48.9615919,"lon":15.6803618,"ts":"2024-07-07T14:59:24Z","tz":1,"tags":{"author":"Vladimír Wolf, I. Březina, 2010","climbing":"route_bottom","climbing:grade:uiaa":"6","name":"Srnčí kopýtko","sport":"climbing","website":"https://www.horosvaz.cz/skaly-cesta-63228/"}},"12040074373":{"lat":48.961596,"lon":15.6803402,"ts":"2024-07-07T14:59:24Z","tz":1,"tags":{"author":"Vladimír Wolf, I. Březina, 2010","climbing":"route_bottom","climbing:grade:uiaa":"6-","name":"Turecká šavle","sport":"climbing","website":"https://www.horosvaz.cz/skaly-cesta-63227/"}},"12040074374":{"lat":48.9616001,"lon":15.6803186,"ts":"2024-07-07T14:59:24Z","tz":1,"tags":{"author":"Ilja Březina, V. Wolf, 2010","climbing":"route_bottom","climbing:grade:uiaa":"6-","name":"Pilíř","sport":"climbing","website":"https://www.horosvaz.cz/skaly-cesta-63226/"}},"12040074375":{"lat":48.9616041,"lon":15.680297,"ts":"2024-07-07T14:59:24Z","tz":1,"tags":{"author":"Vladimír Wolf, I. Březina, 2010","climbing":"route_bottom","climbing:grade:uiaa":"5+","name":"Varianta Nedělního oběda","sport":"climbing","website":"https://www.horosvaz.cz/skaly-cesta-63225/"}},"12040074376":{"lat":48.9616082,"lon":15.6802755,"ts":"2024-07-07T14:59:24Z","tz":1,"tags":{"author":"Vladimír Wolf, I. Březina, 2010","climbing":"route_bottom","climbing:grade:uiaa":"7-","name":"Nedělní oběd","sport":"climbing","website":"https://www.horosvaz.cz/skaly-cesta-63224/"}},"12040074377":{"lat":48.9616123,"lon":15.6802539,"ts":"2024-07-07T14:59:24Z","tz":1,"tags":{"author":"Vladimír Wolf, I. Březina, 2010","climbing":"route_bottom","climbing:grade:uiaa":"6-","name":"Kalná voda","sport":"climbing","website":"https://www.horosvaz.cz/skaly-cesta-63223/"}},"12040074378":{"lat":48.9616164,"lon":15.6802323,"ts":"2024-07-07T14:59:24Z","tz":1,"tags":{"author":"Sylva Talla, L. Skalina, 1963","climbing":"route_bottom","climbing:grade:uiaa":"5","name":"Spára","sport":"climbing","website":"https://www.horosvaz.cz/skaly-cesta-63222/"}},"12040074379":{"lat":48.9616205,"lon":15.6802107,"ts":"2024-07-07T14:59:24Z","tz":1,"tags":{"author":"Sylva Talla, L. Skalina, 1963","climbing":"route_bottom","climbing:grade:uiaa":"4","name":"Varianta schodů","sport":"climbing","website":"https://www.horosvaz.cz/skaly-cesta-63221/"}},"12040074380":{"lat":48.9616246,"lon":15.6801891,"ts":"2024-07-07T14:59:24Z","tz":1,"tags":{"author":"Sylva Talla, L. Skalina, 1963","climbing":"route_bottom","climbing:grade:uiaa":"4","name":"Schody","sport":"climbing","website":"https://www.horosvaz.cz/skaly-cesta-63220/"}},"12040074381":{"lat":48.9616286,"lon":15.6801676,"ts":"2024-07-07T14:59:24Z","tz":1,"tags":{"author":"Ilja Březina, V. Wolf, 2010","climbing":"route_bottom","climbing:grade:uiaa":"6-","name":"Dvoukoruna","sport":"climbing","website":"https://www.horosvaz.cz/skaly-cesta-63219/"}},"12040074382":{"lat":48.9616327,"lon":15.680146,"ts":"2024-07-07T14:59:24Z","tz":1,"tags":{"author":"Ilja Březina, V. Wolf, 2010","climbing":"route_bottom","climbing:grade:uiaa":"4-","name":"Měkota","sport":"climbing","website":"https://www.horosvaz.cz/skaly-cesta-63218/"}},"12040074383":{"lat":48.9616368,"lon":15.6801244,"ts":"2024-07-07T14:59:24Z","tz":1,"tags":{"author":"Vladimír Wolf, I. Březina, 2010","climbing":"route_bottom","climbing:grade:uiaa":"5+","name":"Nebezpeční Véčkaři","sport":"climbing","website":"https://www.horosvaz.cz/skaly-cesta-59894/"}},"12040074384":{"lat":48.9616409,"lon":15.6801028,"ts":"2024-07-07T14:59:24Z","tz":1,"tags":{"author":"Vladimír Wolf, I. Březina, 2010","climbing":"route_bottom","climbing:grade:uiaa":"6-","name":"Není plotna jako plotna","sport":"climbing","website":"https://www.horosvaz.cz/skaly-cesta-59895/"}},"12040074385":{"lat":48.961645,"lon":15.6800812,"ts":"2024-07-07T14:59:24Z","tz":1,"tags":{"author":"Vladimír Wolf, I. Březina, 2010","climbing":"route_bottom","climbing:grade:uiaa":"5+","name":"Klička","sport":"climbing","website":"https://www.horosvaz.cz/skaly-cesta-59896/"}},"12040076371":{"lat":48.9614399,"lon":15.6848678,"ts":"2024-07-07T15:02:21Z","tz":1,"tags":{"author":"Vladimír Wolf, I. Březina, 2010","climbing":"route_bottom","climbing:grade:uiaa":"3","name":"Hadí kůže","sport":"climbing","website":"https://www.horosvaz.cz/skaly-cesta-63263/"}},"12040076372":{"lat":48.9614409,"lon":15.6848908,"ts":"2024-07-07T15:02:21Z","tz":1,"tags":{"author":"Ilja Březina, V. Wolf, 2010","climbing":"route_bottom","climbing:grade:uiaa":"4","name":"Pilíř dědka morouse","sport":"climbing","website":"https://www.horosvaz.cz/skaly-cesta-63262/"}},"12040076373":{"lat":48.9614419,"lon":15.6849138,"ts":"2024-07-07T15:02:21Z","tz":1,"tags":{"author":"Vladimír Wolf, I. Březina, 2010","climbing":"route_bottom","climbing:grade:uiaa":"5","name":"Údolní stěna","sport":"climbing","website":"https://www.horosvaz.cz/skaly-cesta-63261/"}},"12040076374":{"lat":48.9614429,"lon":15.6849367,"ts":"2024-07-07T15:02:21Z","tz":1,"tags":{"author":"Vladimír Wolf, I. Březina, 2010","climbing":"route_bottom","climbing:grade:uiaa":"6-","name":"Jízda na snowboardu","sport":"climbing","website":"https://www.horosvaz.cz/skaly-cesta-63260/"}},"12040076375":{"lat":48.9614439,"lon":15.6849597,"ts":"2024-07-07T15:02:21Z","tz":1,"tags":{"author":"Ilja Březina, V. Wolf, 2010","climbing":"route_bottom","climbing:grade:uiaa":"5+","name":"Koutostěna","sport":"climbing","website":"https://www.horosvaz.cz/skaly-cesta-63259/"}},"12040076376":{"lat":48.9614449,"lon":15.6849826,"ts":"2024-07-07T15:02:21Z","tz":1,"tags":{"author":"Vladimír Wolf, I. Březina, 2010","climbing":"route_bottom","climbing:grade:uiaa":"3","name":"Pravý kout","sport":"climbing","website":"https://www.horosvaz.cz/skaly-cesta-63258/"}},"12040076377":{"lat":48.9614459,"lon":15.6850056,"ts":"2024-07-07T15:02:21Z","tz":1,"tags":{"author":"Vladimír Wolf, I. Březina, 2010","climbing":"route_bottom","climbing:grade:uiaa":"4","name":"Levý kout","sport":"climbing","website":"https://www.horosvaz.cz/skaly-cesta-63257/"}},"12040076378":{"lat":48.9614469,"lon":15.6850286,"ts":"2024-07-07T15:02:21Z","tz":1,"tags":{"author":"Vladimír Wolf, I. Březina, 2010","climbing":"route_bottom","climbing:grade:uiaa":"7","name":"Siesta","sport":"climbing","website":"https://www.horosvaz.cz/skaly-cesta-63256/"}},"12040076379":{"lat":48.9614478,"lon":15.6850515,"ts":"2024-07-07T15:02:21Z","tz":1,"tags":{"author":"Ilja Březina, V. Wolf, 2010","climbing":"route_bottom","climbing:grade:uiaa":"5-","name":"Dvojspára","sport":"climbing","website":"https://www.horosvaz.cz/skaly-cesta-63255/"}},"12040076380":{"lat":48.9614488,"lon":15.6850745,"ts":"2024-07-07T15:02:21Z","tz":1,"tags":{"author":"Vladimír Wolf, I. Březina, 2010","climbing":"route_bottom","climbing:grade:uiaa":"5+","name":"Stezka odvahy","sport":"climbing","website":"https://www.horosvaz.cz/skaly-cesta-63254/"}},"12040076381":{"lat":48.9614498,"lon":15.6850975,"ts":"2024-07-07T15:02:21Z","tz":1,"tags":{"author":"Vladimír Wolf, I. Březina, 2010","climbing":"route_bottom","climbing:grade:uiaa":"5+","name":"Jalovcová pomlázka","sport":"climbing","website":"https://www.horosvaz.cz/skaly-cesta-63253/"}},"12040076382":{"lat":48.9614508,"lon":15.6851204,"ts":"2024-07-07T15:02:21Z","tz":1,"tags":{"author":"František Mezera, P. Holík, J. Ježek, 21.4.2019","climbing":"route_bottom","climbing:grade:uiaa":"7-","name":"Tesák","sport":"climbing","website":"https://www.horosvaz.cz/skaly-cesta-99754/"}},"12040076383":{"lat":48.9614518,"lon":15.6851434,"ts":"2024-07-07T15:02:21Z","tz":1,"tags":{"author":"Vladimír Wolf, I. Březina, 2010","climbing":"route_bottom","climbing:grade:uiaa":"4+","name":"Smradlavý kout","sport":"climbing","website":"https://www.horosvaz.cz/skaly-cesta-63252/"}},"12040076384":{"lat":48.9614528,"lon":15.6851664,"ts":"2024-07-07T15:02:21Z","tz":1,"tags":{"author":"Vladimír Wolf, I. Březina, 2010","climbing":"route_bottom","climbing:grade:uiaa":"4","name":"Buldozer","sport":"climbing","website":"https://www.horosvaz.cz/skaly-cesta-63251/"}},"12040076385":{"lat":48.9614538,"lon":15.6851893,"ts":"2024-07-07T15:02:21Z","tz":1,"tags":{"author":"Vladimír Wolf, I. Březina, 2010","climbing":"route_bottom","climbing:grade:uiaa":"5","name":"Levý pilíř","sport":"climbing","website":"https://www.horosvaz.cz/skaly-cesta-59905/"}},"12040076386":{"lat":48.9614548,"lon":15.6852123,"ts":"2024-07-07T15:02:21Z","tz":1,"tags":{"author":"Vladimír Wolf, I. Březina, 2010","climbing":"route_bottom","climbing:grade:uiaa":"4","name":"Hlínomaz","sport":"climbing","website":"https://www.horosvaz.cz/skaly-cesta-59906/"}},"12040076399":{"lat":48.9831882,"lon":15.6595656,"ts":"2024-07-07T15:05:49Z","tz":1,"tags":{"author":"Vladimír Wolf, I. Březina, 2009","climbing":"route_bottom","climbing:grade:uiaa":"3","name":"Mecholand","sport":"climbing","website":"https://www.horosvaz.cz/skaly-cesta-54414/"}},"12040076400":{"lat":48.9832029,"lon":15.6595648,"ts":"2024-07-07T15:05:49Z","tz":1,"tags":{"author":"Vladimír Wolf, I. Březina, 2009","climbing":"route_bottom","climbing:grade:uiaa":"4","name":"Noční rallye","sport":"climbing","website":"https://www.horosvaz.cz/skaly-cesta-54415/"}},"12040076401":{"lat":48.9832176,"lon":15.659564,"ts":"2024-07-07T15:05:49Z","tz":1,"tags":{"author":"Ilja Březina, V. Wolf, 2009","climbing":"route_bottom","climbing:grade:uiaa":"7-","name":"Sloní paměť","sport":"climbing","website":"https://www.horosvaz.cz/skaly-cesta-54416/"}},"12040076402":{"lat":48.9832324,"lon":15.6595632,"ts":"2024-07-07T15:05:49Z","tz":1,"tags":{"author":"Vladimír Wolf, I. Březina, 2009","climbing":"route_bottom","climbing:grade:uiaa":"7-","name":"Pomatení mysli","sport":"climbing","website":"https://www.horosvaz.cz/skaly-cesta-54417/"}},"12040076403":{"lat":48.9832471,"lon":15.6595625,"ts":"2024-07-07T15:05:49Z","tz":1,"tags":{"author":"Vladimír Wolf, I. Březina, 2009","climbing":"route_bottom","climbing:grade:uiaa":"7-","name":"Boží ruka","sport":"climbing","website":"https://www.horosvaz.cz/skaly-cesta-54418/"}},"12040076404":{"lat":48.9832618,"lon":15.6595617,"ts":"2024-07-07T15:05:49Z","tz":1,"tags":{"author":"Autoři neznámí","climbing":"route_bottom","climbing:grade:uiaa":"7-","name":"Historická","sport":"climbing","website":"https://www.horosvaz.cz/skaly-cesta-54419/"}},"12040076405":{"lat":48.9832765,"lon":15.6595609,"ts":"2024-07-07T15:05:49Z","tz":1,"tags":{"author":"Autoři neznámí","climbing":"route_bottom","climbing:grade:uiaa":"5","name":"Pravé y","sport":"climbing","website":"https://www.horosvaz.cz/skaly-cesta-54420/"}},"12040076406":{"lat":48.9832913,"lon":15.6595601,"ts":"2024-07-07T15:05:49Z","tz":1,"tags":{"author":"Vladimír Wolf, I. Březina, 2009","climbing":"route_bottom","climbing:grade:uiaa":"7-","name":"U konce s dechem","sport":"climbing","website":"https://www.horosvaz.cz/skaly-cesta-54421/"}},"12040076407":{"lat":48.9833044,"lon":15.659564,"ts":"2024-07-07T15:05:49Z","tz":1,"tags":{"author":"Vladimír Wolf, I. Březina, 2009","climbing":"route_bottom","climbing:grade:uiaa":"7-","name":"Smrt dobrého přítele","sport":"climbing","website":"https://www.horosvaz.cz/skaly-cesta-54422/"}},"12040076408":{"lat":48.9833155,"lon":15.6595737,"ts":"2024-07-07T15:05:49Z","tz":1,"tags":{"author":"Autoři neznámí","climbing":"route_bottom","climbing:grade:uiaa":"5-","name":"Levé y","sport":"climbing","website":"https://www.horosvaz.cz/skaly-cesta-54423/"}},"12040076409":{"lat":48.9833266,"lon":15.6595834,"ts":"2024-07-07T15:05:49Z","tz":1,"tags":{"author":"Autoři neznámí","climbing":"route_bottom","climbing:grade:uiaa":"7-","name":"Tříletá","sport":"climbing","website":"https://www.horosvaz.cz/skaly-cesta-54424/"}},"12040076410":{"lat":48.9833377,"lon":15.6595931,"ts":"2024-07-07T15:05:49Z","tz":1,"tags":{"author":"Ilja Březina, V. Wolf, 2009","climbing":"route_bottom","climbing:grade:uiaa":"7","name":"Branding","sport":"climbing","website":"https://www.horosvaz.cz/skaly-cesta-54426/"}},"12040076411":{"lat":48.9833488,"lon":15.6596028,"ts":"2024-07-07T15:05:49Z","tz":1,"tags":{"author":"Autoři neznámí","climbing":"route_bottom","name":"Projekt","sport":"climbing","website":"https://www.horosvaz.cz/skaly-cesta-54425/"}},"12040076412":{"lat":48.98336,"lon":15.6596125,"ts":"2024-07-07T15:05:49Z","tz":1,"tags":{"author":"Vladimír Wolf, I. Březina, 2009","climbing":"route_bottom","climbing:grade:uiaa":"6","name":"Divoké počty","sport":"climbing","website":"https://www.horosvaz.cz/skaly-cesta-54427/"}},"12040076413":{"lat":48.9833728,"lon":15.6596069,"ts":"2024-07-07T15:05:49Z","tz":1,"tags":{"author":"Vladimír Wolf, I. Březina, 2009","climbing":"route_bottom","climbing:grade:uiaa":"5","name":"Skládačka","sport":"climbing","website":"https://www.horosvaz.cz/skaly-cesta-54428/"}},"12040076414":{"lat":48.9833858,"lon":15.6596,"ts":"2024-07-07T15:05:49Z","tz":1,"tags":{"author":"Autoři neznámí","climbing":"route_bottom","climbing:grade:uiaa":"4","name":"Varianta koutu","sport":"climbing","website":"https://www.horosvaz.cz/skaly-cesta-54429/"}},"12040076415":{"lat":48.9833988,"lon":15.659593,"ts":"2024-07-07T15:05:49Z","tz":1,"tags":{"author":"Autoři neznámí","climbing":"route_bottom","climbing:grade:uiaa":"4","name":"Kout","sport":"climbing","website":"https://www.horosvaz.cz/skaly-cesta-54430/"}},"12040076416":{"lat":48.9834117,"lon":15.659586,"ts":"2024-07-07T15:05:49Z","tz":1,"tags":{"author":"Autoři neznámí","climbing":"route_bottom","climbing:grade:uiaa":"4","name":"Spára","sport":"climbing","website":"https://www.horosvaz.cz/skaly-cesta-54431/"}},"12040076417":{"lat":48.9834247,"lon":15.659579,"ts":"2024-07-07T15:05:49Z","tz":1,"tags":{"author":"Vladimír Wolf, I. Březina, 2009","climbing":"route_bottom","climbing:grade:uiaa":"4","name":"Botanická zahrada","sport":"climbing","website":"https://www.horosvaz.cz/skaly-cesta-54432/"}},"12040076418":{"lat":48.9834377,"lon":15.659572,"ts":"2024-07-07T15:05:49Z","tz":1,"tags":{"author":"Ilja Březina, V. Wolf, 2009","climbing":"route_bottom","climbing:grade:uiaa":"4","name":"Údolí dutých hlav","sport":"climbing","website":"https://www.horosvaz.cz/skaly-cesta-54433/"}},"12040076419":{"lat":48.9834507,"lon":15.659565,"ts":"2024-07-07T15:05:49Z","tz":1,"tags":{"author":"Ilja Březina, V. Wolf, , 2009","climbing":"route_bottom","climbing:grade:uiaa":"4","name":"Partyzán","sport":"climbing","website":"https://www.horosvaz.cz/skaly-cesta-54434/"}},"12040076669":{"lat":48.9618873,"lon":15.6799476,"ts":"2024-07-07T15:00:58Z","tz":1,"tags":{"author":"Ilja Březina, V. Wolf, 2010","climbing":"route_bottom","climbing:grade:uiaa":"6+","name":"Panamský průplav","sport":"climbing","website":"https://www.horosvaz.cz/skaly-cesta-63199/"}},"12040076670":{"lat":48.9618738,"lon":15.6799535,"ts":"2024-07-07T15:00:58Z","tz":1,"tags":{"author":"Ilja Březina, V. Wolf, 2010","climbing":"route_bottom","climbing:grade:uiaa":"6","name":"Sluníčkový kout","sport":"climbing","website":"https://www.horosvaz.cz/skaly-cesta-63198/"}},"12040076671":{"lat":48.9618603,"lon":15.6799594,"ts":"2024-07-07T15:00:58Z","tz":1,"tags":{"author":"Ilja Březina, V. Wolf, 2010","climbing":"route_bottom","climbing:grade:uiaa":"6","name":"Násilná varianta","sport":"climbing","website":"https://www.horosvaz.cz/skaly-cesta-63197/"}},"12040076672":{"lat":48.9618463,"lon":15.679964,"ts":"2024-07-07T15:00:58Z","tz":1,"tags":{"author":"Ilja Březina, V. Wolf, 2010","climbing":"route_bottom","climbing:grade:uiaa":"6","name":"Varianta Sluníčkového koutu","sport":"climbing","website":"https://www.horosvaz.cz/skaly-cesta-63196/"}},"12040076673":{"lat":48.9618323,"lon":15.6799684,"ts":"2024-07-07T15:00:58Z","tz":1,"tags":{"author":"Vladimír Wolf, I. Březina, 2010","climbing":"route_bottom","climbing:grade:uiaa":"7-","name":"Nebeské zvony","sport":"climbing","website":"https://www.horosvaz.cz/skaly-cesta-63195/"}},"12040076674":{"lat":48.9618182,"lon":15.6799728,"ts":"2024-07-07T15:00:58Z","tz":1,"tags":{"author":"Vladimír Wolf, I. Březina, 2010","climbing":"route_bottom","climbing:grade:uiaa":"7-","name":"Padlý anděl","sport":"climbing","website":"https://www.horosvaz.cz/skaly-cesta-63194/"}},"12040076675":{"lat":48.9618042,"lon":15.6799772,"ts":"2024-07-07T15:00:58Z","tz":1,"tags":{"author":"Vladimír Wolf, I. Březina, 2010","climbing":"route_bottom","climbing:grade:uiaa":"6","name":"Meč v pochvě","sport":"climbing","website":"https://www.horosvaz.cz/skaly-cesta-63193/"}},"12040076676":{"lat":48.9617901,"lon":15.6799816,"ts":"2024-07-07T15:00:58Z","tz":1,"tags":{"author":"Ilja Březina, V. Wolf, 2010","climbing":"route_bottom","climbing:grade:uiaa":"5","name":"Dětská plazivka","sport":"climbing","website":"https://www.horosvaz.cz/skaly-cesta-63192/"}},"12040076677":{"lat":48.9617761,"lon":15.679986,"ts":"2024-07-07T15:00:58Z","tz":1,"tags":{"author":"Vladimír Wolf, I. Březina, 2010","climbing":"route_bottom","climbing:grade:uiaa":"6-","name":"Neodbytný důchodce","sport":"climbing","website":"https://www.horosvaz.cz/skaly-cesta-63191/"}},"12040076678":{"lat":48.961762,"lon":15.6799904,"ts":"2024-07-07T15:00:58Z","tz":1,"tags":{"author":"Vladimír Wolf, I. Březina, 2010","climbing":"route_bottom","climbing:grade:uiaa":"6+","name":"Anděl nebo Ježíšek?","sport":"climbing","website":"https://www.horosvaz.cz/skaly-cesta-63190/"}},"12040076679":{"lat":48.961748,"lon":15.6799948,"ts":"2024-07-07T15:00:58Z","tz":1,"tags":{"author":"Ilja Březina, V. Wolf, 2010","climbing":"route_bottom","climbing:grade:uiaa":"6","name":"Jednonohý bandita","sport":"climbing","website":"https://www.horosvaz.cz/skaly-cesta-63189/"}},"12040076680":{"lat":48.9617339,"lon":15.6799992,"ts":"2024-07-07T15:00:58Z","tz":1,"tags":{"author":"Vladimír Wolf, I. Březina, 2010","climbing":"route_bottom","climbing:grade:uiaa":"4","name":"Hadí díra","sport":"climbing","website":"https://www.horosvaz.cz/skaly-cesta-63188/"}},"12040076681":{"lat":48.9617199,"lon":15.6800036,"ts":"2024-07-07T15:00:58Z","tz":1,"tags":{"author":"Vladimír Wolf, I. Březina, 2010","climbing":"route_bottom","climbing:grade:uiaa":"5+","name":"Severní vítr","sport":"climbing","website":"https://www.horosvaz.cz/skaly-cesta-63187/"}},"12040076682":{"lat":48.9617058,"lon":15.680008,"ts":"2024-07-07T15:00:58Z","tz":1,"tags":{"author":"Ilja Březina, V. Wolf, 2010","climbing":"route_bottom","climbing:grade:uiaa":"6-","name":"Azrael","sport":"climbing","website":"https://www.horosvaz.cz/skaly-cesta-63186/"}},"12040076683":{"lat":48.9616918,"lon":15.6800124,"ts":"2024-07-07T15:00:58Z","tz":1,"tags":{"author":"Ilja Březina, V. Wolf, 2010","climbing":"route_bottom","climbing:grade:uiaa":"5","name":"Belzebub disco","sport":"climbing","website":"https://www.horosvaz.cz/skaly-cesta-63185/"}},"12040076684":{"lat":48.9616777,"lon":15.6800168,"ts":"2024-07-07T15:00:58Z","tz":1,"tags":{"author":"Vladimír Wolf, I. Březina, 2010","climbing":"route_bottom","climbing:grade:uiaa":"7-","name":"Meluzína","sport":"climbing","website":"https://www.horosvaz.cz/skaly-cesta-59892/"}},"12040076685":{"lat":48.9616637,"lon":15.6800213,"ts":"2024-07-07T15:00:58Z","tz":1,"tags":{"author":"Ilja Březina, V. Wolf, 2010","climbing":"route_bottom","climbing:grade:uiaa":"6-","name":"Odpadlík","sport":"climbing","website":"https://www.horosvaz.cz/skaly-cesta-59893/"}},"12040076686":{"lat":48.9616496,"lon":15.6800257,"ts":"2024-07-07T15:00:58Z","tz":1,"tags":{"author":"Ilja Březina, V. Wolf, 2010","climbing":"route_bottom","climbing:grade:uiaa":"6-","name":"Interakce","sport":"climbing","website":"https://www.horosvaz.cz/skaly-cesta-63184/"}},"12040082831":{"lat":48.9827611,"lon":15.6591384,"ts":"2024-07-07T15:06:48Z","tz":1,"tags":{"author":"Vladimír Wolf, I. Březina, 2009","climbing":"route_bottom","climbing:grade:uiaa":"4","name":"Poslední šrot","sport":"climbing","website":"https://www.horosvaz.cz/skaly-cesta-55877/"}},"12040082832":{"lat":48.982773,"lon":15.659153,"ts":"2024-07-07T15:06:48Z","tz":1,"tags":{"author":"Vladimír Wolf, I. Březina, 2009","climbing":"route_bottom","climbing:grade:uiaa":"5","name":"Padající list","sport":"climbing","website":"https://www.horosvaz.cz/skaly-cesta-55878/"}},"12040082833":{"lat":48.9827848,"lon":15.6591675,"ts":"2024-07-07T15:06:48Z","tz":1,"tags":{"author":"Vladimír Wolf, I. Březina, 2009","climbing":"route_bottom","climbing:grade:uiaa":"6+","name":"Beztrestný smích","sport":"climbing","website":"https://www.horosvaz.cz/skaly-cesta-55879/"}},"12040082834":{"lat":48.9827967,"lon":15.6591821,"ts":"2024-07-07T15:06:48Z","tz":1,"tags":{"author":"Vladimír Wolf, I. Březina, 2009","climbing":"route_bottom","climbing:grade:uiaa":"6-","name":"Promovaní úderníci","sport":"climbing","website":"https://www.horosvaz.cz/skaly-cesta-55880/"}},"12040082835":{"lat":48.9828086,"lon":15.6591967,"ts":"2024-07-07T15:06:48Z","tz":1,"tags":{"author":"Vladimír Wolf, I. Březina, 2009","climbing":"route_bottom","climbing:grade:uiaa":"4","name":"Dopolední procházka","sport":"climbing","website":"https://www.horosvaz.cz/skaly-cesta-55881/"}},"12040082836":{"lat":48.9828204,"lon":15.6592113,"ts":"2024-07-07T15:06:48Z","tz":1,"tags":{"author":"Vladimír Wolf, I. Březina, 2009","climbing":"route_bottom","climbing:grade:uiaa":"6-","name":"Mísa plná hoven","sport":"climbing","website":"https://www.horosvaz.cz/skaly-cesta-55882/"}},"12040082837":{"lat":48.9828323,"lon":15.6592258,"ts":"2024-07-07T15:06:48Z","tz":1,"tags":{"author":"Vladimír Wolf, I. Březina, 2009","climbing":"route_bottom","climbing:grade:uiaa":"6+","name":"Nezvaný host","sport":"climbing","website":"https://www.horosvaz.cz/skaly-cesta-55883/"}},"12040082838":{"lat":48.9828441,"lon":15.6592404,"ts":"2024-07-07T15:06:48Z","tz":1,"tags":{"author":"Vladimír Wolf, Ilja Březina, 2009","climbing":"route_bottom","climbing:grade:uiaa":"7-","name":"Tutovej hexenšuš","sport":"climbing","website":"https://www.horosvaz.cz/skaly-cesta-55884/"}},"12040082839":{"lat":48.982856,"lon":15.659255,"ts":"2024-07-07T15:06:48Z","tz":1,"tags":{"author":"Vladimír Wolf, I. Březina, 2009","climbing":"route_bottom","climbing:grade:uiaa":"6+","name":"Hatátitlá","sport":"climbing","website":"https://www.horosvaz.cz/skaly-cesta-55885/"}},"12040082840":{"lat":48.9828679,"lon":15.6592696,"ts":"2024-07-07T15:06:48Z","tz":1,"tags":{"author":"Ilja Březina, V. Wolf, 2009","climbing":"route_bottom","climbing:grade:uiaa":"6-","name":"Pravé V","sport":"climbing","website":"https://www.horosvaz.cz/skaly-cesta-55886/"}},"12040082841":{"lat":48.9828797,"lon":15.6592842,"ts":"2024-07-07T15:06:48Z","tz":1,"tags":{"author":"Vladimír Wolf, I. Březina, 2009","climbing":"route_bottom","climbing:grade:uiaa":"7","name":"Setkání s Antoniem","sport":"climbing","website":"https://www.horosvaz.cz/skaly-cesta-55887/"}},"12040082842":{"lat":48.9828916,"lon":15.6592987,"ts":"2024-07-07T15:06:48Z","tz":1,"tags":{"author":"Ilja Březina, V. Wolf, 2009","climbing":"route_bottom","climbing:grade:uiaa":"7","name":"Tenkrát v Mexiku","sport":"climbing","website":"https://www.horosvaz.cz/skaly-cesta-55888/"}},"12040082843":{"lat":48.9829035,"lon":15.6593133,"ts":"2024-07-07T15:06:48Z","tz":1,"tags":{"author":"Ilja Březina, V. Wolf, 2009","climbing":"route_bottom","climbing:grade:uiaa":"4+","name":"Levé V","sport":"climbing","website":"https://www.horosvaz.cz/skaly-cesta-55889/"}},"12040082844":{"lat":48.9829153,"lon":15.6593279,"ts":"2024-07-07T15:06:48Z","tz":1,"tags":{"author":"Vladimír Wolf, I. Březina, 2009","climbing":"route_bottom","climbing:grade:uiaa":"5-","name":"Senoseč","sport":"climbing","website":"https://www.horosvaz.cz/skaly-cesta-55890/"}},"12040082845":{"lat":48.9829272,"lon":15.6593425,"ts":"2024-07-07T15:06:48Z","tz":1,"tags":{"author":"Ilja Březina, V. Wolf, 2009","climbing":"route_bottom","climbing:grade:uiaa":"5+","name":"Hraboš skalní","sport":"climbing","website":"https://www.horosvaz.cz/skaly-cesta-55891/"}},"12040082846":{"lat":48.982939,"lon":15.659357,"ts":"2024-07-07T15:06:48Z","tz":1,"tags":{"author":"Vladimír Wolf, I. Březina, 2009","climbing":"route_bottom","climbing:grade:uiaa":"6","name":"Když musíš, tak musíš","sport":"climbing","website":"https://www.horosvaz.cz/skaly-cesta-55876/"}},"12040082847":{"lat":48.9829509,"lon":15.6593716,"ts":"2024-07-07T15:06:48Z","tz":1,"tags":{"author":"Ilja Březina, V. Wolf, 2009","climbing":"route_bottom","climbing:grade:uiaa":"7","name":"Pianista","sport":"climbing","website":"https://www.horosvaz.cz/skaly-cesta-55892/"}},"12040082848":{"lat":48.9829628,"lon":15.6593862,"ts":"2024-07-07T15:06:48Z","tz":1,"tags":{"author":"Vladimír Wolf, I. Březina, 2009","climbing":"route_bottom","climbing:grade:uiaa":"7-","name":"Mrtvá voda","sport":"climbing","website":"https://www.horosvaz.cz/skaly-cesta-55893/"}},"12040082849":{"lat":48.9829746,"lon":15.6594008,"ts":"2024-07-07T15:06:48Z","tz":1,"tags":{"author":"Ilja Březina, V. Wolf, 2009","climbing":"route_bottom","climbing:grade:uiaa":"5","name":"Otčenáš","sport":"climbing","website":"https://www.horosvaz.cz/skaly-cesta-55894/"}},"12040082850":{"lat":48.9829865,"lon":15.6594154,"ts":"2024-07-07T15:06:48Z","tz":1,"tags":{"author":"Vladimír Wolf, I. Březina, 2009","climbing":"route_bottom","climbing:grade:uiaa":"7-","name":"Žaludeční nervóza","sport":"climbing","website":"https://www.horosvaz.cz/skaly-cesta-55895/"}},"12040082851":{"lat":48.9829984,"lon":15.6594299,"ts":"2024-07-07T15:06:48Z","tz":1,"tags":{"author":"Vladimír Wolf, I. Březina, 2009","climbing":"route_bottom","climbing:grade:uiaa":"5+","name":"Mačkej Mause","sport":"climbing","website":"https://www.horosvaz.cz/skaly-cesta-55896/"}},"12040082852":{"lat":48.9830102,"lon":15.6594445,"ts":"2024-07-07T15:06:48Z","tz":1,"tags":{"author":"Vladimír Wolf, I. Březina, 2009","climbing":"route_bottom","climbing:grade:uiaa":"6+","name":"Krvavý sport","sport":"climbing","website":"https://www.horosvaz.cz/skaly-cesta-55875/"}},"12040082853":{"lat":48.9830221,"lon":15.6594591,"ts":"2024-07-07T15:06:48Z","tz":1,"tags":{"author":"Vladimír Wolf, I. Březina, 2009","climbing":"route_bottom","climbing:grade:uiaa":"4-","name":"Skrytá hrozba","sport":"climbing","website":"https://www.horosvaz.cz/skaly-cesta-55897/"}},"12040085079":{"lat":48.9831484,"lon":15.6594463,"ts":"2024-07-07T15:07:05Z","tz":1,"tags":{"author":"Ilja Březina, V. Wolf, 2009","climbing":"route_bottom","climbing:grade:uiaa":"4","name":"S.W.A.T","sport":"climbing","website":"https://www.horosvaz.cz/skaly-cesta-55871/"}},"12040085080":{"lat":48.9831594,"lon":15.6594671,"ts":"2024-07-07T15:07:05Z","tz":1,"tags":{"author":"Ilja Březina, V. Wolf, 2009","climbing":"route_bottom","climbing:grade:uiaa":"4+","name":"Urna","sport":"climbing","website":"https://www.horosvaz.cz/skaly-cesta-55872/"}},"12040085081":{"lat":48.9831704,"lon":15.6594879,"ts":"2024-07-07T15:07:05Z","tz":1,"tags":{"author":"Vladimír Wolf, I. Březina, 2009","climbing":"route_bottom","climbing:grade:uiaa":"4","name":"Delta Force","sport":"climbing","website":"https://www.horosvaz.cz/skaly-cesta-55873/"}},"12040085082":{"lat":48.9831814,"lon":15.6595087,"ts":"2024-07-07T15:07:05Z","tz":1,"tags":{"author":"Vladimír Wolf, I. Březina, 2009","climbing":"route_bottom","climbing:grade:uiaa":"4","name":"Rychlá rota","sport":"climbing","website":"https://www.horosvaz.cz/skaly-cesta-55874/"}}}