{"18147105":{"lat":48.6268079,"lon":15.6079783,"ts":"2024-10-16T07:27:19Z","tz":1,"tags":{"climbing":"crag","name":"Traumland","sport":"climbing","type":"site"}},"18168016":{"lat":48.6273598,"lon":15.6094896,"ts":"2024-10-16T07:27:19Z","tz":1,"tags":{"climbing":"crag","name":"Hängender Stein","site":"climbing","sport":"climbing","type":"site"}},"18168017":{"lat":48.6292517,"lon":15.6102847,"ts":"2024-10-16T07:27:19Z","tz":1,"tags":{"climbing":"crag","name":"Fischplatte","site":"climbing","sport":"climbing","type":"site"}},"18217394":{"lat":48.488525,"lon":15.5409151,"ts":"2024-10-27T20:49:43Z","tz":1,"tags":{"climbing":"crag","name":"Dross-Lerchenfelderamt","site":"climbing","sport":"climbing","type":"site"}},"18217396":{"lat":48.4815156,"lon":15.5023229,"ts":"2024-10-27T20:51:00Z","tz":1,"tags":{"climbing":"crag","name":"Untermeisling","site":"climbing","sport":"climbing","type":"site"}},"18217406":{"lat":48.4751852,"lon":15.5328469,"ts":"2024-10-27T20:55:12Z","tz":1,"tags":{"climbing":"crag","name":"Dross Athletenstein","site":"climbing","sport":"climbing","type":"site"}},"18218719":{"lat":48.4935417,"lon":15.5164925,"ts":"2024-10-27T23:26:51Z","tz":1,"tags":{"climbing":"crag","name":"Dreiturmberg","site":"climbing","sport":"climbing","type":"site"}},"18219103":{"lat":48.4936378,"lon":15.5508856,"ts":"2024-10-28T01:57:10Z","tz":1,"tags":{"climbing":"crag","name":"Black Beauty","site":"climbing","sport":"climbing","type":"site"}},"18229763":{"lat":48.6284407,"lon":15.6303221,"ts":"2024-10-30T13:28:04Z","tz":1,"tags":{"climbing":"crag","name":"Schloss Rosenburg Kletterpark","site":"climbing","sport":"climbing","type":"site"}},"18229781":{"lat":48.6562964,"lon":15.6643726,"ts":"2024-10-30T13:34:18Z","tz":1,"tags":{"climbing":"crag","name":"AV Klettergarten","site":"climbing","sport":"climbing","type":"site"}},"129835226":{"lat":48.6273598,"lon":15.6094896,"ts":"2011-09-13T11:28:28Z","tz":1,"tags":{"name":"Hängender Stein","natural":"cliff","sport":"climbing"}},"142397721":{"lat":48.6284407,"lon":15.6303221,"ts":"2024-03-25T20:19:47Z","tz":1,"tags":{"barrier":"fence","name":"Kletterpark","sport":"climbing","tourism":"theme_park"}},"163561153":{"lat":48.477664,"lon":15.5300264,"ts":"2012-05-14T09:36:53Z","tz":1,"tags":{"name":"Athletenstein","natural":"cliff","sport":"climbing"}},"163593068":{"lat":48.4682255,"lon":15.673606,"ts":"2012-05-14T13:54:52Z","tz":1,"tags":{"barrier":"wall","sport":"climbing"}},"687907791":{"lat":48.6562964,"lon":15.6643726,"ts":"2019-05-05T08:29:53Z","tz":1,"tags":{"climbing":"crag","name":"AV Klettergarten","natural":"bare_rock","sport":"climbing"}},"1298093291":{"lat":48.6268079,"lon":15.6079783,"ts":"2024-10-10T13:18:15Z","tz":1,"tags":{"natural":"cliff","sport":"climbing"}},"12130780649":{"lat":48.6268247,"lon":15.607952,"ts":"2024-10-16T07:27:19Z","tz":1,"tags":{"climbing":"crag","name":"Traumland","sport":"climbing"}},"12292466135":{"lat":48.4815156,"lon":15.5023229,"ts":"2024-10-27T20:51:00Z","tz":1,"tags":{"climbing":"crag","name":"Untermeisling","sport":"climbing"}},"12292475663":{"lat":48.488525,"lon":15.5409151,"ts":"2024-10-27T20:49:43Z","tz":1,"tags":{"climbing":"crag","name":"Dross-Lerchenfelderamt","sport":"climbing"}},"12292488340":{"lat":48.4726088,"lon":15.5358393,"ts":"2024-10-27T20:55:12Z","tz":1,"tags":{"climbing":"crag","name":"Dross Athletenstein","sport":"climbing"}},"12292704952":{"lat":48.4935417,"lon":15.5164925,"ts":"2024-10-27T23:26:51Z","tz":1,"tags":{"name":"Dreiturmberg","sport":"climbing"}},"12292871546":{"lat":48.4936378,"lon":15.5508856,"ts":"2024-10-28T01:57:10Z","tz":1,"tags":{"name":"Black Beauty","sport":"climbing"}},"12299536601":{"lat":48.4698387,"lon":15.6672702,"ts":"2024-10-30T13:45:44Z","tz":1,"tags":{"description":"The church building has been converted to a climbing gym. Birkenweg 3.","fixme":"exact location","name":"Kletterdom","sport":"climbing"}}}