{"18147170":{"lat":47.7331822,"lon":15.754698,"ts":"2025-03-23T19:48:50Z","tz":1,"tags":{"climbing":"crag","name":"Höllental","sport":"climbing","type":"site"}},"18147173":{"lat":47.6966253,"lon":15.6857743,"ts":"2024-10-28T03:04:00Z","tz":1,"tags":{"climbing":"area","name":"Rax","sport":"climbing","type":"site"}},"18147181":{"lat":47.7485206,"lon":15.7679875,"ts":"2024-10-10T13:37:59Z","tz":1,"tags":{"climbing":"crag","name":"Weichtalhaus Klettergarten","sport":"climbing","type":"site"}},"18147245":{"lat":47.7251186,"lon":15.8095849,"ts":"2024-10-15T17:57:46Z","tz":1,"tags":{"climbing":"crag","name":"Grossofen","sport":"climbing","type":"site"}},"18160420":{"lat":47.7000934,"lon":15.7364692,"ts":"2024-10-28T12:59:12Z","tz":1,"tags":{"climbing":"crag","name":"Preiner Wand","site":"climbing","sport":"climbing","type":"site"}},"18160436":{"lat":47.7486532,"lon":15.7904537,"ts":"2025-02-07T11:32:41Z","tz":1,"tags":{"climbing":"crag","name":"Stadelwand","site":"climbing","sport":"climbing","type":"site"}},"18160443":{"lat":47.7466598,"lon":15.7839929,"ts":"2024-10-13T23:19:04Z","tz":1,"tags":{"climbing":"crag","name":"Vordere Stadelwand","site":"climbing","sport":"climbing","type":"site"}},"18161921":{"lat":47.7182908,"lon":15.8096738,"ts":"2025-03-23T19:43:11Z","tz":1,"tags":{"climbing":"crag","name":"Mittagstein","site":"climbing","sport":"climbing","type":"site"}},"18165970":{"lat":47.6882074,"lon":15.7081171,"ts":"2024-10-15T16:39:48Z","tz":1,"tags":{"climbing":"crag","name":"Klettergebiet Kantnersteig","site":"climbing","sport":"climbing","type":"site"}},"18165971":{"lat":47.6848644,"lon":15.7034164,"ts":"2024-10-15T16:39:48Z","tz":1,"tags":{"climbing":"crag","name":"Klettergarten Gretchensteig","site":"climbing","sport":"climbing","type":"site"}},"18165972":{"lat":47.684584,"lon":15.7012645,"ts":"2024-10-15T16:39:48Z","tz":1,"tags":{"climbing":"crag","name":"Klettergarten Steinhauserweg","site":"climbing","sport":"climbing","type":"site"}},"18165973":{"lat":47.6844234,"lon":15.6980683,"ts":"2024-10-28T02:57:52Z","tz":1,"tags":{"climbing":"crag","name":"Klettergebiet Reißtalersteig","site":"climbing","sport":"climbing","type":"site"}},"18165974":{"lat":47.6850713,"lon":15.6884226,"ts":"2024-10-28T03:04:00Z","tz":1,"tags":{"climbing":"crag","name":"Klettergebiet Fuchslochsteig","site":"climbing","sport":"climbing","type":"site"}},"18166036":{"lat":47.7451406,"lon":15.7531919,"ts":"2024-10-15T17:07:03Z","tz":1,"tags":{"climbing":"crag","name":"Detektivbüro","site":"climbing","sport":"climbing","type":"site"}},"18166043":{"lat":47.6978239,"lon":15.6737369,"ts":"2024-10-28T03:06:08Z","tz":1,"tags":{"climbing":"crag","name":"Gamseckwände","site":"climbing","sport":"climbing","type":"site"}},"18166046":{"lat":47.6853027,"lon":15.6821735,"ts":"2024-10-28T02:45:53Z","tz":1,"tags":{"climbing":"crag","name":"Paulaturm","site":"climbing","sport":"climbing","type":"site"}},"18166075":{"lat":47.7203198,"lon":15.7320038,"ts":"2024-10-15T17:17:59Z","tz":1,"tags":{"climbing":"crag","name":"Lechnermauern","site":"climbing","sport":"climbing","type":"site"}},"18166225":{"lat":47.7199354,"lon":15.8121643,"ts":"2024-10-15T17:57:46Z","tz":1,"tags":{"climbing":"crag","name":"Krieg und Frieden","site":"climbing","sport":"climbing","type":"site"}},"18166226":{"lat":47.7190267,"lon":15.8129376,"ts":"2024-10-15T17:57:46Z","tz":1,"tags":{"climbing":"crag","climbing:grade:uiaa:max":"8","climbing:grade:uiaa:min":"5+","name":"Magie des Bösen","site":"climbing","sport":"climbing","type":"site"}},"18166297":{"lat":47.7533183,"lon":15.7676977,"ts":"2024-10-15T18:21:21Z","tz":1,"tags":{"climbing":"crag","name":"Verlorenen Turm","site":"climbing","sport":"climbing","type":"site"}},"18166298":{"lat":47.7534302,"lon":15.7618643,"ts":"2024-10-15T18:21:21Z","tz":1,"tags":{"climbing":"crag","name":"Atlantis","site":"climbing","sport":"climbing","type":"site"}},"18166299":{"lat":47.7523676,"lon":15.7701746,"ts":"2024-10-15T18:21:21Z","tz":1,"tags":{"climbing":"crag","name":"Weichtalklamm","site":"climbing","sport":"climbing","type":"site"}},"18166319":{"lat":47.741901,"lon":15.7858646,"ts":"2024-10-28T13:11:18Z","tz":1,"tags":{"climbing":"crag","name":"Hochgang-Westwand","site":"climbing","sport":"climbing","type":"site"}},"18166320":{"lat":47.7434857,"lon":15.7819812,"ts":"2024-10-15T18:27:08Z","tz":1,"tags":{"climbing":"crag","name":"Feiertagsststein","site":"climbing","sport":"climbing","type":"site"}},"18166829":{"lat":47.6571979,"lon":15.7947727,"ts":"2024-10-15T20:34:21Z","tz":1,"tags":{"climbing":"crag","name":"Adlitzgräben Mixed","site":"climbing","sport":"climbing","type":"site"}},"18166830":{"lat":47.6592048,"lon":15.7984412,"ts":"2024-10-15T20:34:21Z","tz":1,"tags":{"climbing":"crag","name":"Zapfl","site":"climbing","sport":"climbing","type":"site"}},"18166831":{"lat":47.6584687,"lon":15.7963876,"ts":"2024-10-15T20:34:21Z","tz":1,"tags":{"climbing":"crag","name":"Straßenwand","site":"climbing","sport":"climbing","type":"site"}},"18218570":{"lat":47.7223192,"lon":15.8067362,"ts":"2024-10-27T22:15:31Z","tz":1,"tags":{"climbing":"crag","name":"Rechenmauer","site":"climbing","sport":"climbing","type":"site"}},"18218572":{"lat":47.7220035,"lon":15.8102302,"ts":"2024-10-27T22:18:03Z","tz":1,"tags":{"climbing":"crag","name":"Fuchslochgraben","site":"climbing","sport":"climbing","type":"site"}},"18218578":{"lat":47.7336593,"lon":15.7980174,"ts":"2024-10-27T22:20:38Z","tz":1,"tags":{"climbing":"crag","name":"Schattenreich","site":"climbing","sport":"climbing","type":"site"}},"18218582":{"lat":47.7233768,"lon":15.8054899,"ts":"2024-10-27T22:23:05Z","tz":1,"tags":{"climbing":"crag","name":"Die fünf Elemente","site":"climbing","sport":"climbing","type":"site"}},"18218585":{"lat":47.7296396,"lon":15.6755901,"ts":"2024-10-27T22:26:05Z","tz":1,"tags":{"climbing":"crag","name":"NW","site":"climbing","sport":"climbing","type":"site"}},"18218591":{"lat":47.7027162,"lon":15.7322594,"ts":"2024-10-27T22:37:49Z","tz":1,"tags":{"climbing":"crag","climbing:grade:uiaa:max":"8+","climbing:grade:uiaa:min":"5-","name":"Klettergarten Seehütte","site":"climbing","sport":"climbing","type":"site"}},"18218624":{"lat":47.7406895,"lon":15.7579463,"ts":"2024-10-27T22:51:24Z","tz":1,"tags":{"climbing":"crag","name":"Weisse Wand","site":"climbing","sport":"climbing","type":"site"}},"18218728":{"lat":47.7317303,"lon":15.8072559,"ts":"2024-10-27T23:29:44Z","tz":1,"tags":{"climbing":"crag","name":"Ochsenwand","site":"climbing","sport":"climbing","type":"site"}},"18219113":{"lat":47.750258,"lon":15.7418317,"ts":"2024-10-28T02:10:24Z","tz":1,"tags":{"climbing":"crag","name":"Kesselgraben","site":"climbing","sport":"climbing","type":"site"}},"18219115":{"lat":47.7391305,"lon":15.7544889,"ts":"2024-10-28T02:13:32Z","tz":1,"tags":{"climbing":"crag","name":"Klobenwand","site":"climbing","sport":"climbing","type":"site"}},"18219118":{"lat":47.7454936,"lon":15.756598,"ts":"2024-10-28T02:22:42Z","tz":1,"tags":{"climbing":"crag","name":"Vordere Klobenwand","site":"climbing","sport":"climbing","type":"site"}},"18220686":{"lat":47.7480739,"lon":15.7689688,"ts":"2024-10-28T13:28:50Z","tz":1,"tags":{"climbing":"crag","name":"Lärchkogelgrat","site":"climbing","sport":"climbing","type":"site"}},"18885116":{"lat":47.7372165,"lon":15.7573557,"ts":"2025-03-23T19:48:50Z","tz":1,"tags":{"climbing":"crag","name":"Paganiniplatte","site":"climbing","sport":"climbing","type":"site"}},"77421435":{"lat":47.6999278,"lon":15.6723518,"ts":"2024-10-27T22:56:49Z","tz":1,"tags":{"highway":"path","name":"Wildes Gamseck","sac_scale":"demanding_alpine_hiking","sport":"climbing","surface":"ground","trail_visibility":"good"}},"137726063":{"lat":47.6991549,"lon":15.6773236,"ts":"2024-10-27T22:56:49Z","tz":1,"tags":{"climbing:grade:uiaa":"2","highway":"path","name":"Wildes Gamseck","sac_scale":"demanding_alpine_hiking","sport":"climbing","surface":"rock"}},"144295301":{"lat":47.6585211,"lon":15.7935513,"ts":"2014-10-26T00:29:26Z","tz":1,"tags":{"name":"Falkensteinwand","natural":"cliff","sport":"climbing"}},"199829002":{"lat":47.5468844,"lon":15.524621,"ts":"2022-08-18T12:39:53Z","tz":1,"tags":{"addr:city":"Mitterdorf im Mürztal","addr:country":"AT","addr:housenumber":"14","addr:postcode":"8662","addr:street":"Auweg","building":"yes","email":"office@kletterakademie.at","leisure":"sports_centre","name":"Kletterakademie Mitterdorf","opening_hours":"Mo 14:00-22:00; Tu-Su 10:00-22:00","phone":"+43385842572","sport":"climbing"}},"199839582":{"lat":47.5805285,"lon":15.4881133,"ts":"2013-01-06T17:26:36Z","tz":1,"tags":{"leisure":"sports_centre","name":"Kletterhalle Veitsch","opening_hours":"Mo-Su 12:00-21:00","phone":"+43-3856-2266","sport":"climbing"}},"288595852":{"lat":47.7381757,"lon":15.7603952,"ts":"2024-10-10T13:33:44Z","tz":1,"tags":{"climbing:grade:uiaa":"2-","highway":"path","name":"Preintalersteig","sac_scale":"demanding_alpine_hiking","sport":"climbing","trail_visibility":"bad"}},"308689578":{"lat":47.7485317,"lon":15.7929151,"ts":"2024-10-13T23:12:25Z","tz":1,"tags":{"climbing":"route","climbing:grade:uiaa":"6+","climbing:rock":"limestone","name":"Bruderherz","sport":"climbing","website":"https://www.bergsteigen.com/klettern/niederoesterreich/rax-schneeberg-gruppe/bruderherz"}},"310560959":{"lat":47.7534302,"lon":15.7618643,"ts":"2024-10-15T18:21:21Z","tz":1,"tags":{"natural":"cliff","sport":"climbing"}},"310567360":{"lat":47.7533183,"lon":15.7676977,"ts":"2024-10-15T18:21:21Z","tz":1,"tags":{"natural":"cliff","sport":"climbing"}},"312906512":{"lat":47.7422865,"lon":15.7888627,"ts":"2024-10-15T18:27:08Z","tz":1,"tags":{"natural":"cliff","sport":"climbing"}},"316133351":{"lat":47.7012523,"lon":15.7333416,"ts":"2020-11-13T20:02:10Z","tz":1,"tags":{"name":"Preinerwandplatte","natural":"cliff","sport":"climbing"}},"316133370":{"lat":47.7003672,"lon":15.7355447,"ts":"2024-10-28T12:54:49Z","tz":1,"tags":{"climbing":"route","climbing:grade:uiaa":"3","fixme":"Lage/Verlauf","name":"Malersteig","osmc:symbol":"red::red_dot","sport":"climbing","trailblazed":"symbols"}},"410957511":{"lat":47.6853692,"lon":15.6826488,"ts":"2016-04-16T21:53:23Z","tz":1,"tags":{"name":"Paulaturm","natural":"cliff","sport":"climbing"}},"431510463":{"lat":47.748272,"lon":15.7901436,"ts":"2024-10-13T23:12:25Z","tz":1,"tags":{"climbing":"route","climbing:grade:uiaa":"5","name":"Richterweg","source:geometry":"estimation","sport":"climbing","website":"https://www.bergsteigen.com/touren/klettern/richterweg-stadelwand/"}},"437362629":{"lat":47.7523676,"lon":15.7701746,"ts":"2024-10-15T18:21:21Z","tz":1,"tags":{"natural":"cliff","sport":"climbing"}},"440092596":{"lat":47.7493893,"lon":15.7907286,"ts":"2024-04-02T10:01:30Z","tz":1,"tags":{"climbing":"route","climbing:grade:uiaa":"3","fixme":"Verlauf","name":"Stadelwandgrat"}},"444175471":{"lat":47.7504111,"lon":15.7408239,"ts":"2016-09-24T18:10:51Z","tz":1,"tags":{"climbing":"route","climbing:grade:uiaa":"3","name":"Romantikerpromenade"}},"451972278":{"lat":47.7486688,"lon":15.790867,"ts":"2024-10-13T23:12:25Z","tz":1,"tags":{"climbing:grade:uiaa":"5-","name":"Brunnerweg","source:geometry":"estimation","sport":"climbing","website":"https://www.bergsteigen.com/touren/klettern/brunnerweg-stadelwand/"}},"451972282":{"lat":47.7482878,"lon":15.7885938,"ts":"2024-04-02T10:01:30Z","tz":1,"tags":{"climbing":"route","climbing:grade:uiaa":"6","name":"Stadelwandverschneidung","source:geometry":"estimation"}},"451972283":{"lat":47.7479376,"lon":15.7880393,"ts":"2024-10-13T23:12:25Z","tz":1,"tags":{"climbing":"route","climbing:grade:uiaa":"3","fixme":"Lage","name":"Neustädtergrat","sport":"climbing"}},"479465992":{"lat":47.7434857,"lon":15.7819812,"ts":"2024-10-15T18:27:08Z","tz":1,"tags":{"natural":"cliff","sport":"climbing"}},"493234387":{"lat":47.7394599,"lon":15.761766,"ts":"2025-03-23T19:51:35Z","tz":1,"tags":{"climbing":"route","climbing:grade:uiaa":"3","fixme":"Verlauf","name":"Zimmersteig","sport":"climbing"}},"493761734":{"lat":47.7418871,"lon":15.7608328,"ts":"2024-10-10T13:33:44Z","tz":1,"tags":{"climbing:grade:uiaa":"2+","fixme":"genauerer Verlauf","highway":"path","name":"Akademikersteig","sac_scale":"difficult_alpine_hiking","sport":"climbing","trail_visibility":"bad"}},"495526472":{"lat":47.7451406,"lon":15.7531919,"ts":"2024-10-15T17:07:34Z","tz":1,"tags":{"natural":"cliff","sport":"climbing"}},"512351166":{"lat":47.7401281,"lon":15.7607829,"ts":"2025-03-23T19:51:35Z","tz":1,"tags":{"climbing":"route","climbing:grade:uiaa":"3","fixme":"Verlauf","name":"Zimmersteig","sport":"climbing"}},"512351181":{"lat":47.7402054,"lon":15.7610316,"ts":"2025-03-23T19:51:35Z","tz":1,"tags":{"climbing":"route","climbing:grade:uiaa":"3","fixme":"Verlauf","name":"Katzenkopfsteig","sport":"climbing"}},"512351193":{"lat":47.740225,"lon":15.7618533,"ts":"2024-04-02T10:01:30Z","tz":1,"tags":{"climbing":"route","climbing:grade:uiaa":"3","fixme":"Verlauf","name":"Katzenkopfkamine"}},"512351197":{"lat":47.7397534,"lon":15.7619274,"ts":"2025-03-23T19:51:35Z","tz":1,"tags":{"climbing":"route","climbing:grade:uiaa":"3","fixme":"Verlauf","name":"Kleeblattsteig","sport":"climbing"}},"512351198":{"lat":47.7410727,"lon":15.7612755,"ts":"2024-10-10T13:33:44Z","tz":1,"tags":{"climbing":"route","climbing:grade:uiaa":"3","name":"Loswandkamine","sport":"climbing"}},"514414946":{"lat":47.7440805,"lon":15.7649537,"ts":"2024-04-04T08:20:22Z","tz":1,"tags":{"climbing":"route","climbing:grade:uiaa":"3+","fixme":"genauer Verlauf","name":"Reifweg"}},"514414947":{"lat":47.7440198,"lon":15.7649139,"ts":"2024-04-04T08:20:22Z","tz":1,"tags":{"climbing":"route","climbing:grade:uiaa":"4+","fixme":"genauer Verlauf","name":"Wachthüttelwandkamine"}},"598440148":{"lat":47.7320366,"lon":15.7484636,"ts":"2024-10-13T22:42:27Z","tz":1,"tags":{"climbing":"route","climbing:grade:uiaa":"5","fixme":"Verlauf, Ende","name":"Hocke-Felix-Steig","sport":"climbing"}},"609714854":{"lat":47.7203198,"lon":15.7320038,"ts":"2024-10-15T17:18:25Z","tz":1,"tags":{"name":"Nördliche Lechnermauern","natural":"cliff","sport":"climbing"}},"623908466":{"lat":47.7131411,"lon":15.7649371,"ts":"2024-04-04T08:20:22Z","tz":1,"tags":{"climbing":"route","climbing:grade:uiaa":"5+","name":"Törlkante"}},"623908468":{"lat":47.7132832,"lon":15.765034,"ts":"2024-04-04T08:20:22Z","tz":1,"tags":{"alt_name":"Thäder-Platte","climbing":"route","climbing:grade:uiaa":"3","fixme":"oberes Ende","name":"Thäderplatte"}},"623958636":{"lat":47.7137244,"lon":15.7659079,"ts":"2024-04-04T08:20:22Z","tz":1,"tags":{"alt_name":"Staiger-Fenster","climbing":"route","climbing:grade:uiaa":"3-","name":"Staigerfenster"}},"623958637":{"lat":47.7137228,"lon":15.7659282,"ts":"2024-04-04T08:20:22Z","tz":1,"tags":{"climbing":"route","climbing:grade:uiaa":"3-","name":"Pehofer-Aufschwung"}},"623958644":{"lat":47.7136883,"lon":15.7657997,"ts":"2024-04-04T08:20:22Z","tz":1,"tags":{"climbing":"route","climbing:grade:uiaa":"4+","name":"Heindlpfeiler"}},"623958646":{"lat":47.7136038,"lon":15.765745,"ts":"2024-04-04T08:20:22Z","tz":1,"tags":{"climbing":"route","climbing:grade:uiaa":"3+","name":"Waissnix-Verschneidung"}},"744185750":{"lat":47.7163036,"lon":15.8083696,"ts":"2024-10-14T10:22:19Z","tz":1,"tags":{"climbing":"route","climbing:grade:uiaa":"2","name":"Mittagsteinhöhlengrat","note:de":"Baumschlingen und rote Punkte","sport":"climbing","website":"https://www.thomasbehm.at/wp-content/uploads/2019/08/67796377_389259625111016_4005201112557682688_n.jpg"}},"871450161":{"lat":47.7012572,"lon":15.7334337,"ts":"2020-11-13T20:02:10Z","tz":1,"tags":{"climbing":"area","name":"Preinerwandplatte","natural":"bare_rock","sport":"climbing"}},"1080456733":{"lat":47.6897099,"lon":15.6815487,"ts":"2025-02-10T15:25:13Z","tz":1,"tags":{"climbing":"route","climbing:grade:uiaa":"2","climbing:trad":"yes","name":"Supercanaletta"}},"1097463784":{"lat":47.6801617,"lon":15.6110673,"ts":"2025-01-14T12:44:06Z","tz":1,"tags":{"climbing":"route","climbing:length":"9","note":"kurze unversichere Kletterstelle mit einer Einstiegsmarkierung, vermutlich als alternativer Einstieg in den Kamplsteig","osmc:symbol":"black_pointer:white_pointer","sport":"climbing"}},"1098703414":{"lat":47.6851869,"lon":15.6912552,"ts":"2024-10-28T03:04:00Z","tz":1,"tags":{"alt_name":"Kleines Fuchsloch","climbing:grade:uiaa":"1","highway":"path","incline":"up","name":"Kleiner Fuchslochsteig","sac_scale":"alpine_hiking","sport":"climbing","surface":"ground","trail_visibility":"horrible"}},"1098705977":{"lat":47.6850713,"lon":15.6886276,"ts":"2024-10-28T03:04:00Z","tz":1,"tags":{"alt_name":"Großes Fuchsloch","climbing:grade:uiaa":"2-","highway":"path","name":"Fuchslochsteig","sac_scale":"demanding_alpine_hiking","sport":"climbing","trail_visibility":"intermediate"}},"1207373095":{"lat":47.7005452,"lon":15.734556,"ts":"2024-10-13T22:52:31Z","tz":1,"tags":{"climbing:grade:uiaa":"3-","fixme":"Genaue Lage/Verlauf","name":"Malersteig","osmc:symbol":"red::red_dot","route":"climbing","sport":"climbing","trailblazed":"symbols"}},"1207380475":{"lat":47.6999261,"lon":15.7353782,"ts":"2024-10-28T12:59:12Z","tz":1,"tags":{"climbing:grade:uiaa":"2","fixme":"Genaue Lage/Verlauf","highway":"path","name":"Karl Berger Steig","osmc:symbol":"red::red_dot","sac_scale":"difficult_alpine_hiking","sport":"climbing","trailblazed":"symbols"}},"1323823219":{"lat":47.7204449,"lon":15.811183,"ts":"2024-10-14T10:25:31Z","tz":1,"tags":{"natural":"cliff","sport":"climbing"}},"1324185471":{"lat":47.7190267,"lon":15.8129376,"ts":"2024-10-15T17:57:46Z","tz":1,"tags":{"fixme":"exact location","natural":"cliff","sport":"climbing"}},"1328699460":{"lat":47.6873724,"lon":15.684689,"ts":"2024-10-28T02:43:11Z","tz":1,"tags":{"climbing":"route","name":"Karreralmsteig","sport":"climbing"}},"4416618975":{"lat":47.7497666,"lon":15.7413382,"ts":"2016-09-24T18:10:49Z","tz":1,"tags":{"climbing":"route_bottom"}},"4416619797":{"lat":47.7500357,"lon":15.7433539,"ts":"2016-09-24T18:10:49Z","tz":1,"tags":{"climbing":"route_bottom"}},"4416619854":{"lat":47.7510556,"lon":15.7403109,"ts":"2016-09-24T18:10:49Z","tz":1,"tags":{"climbing":"route_top"}},"5166427569":{"lat":47.6845457,"lon":15.5635634,"ts":"2020-09-11T22:41:11Z","tz":1,"tags":{"alt_name":"Elisabeth Wandl","climbing:grade:uiaa:max":"VI","climbing:grade:uiaa:min":"II+","climbing:sport":"yes","name":"Klettergarten Karlgraben","sport":"climbing"}},"5695724848":{"lat":47.731686,"lon":15.7497533,"ts":"2024-10-31T09:07:06Z","tz":1,"tags":{"climbing":"route_bottom","sport":"climbing"}},"6934401052":{"lat":47.6848644,"lon":15.7034164,"ts":"2022-07-22T05:07:20Z","tz":1,"tags":{"climbing":"crag","name":"Klettergarten Gretchensteig","sport":"climbing"}},"6934401054":{"lat":47.684584,"lon":15.7012645,"ts":"2022-07-22T05:07:20Z","tz":1,"tags":{"climbing":"crag","name":"Klettergarten Steinhauserweg","sport":"climbing"}},"6934401055":{"lat":47.6850402,"lon":15.6881591,"ts":"2024-10-28T03:04:00Z","tz":1,"tags":{"climbing":"area","name":"Klettergebiet Fuchslochsteig","sport":"climbing"}},"6964900226":{"lat":47.716238,"lon":15.8098673,"ts":"2019-12-24T11:16:35Z","tz":1,"tags":{"climbing":"route_top"}},"6964900245":{"lat":47.716605,"lon":15.8072153,"ts":"2019-11-10T21:08:53Z","tz":1,"tags":{"climbing":"route_bottom"}},"7458890186":{"lat":47.7281873,"lon":15.4854441,"ts":"2020-04-28T13:49:19Z","tz":1,"tags":{"climbing:sport":"yes","name":"Klettergarten Totes Weib","sport":"climbing","website":"http://www.styria-alpin.at/index_htm_files/kb-totesweib.pdf"}},"8206774718":{"lat":47.6882074,"lon":15.7081171,"ts":"2021-09-24T22:19:12Z","tz":1,"tags":{"climbing":"crag","name":"Klettergebiet Kantnersteig","sport":"climbing"}},"9197810581":{"lat":47.698591,"lon":15.6776917,"ts":"2024-10-27T22:56:49Z","tz":1,"tags":{"climbing:trad":"yes","name":"Gamseckwände","sport":"climbing"}},"10048851075":{"lat":47.6801703,"lon":15.6110439,"ts":"2022-09-24T11:02:26Z","tz":1,"tags":{"climbing":"route_top","climbing:bolted":"no","fixme":"continue"}},"10048851076":{"lat":47.6801532,"lon":15.6110908,"ts":"2022-09-24T11:02:26Z","tz":1,"tags":{"climbing":"route_bottom"}},"11712190454":{"lat":47.6722847,"lon":15.5299986,"ts":"2024-03-10T22:26:24Z","tz":1,"tags":{"climbing":"crag","name":"Klettergarten Falkenstein","sport":"climbing"}},"11882193791":{"lat":47.725381,"lon":15.809779,"ts":"2024-05-05T21:06:42Z","tz":1,"tags":{"name":"Grossofen","natural":"cliff","source":"https://www.bergsteigen.com/touren/klettern/reifweg-herbstwind-grossofen/","sport":"climbing"}},"11882221001":{"lat":47.7248561,"lon":15.8093907,"ts":"2024-10-10T13:44:31Z","tz":1,"tags":{"climbing":"route_bottom","name":"Grossofen","sport":"climbing"}},"12009650728":{"lat":47.7485206,"lon":15.7679875,"ts":"2024-06-25T13:50:29Z","tz":1,"tags":{"fee":"no","leisure":"sports_centre","sport":"climbing"}},"12249241861":{"lat":47.7027162,"lon":15.7322594,"ts":"2024-10-27T22:29:53Z","tz":1,"tags":{"climbing":"crag","name":"Klettergarten Seehütte","sport":"climbing"}},"12253483746":{"lat":47.7199354,"lon":15.8121643,"ts":"2024-10-15T17:57:46Z","tz":1,"tags":{"climbing":"route_bottom","name":"Krieg und Frieden","sport":"climbing"}},"12253780265":{"lat":47.6584687,"lon":15.7963876,"ts":"2024-10-15T20:34:21Z","tz":1,"tags":{"climbing":"crag","name":"Straßenwand","sport":"climbing"}},"12292585512":{"lat":47.7223192,"lon":15.8067362,"ts":"2024-10-27T22:15:31Z","tz":1,"tags":{"name":"Rechenmauer","sport":"climbing"}},"12292592789":{"lat":47.7336593,"lon":15.7980174,"ts":"2024-10-27T22:20:38Z","tz":1,"tags":{"name":"Schattenreich","sport":"climbing"}},"12292605813":{"lat":47.7233768,"lon":15.8054899,"ts":"2024-10-27T22:23:05Z","tz":1,"tags":{"name":"Die fünf Elemente","sport":"climbing"}},"12292625002":{"lat":47.7296396,"lon":15.6755901,"ts":"2024-10-27T22:26:05Z","tz":1,"tags":{"name":"NW","sport":"climbing"}},"12292625003":{"lat":47.7406895,"lon":15.7579463,"ts":"2024-10-27T22:51:24Z","tz":1,"tags":{"name":"Weisse Wand","sport":"climbing"}},"12292634619":{"lat":47.7220035,"lon":15.8102302,"ts":"2024-10-27T22:18:03Z","tz":1,"tags":{"name":"Fuchslochgraben","sport":"climbing"}},"12292849245":{"lat":47.7494603,"lon":15.7408326,"ts":"2024-10-28T02:10:24Z","tz":1,"tags":{"name":"Kesselgraben","sport":"climbing"}},"12292874175":{"lat":47.7391305,"lon":15.7544889,"ts":"2024-10-28T02:13:32Z","tz":1,"tags":{"name":"Klobenwand","sport":"climbing"}},"12292887849":{"lat":47.7460624,"lon":15.756742,"ts":"2024-10-28T02:19:27Z","tz":1,"tags":{"climbing":"route_bottom","climbing:grade:uiaa":"5+","name":"Gaisbauer Jug Weg","sport":"climbing"}},"12292887850":{"lat":47.7460358,"lon":15.7568063,"ts":"2024-10-28T02:19:27Z","tz":1,"tags":{"climbing":"route_bottom","climbing:grade:uiaa":"6","name":"Nix für Suderer","sport":"climbing"}},"12292889009":{"lat":47.6853737,"lon":15.6823605,"ts":"2024-10-28T02:45:53Z","tz":1,"tags":{"climbing":"route_bottom","climbing:grade:uiaa":"3+","name":"Paulasteig","sport":"climbing"}},"12292894732":{"lat":47.7373439,"lon":15.7540948,"ts":"2024-10-28T02:25:18Z","tz":1,"tags":{"climbing":"route_bottom","climbing:grade:uiaa":"7","name":"Gelber Pfeiler","sport":"climbing"}},"12292895467":{"lat":47.7449248,"lon":15.7563897,"ts":"2024-10-28T02:22:42Z","tz":1,"tags":{"climbing":"route_bottom","climbing:grade:uiaa":"7-","name":"D'oide Wurzn","sport":"climbing"}},"12292895468":{"lat":47.7451146,"lon":15.7565509,"ts":"2024-10-28T02:22:42Z","tz":1,"tags":{"climbing":"route_bottom","climbing:grade:uiaa":"6+","name":"John Wayne der Alpen","sport":"climbing"}},"12292900454":{"lat":47.7452267,"lon":15.7566279,"ts":"2024-10-28T02:27:00Z","tz":1,"tags":{"climbing":"route_bottom","climbing:grade:uiaa":"8-","name":"Zwidawurzn","sport":"climbing"}},"12292907589":{"lat":47.6859515,"lon":15.6800229,"ts":"2024-10-28T02:43:11Z","tz":1,"tags":{"climbing":"route_bottom","climbing:grade:uiaa":"3","name":"Karreralmsteig","sport":"climbing"}},"12292927567":{"lat":47.6843651,"lon":15.6980953,"ts":"2024-10-28T02:57:52Z","tz":1,"tags":{"climbing":"route_bottom","climbing:grade:uiaa":"5+","name":"Wilder Reißtalersteig","sport":"climbing"}},"12293921497":{"lat":47.7410237,"lon":15.7823346,"ts":"2024-10-28T13:11:18Z","tz":1,"tags":{"climbing":"route_bottom","climbing:grade:uiaa":"2+","name":"Hochgang - Südwestgrat","sport":"climbing"}},"12293945095":{"lat":47.7480739,"lon":15.7689688,"ts":"2024-10-28T13:28:50Z","tz":1,"tags":{"climbing":"route_bottom","climbing:grade:uiaa":"1+","name":"Lärchkogelgrat Klettertour","sport":"climbing"}},"12572027465":{"lat":47.7372165,"lon":15.7573557,"ts":"2025-02-09T19:29:13Z","tz":1,"tags":{"climbing":"crag","name":"Paganiniplatte","source":"https://www.openstreetmap.org/note/3423437","sport":"climbing"}},"12694990494":{"lat":47.7169392,"lon":15.8105274,"ts":"2025-03-23T19:43:11Z","tz":1,"tags":{"climbing":"route_bottom","climbing:grade:uiaa":"8-","name":"Rosaroter Pfeiler","sport":"climbing"}}}