{"364275693":{"lat":41.1505851,"lon":-105.3705676,"ts":"2015-08-06T04:26:48Z","tz":-7,"tags":{"name":"Nat's Three Star Roof","natural":"cliff","sport":"climbing","url":"http://www.mountainproject.com/v/nats-three-star-roof/105973897"}},"426050573":{"lat":41.1677385,"lon":-105.3974149,"ts":"2016-06-21T02:11:56Z","tz":-7,"tags":{"climbing":"crag","name":"Rat Brain: Fantasia Wall","natural":"cliff","sport":"climbing"}},"426257857":{"lat":41.1669782,"lon":-105.3976457,"ts":"2021-08-18T18:04:44Z","tz":-7,"tags":{"climbing":"crag","name":"Skull Rock","natural":"cliff","sport":"climbing"}},"426502042":{"lat":41.2285561,"lon":-105.4085308,"ts":"2017-02-23T02:40:31Z","tz":-7,"tags":{"climbing:sport":"yes","name":"Beehive Buttress","natural":"bare_rock","sport":"climbing"}},"427546828":{"lat":41.1909732,"lon":-105.3881968,"ts":"2020-06-21T04:45:46Z","tz":-7,"tags":{"climbing:rock":"granite","name":"Blair 3","natural":"bare_rock","sport":"climbing"}},"427601268":{"lat":41.190295,"lon":-105.3872419,"ts":"2020-06-21T04:45:46Z","tz":-7,"tags":{"climbing:rock":"granite","name":"Blair 2","natural":"bare_rock","sport":"climbing"}},"427734569":{"lat":41.1895008,"lon":-105.3877636,"ts":"2020-06-21T04:45:46Z","tz":-7,"tags":{"climbing:rock":"granite","name":"Blair 1","natural":"bare_rock","sport":"climbing"}},"817983551":{"lat":41.1578137,"lon":-105.3267874,"ts":"2020-06-21T04:39:27Z","tz":-7,"tags":{"climbing:rock":"granite","name":"Plumb Line Crag Upper Tier","natural":"cliff","sport":"climbing"}},"817983552":{"lat":41.1577809,"lon":-105.3269993,"ts":"2020-06-21T04:39:27Z","tz":-7,"tags":{"climbing:rock":"granite","name":"Plumb Line Crag Lower Tier","natural":"cliff","sport":"climbing"}},"817983554":{"lat":41.1554902,"lon":-105.3268008,"ts":"2020-06-21T04:39:27Z","tz":-7,"tags":{"climbing:rock":"granite","name":"The Citadel Crag","natural":"cliff","sport":"climbing"}},"1196454410":{"lat":41.1618472,"lon":-105.375606,"ts":"2022-12-24T13:54:57Z","tz":-7,"tags":{"climbing":"crag","name":"The Coke Bottle","sport":"climbing"}}}