{"4925335477":{"lat":44.5695796,"lon":-92.5225949,"ts":"2019-08-16T22:02:32Z","tz":-6,"tags":{"climbing":"crag","name":"Perfect Crimb Area","sport":"climbing"}},"4925335482":{"lat":44.5689913,"lon":-92.5212004,"ts":"2019-08-16T22:02:32Z","tz":-6,"tags":{"climbing":"crag","name":"Winter Wall","sport":"climbing"}},"4925335485":{"lat":44.5693963,"lon":-92.5218063,"ts":"2019-08-16T22:02:32Z","tz":-6,"tags":{"climbing":"crag","name":"Annadonia Area","sport":"climbing"}},"4925335486":{"lat":44.5691785,"lon":-92.5209644,"ts":"2019-08-16T22:02:32Z","tz":-6,"tags":{"climbing":"crag","name":"The East End","sport":"climbing"}},"4925335487":{"lat":44.568997,"lon":-92.5220882,"ts":"2019-08-16T22:02:32Z","tz":-6,"tags":{"climbing":"crag","name":"Cyclops Area","sport":"climbing"}},"4925335489":{"lat":44.5699888,"lon":-92.5251327,"ts":"2019-08-16T22:02:32Z","tz":-6,"tags":{"climbing":"crag","name":"Large Roof Area","sport":"climbing"}},"4925335490":{"lat":44.5698663,"lon":-92.5238877,"ts":"2019-08-16T22:02:32Z","tz":-6,"tags":{"climbing":"crag","name":"New Vice Area","sport":"climbing"}}}