{"491899706":{"lat":41.0380975,"lon":0.4837305,"ts":"2024-05-06T06:29:37Z","tz":1,"tags":{"name":"Pared de la Por","natural":"cliff","sport":"climbing"}},"978762158":{"lat":41.0366336,"lon":0.4872013,"ts":"2024-05-04T06:12:09Z","tz":1,"tags":{"name":"Puntal de l'Ós","name:ca":"Puntal de l'Ós","natural":"cliff","sport":"climbing"}},"1278101641":{"lat":41.0418013,"lon":0.4909735,"ts":"2024-05-04T06:20:18Z","tz":1,"tags":{"natural":"cliff","sport":"climbing"}},"1278101643":{"lat":41.0383404,"lon":0.4918443,"ts":"2024-05-06T06:29:37Z","tz":1,"tags":{"name":"Pared del Diedres","natural":"cliff","sport":"climbing"}},"1279567386":{"lat":41.0406433,"lon":0.489925,"ts":"2024-05-08T08:25:08Z","tz":1,"tags":{"name":"Fantasia","natural":"cliff","sport":"climbing"}},"1279567387":{"lat":41.0398881,"lon":0.4891652,"ts":"2024-05-08T08:25:08Z","tz":1,"tags":{"name":"Mirador","natural":"cliff","sport":"climbing"}},"1279567959":{"lat":41.0392061,"lon":0.4918361,"ts":"2024-05-06T06:29:37Z","tz":1,"tags":{"name":"Punta Gaspar","natural":"cliff","sport":"climbing"}},"1279567960":{"lat":41.0394569,"lon":0.491807,"ts":"2024-05-04T06:17:35Z","tz":1,"tags":{"name":"Al-la","natural":"cliff","sport":"climbing"}},"1279568565":{"lat":41.0399245,"lon":0.4918876,"ts":"2024-05-04T06:20:18Z","tz":1,"tags":{"natural":"cliff","sport":"climbing"}},"1279568566":{"lat":41.0403452,"lon":0.491668,"ts":"2024-05-04T06:20:18Z","tz":1,"tags":{"name":"Parvulari estrep","natural":"cliff","sport":"climbing"}},"11888950256":{"lat":41.0376861,"lon":0.4869819,"ts":"2024-05-08T13:31:26Z","tz":1,"tags":{"sport":"climbing"}}}