{"4877677569":{"lat":43.6038279,"lon":3.0093271,"ts":"2017-07-27T15:38:47Z","tz":1,"tags":{"name":"Eperon de Lafage","sport":"climbing"}},"4877677570":{"lat":43.5989443,"lon":3.0262019,"ts":"2021-09-09T21:25:09Z","tz":1,"tags":{"name":"Pilier du Bosc","sport":"climbing"}},"4877677571":{"lat":43.5898529,"lon":2.9948646,"ts":"2017-07-27T15:38:47Z","tz":1,"tags":{"name":"Roque Rouge","sport":"climbing"}},"4877677572":{"lat":43.5898304,"lon":3.022413,"ts":"2017-07-27T15:38:47Z","tz":1,"tags":{"name":"Saucani","sport":"climbing"}},"4877677573":{"lat":43.5829705,"lon":2.9645748,"ts":"2022-05-13T18:24:09Z","tz":1,"tags":{"name":"Georges Vergues","sport":"climbing"}},"4877677574":{"lat":43.5815371,"lon":2.960383,"ts":"2020-07-17T06:43:11Z","tz":1,"tags":{"ele":"595","name":"Roc de Peyris","natural":"peak","sport":"climbing"}},"4877677578":{"lat":43.5909027,"lon":3.0108473,"ts":"2017-07-27T15:38:47Z","tz":1,"tags":{"name":"Les Seilhols","sport":"climbing"}},"4877677580":{"lat":43.5915787,"lon":2.9877267,"ts":"2017-07-27T15:51:04Z","tz":1,"tags":{"name":"Roc de Joucla","sport":"climbing"}},"4997629068":{"lat":43.5913714,"lon":3.004249,"ts":"2021-04-13T11:10:19Z","tz":1,"tags":{"name":"Roc du Chêne","sport":"climbing"}},"4997629070":{"lat":43.5958839,"lon":3.0059896,"ts":"2020-08-23T13:50:12Z","tz":1,"tags":{"name":"Grande Chandelle","sport":"climbing"}},"4997629071":{"lat":43.5949669,"lon":3.0018807,"ts":"2021-04-13T11:04:44Z","tz":1,"tags":{"name":"Madeleine","sport":"climbing"}},"4997629072":{"lat":43.5956827,"lon":3.028341,"ts":"2017-07-27T15:38:45Z","tz":1,"tags":{"name":"Suquet","sport":"climbing"}},"4997629075":{"lat":43.5845176,"lon":2.9625335,"ts":"2017-07-27T15:38:45Z","tz":1,"tags":{"name":"La Bugne","sport":"climbing"}},"4997629076":{"lat":43.5936556,"lon":3.0001864,"ts":"2021-04-13T11:04:44Z","tz":1,"tags":{"name":"Tour Verte","sport":"climbing"}},"4997629077":{"lat":43.6027779,"lon":3.0121619,"ts":"2017-07-27T15:38:45Z","tz":1,"tags":{"name":"Mur de Jade","sport":"climbing"}},"4997629079":{"lat":43.5933446,"lon":2.9672725,"ts":"2017-07-27T15:38:45Z","tz":1,"tags":{"name":"Maurelle","sport":"climbing"}},"4997629087":{"lat":43.5828071,"lon":2.9661577,"ts":"2017-07-27T15:38:46Z","tz":1,"tags":{"name":"Dièdre Rouge","sport":"climbing"}},"4997629088":{"lat":43.6074165,"lon":3.0087031,"ts":"2021-09-09T21:25:09Z","tz":1,"tags":{"name":"Site Ecoled'Escalade la Fage Caroux-Espinouse","sport":"climbing"}},"4997629094":{"lat":43.6060189,"lon":3.009018,"ts":"2020-08-23T13:50:12Z","tz":1,"tags":{"name":"Les Estrets","sport":"climbing"}},"4997629095":{"lat":43.5859052,"lon":2.9565452,"ts":"2017-07-27T15:38:46Z","tz":1,"tags":{"name":"Dalle du Cerisier","sport":"climbing"}},"4997629096":{"lat":43.5824305,"lon":2.9606876,"ts":"2017-07-27T15:38:46Z","tz":1,"tags":{"name":"Minaret","sport":"climbing"}},"4997629097":{"lat":43.593053,"lon":3.0046672,"ts":"2021-04-13T11:04:44Z","tz":1,"tags":{"name":"L'Enclume","sport":"climbing"}},"4997629098":{"lat":43.5904547,"lon":2.956137,"ts":"2017-07-27T15:38:46Z","tz":1,"tags":{"name":"Roc des Hirondelles","sport":"climbing"}},"4997629099":{"lat":43.5883558,"lon":3.0106384,"ts":"2017-07-27T15:38:46Z","tz":1,"tags":{"name":"Site école","sport":"climbing"}},"4997629100":{"lat":43.5943533,"lon":3.0023961,"ts":"2021-04-13T11:04:44Z","tz":1,"tags":{"name":"Le Bastion","sport":"climbing"}},"8543287444":{"lat":43.589606,"lon":2.9597925,"ts":"2021-03-26T11:57:56Z","tz":1,"tags":{"name":"Arête des Charbonniers","sport":"climbing"}},"8543301028":{"lat":43.5916647,"lon":2.9624181,"ts":"2021-03-26T11:57:56Z","tz":1,"tags":{"name":"Aiguille Godefroy","sport":"climbing"}},"8543301034":{"lat":43.5923508,"lon":2.9613977,"ts":"2021-03-26T11:57:56Z","tz":1,"tags":{"name":"Épaule du Rieutord","sport":"climbing"}},"8543301038":{"lat":43.5911099,"lon":2.9630947,"ts":"2021-09-09T21:25:09Z","tz":1,"tags":{"name":"Les Aiguilles du Rieutort","sport":"climbing"}},"8543313362":{"lat":43.5810159,"lon":2.9710413,"ts":"2021-03-28T15:02:19Z","tz":1,"tags":{"name":"Roc Bartouyre","sport":"climbing"}},"8543313369":{"lat":43.5838007,"lon":2.9647582,"ts":"2021-03-26T12:28:17Z","tz":1,"tags":{"name":"Tour Carrée","sport":"climbing"}},"8560337708":{"lat":43.5894405,"lon":2.9636305,"ts":"2021-03-26T07:28:28Z","tz":1,"tags":{"name":"Aiguille Viallat","sport":"climbing"}},"8560337856":{"lat":43.587508,"lon":2.9686827,"ts":"2021-10-17T13:22:34Z","tz":1,"tags":{"name":"Arête des Triangles","sport":"climbing"}},"9124383318":{"lat":43.5843324,"lon":3.011587,"ts":"2021-09-26T14:46:57Z","tz":1,"tags":{"sport":"climbing"}},"9124383321":{"lat":43.5963586,"lon":3.0155037,"ts":"2021-09-26T14:46:57Z","tz":1,"tags":{"sport":"climbing"}}}