{"734193768":{"lat":43.4831762,"lon":3.06605,"ts":"2019-10-13T15:45:27Z","tz":1,"tags":{"leisure":"sports_centre","name":"Falaise du Landeyran","sport":"climbing"}},"2129619892":{"lat":43.5769633,"lon":2.9647494,"ts":"2021-11-18T19:12:22Z","tz":1,"tags":{"name":"Tête de Braque","sport":"climbing"}},"4877677575":{"lat":43.5760763,"lon":2.9668156,"ts":"2021-11-18T19:12:22Z","tz":1,"tags":{"name":"Beylot-Ferran","sport":"climbing"}},"4974223728":{"lat":43.577712,"lon":2.9668112,"ts":"2021-11-18T19:12:22Z","tz":1,"tags":{"name":"Rocher Marre","sport":"climbing"}},"4997629091":{"lat":43.5785417,"lon":2.9680127,"ts":"2021-11-16T12:44:08Z","tz":1,"tags":{"name":"Pointe à Pistre","sport":"climbing"}},"4997629093":{"lat":43.5788208,"lon":2.9680798,"ts":"2021-11-16T12:44:08Z","tz":1,"tags":{"name":"Petite Suisse","sport":"climbing"}},"4997629101":{"lat":43.5784442,"lon":2.9649293,"ts":"2017-07-27T15:38:46Z","tz":1,"tags":{"name":"Roc des oiseaux","sport":"climbing"}},"9175054636":{"lat":43.5752008,"lon":2.9659264,"ts":"2021-11-18T19:12:22Z","tz":1,"tags":{"name":"Rocher des Luttes","sport":"climbing"}}}