{"17569070":{"lat":49.1542498,"lon":15.3377311,"ts":"2024-05-07T10:10:28Z","tz":1,"tags":{"climbing":"crag","name":"Hradisko","site":"climbing","sport":"climbing","type":"site","website":"https://www.horosvaz.cz/skaly-skala-15688/"}},"846195349":{"lat":49.1879492,"lon":15.4501395,"ts":"2023-11-25T08:48:08Z","tz":1,"tags":{"building":"yes","leisure":"sports_centre","name":"Lanové centrum a lezecká stěna","sport":"climbing"}},"1275185918":{"lat":49.1542844,"lon":15.3377109,"ts":"2024-12-05T06:29:33Z","tz":1,"tags":{"climbing:grade:uiaa:max":"6-","climbing:grade:uiaa:min":"4+","climbing:rock":"granite","climbing:routes":"4","climbing:sport":"yes","climbing:trad":"yes","name":"Hradisko","natural":"rock","sport":"climbing","website":"https://www.horosvaz.cz/skaly-skala-15688/"}},"11886287785":{"lat":49.1542284,"lon":15.3377636,"ts":"2024-05-07T10:10:28Z","tz":1,"tags":{"climbing":"route_bottom","climbing:grade:uiaa":"4+","name":"Větrník","sport":"climbing","website":"https://www.horosvaz.cz/skaly-cesta-86944/"}},"11886287786":{"lat":49.1542427,"lon":15.337742,"ts":"2024-05-07T10:10:28Z","tz":1,"tags":{"climbing":"route_bottom","climbing:grade:uiaa":"6-","name":"Šamonická","sport":"climbing","website":"https://www.horosvaz.cz/skaly-cesta-86943/"}},"11886287787":{"lat":49.1542569,"lon":15.3377203,"ts":"2024-05-07T10:10:28Z","tz":1,"tags":{"climbing":"route_bottom","climbing:grade:uiaa":"5","name":"Logická","sport":"climbing","website":"https://www.horosvaz.cz/skaly-cesta-86942/"}},"11886287788":{"lat":49.1542712,"lon":15.3376987,"ts":"2024-05-07T10:10:28Z","tz":1,"tags":{"climbing":"route_bottom","climbing:grade:uiaa":"4+","name":"Stěnka","sport":"climbing","website":"https://www.horosvaz.cz/skaly-cesta-86941/"}}}