{"118610627":{"lat":39.7220599,"lon":21.620353,"ts":"2020-05-10T07:12:15Z","tz":2,"tags":{"alt_name":"Ντούπιανη","area":"no","climbing:bolted":"yes","climbing:multipitch":"yes","climbing:rock":"conglomerate","climbing:sport":"yes","climbing:summit_log":"yes","climbing:trad":"yes","fee":"no","indoor":"no","name":"Δούπιανη","name:el":"Δούπιανη","name:en":"Dupiani","natural":"cliff","sport":"climbing"}},"306584444":{"lat":39.6679808,"lon":21.6349484,"ts":"2023-08-11T15:45:09Z","tz":2,"tags":{"climbing":"crag","name":"Sarakina","natural":"rock","sport":"climbing"}},"415534152":{"lat":39.7268367,"lon":21.6222944,"ts":"2016-05-04T15:11:06Z","tz":2,"tags":{"natural":"cliff","sport":"climbing"}},"415534153":{"lat":39.7254247,"lon":21.6199943,"ts":"2019-12-23T22:38:35Z","tz":2,"tags":{"name:de":"Batallogiani Fels","natural":"cliff","sport":"climbing"}},"415541052":{"lat":39.6792299,"lon":21.684903,"ts":"2024-11-27T05:04:29Z","tz":2,"tags":{"climbing:bolted":"yes","climbing:multipitch":"yes","climbing:sport":"yes","climbing:trad":"yes","fee":"no","indoor":"no","name":"Θεόπετρα","name:el":"Θεόπετρα","name:en":"Theopetra","natural":"cliff","note":"Unknown exact possition of each sector.","source":"survey;bing","sport":"climbing","url":"http://www.climbing-greece.com/climbing-crags/240"}},"1337233350":{"lat":39.7258032,"lon":21.6212778,"ts":"2024-11-23T19:24:24Z","tz":2,"tags":{"name":"Grail","natural":"cliff","sport":"climbing"}},"11297473559":{"lat":39.7182447,"lon":21.623865,"ts":"2023-10-29T10:28:50Z","tz":2,"tags":{"name":"Holy Boulder","sport":"climbing"}},"11341215519":{"lat":39.7098213,"lon":21.6232923,"ts":"2023-11-11T13:08:07Z","tz":2,"tags":{"name":"Field of Dreams/Boulders","sport":"climbing"}},"11341236647":{"lat":39.7174753,"lon":21.6338354,"ts":"2023-11-11T13:08:06Z","tz":2,"tags":{"name":"White boulder","sport":"climbing"}},"11341250267":{"lat":39.717433,"lon":21.6350907,"ts":"2023-11-11T13:08:06Z","tz":2,"tags":{"name":"Are view seeing this? Bouldering traverse","sport":"climbing"}},"11341250268":{"lat":39.7125307,"lon":21.6212082,"ts":"2023-11-11T13:08:07Z","tz":2,"tags":{"name":"Fine shrine boulder","sport":"climbing"}},"11341255512":{"lat":39.7100057,"lon":21.6263227,"ts":"2023-11-11T13:08:07Z","tz":2,"tags":{"name":"Boulder town part 2","sport":"climbing"}},"11341265283":{"lat":39.7176352,"lon":21.6317562,"ts":"2023-11-11T13:08:06Z","tz":2,"tags":{"name":"Slim shady boulder traverse","sport":"climbing"}},"11341266887":{"lat":39.7105557,"lon":21.6288016,"ts":"2023-11-11T13:08:06Z","tz":2,"tags":{"name":"Welcome to Boulder town","sport":"climbing"}},"11341270924":{"lat":39.7107894,"lon":21.6222308,"ts":"2023-11-11T13:08:07Z","tz":2,"tags":{"name":"Atop the rockslide boulder","sport":"climbing"}},"12364784512":{"lat":39.720473,"lon":21.626555,"ts":"2024-11-22T11:49:30Z","tz":2,"tags":{"climbing":"route_bottom","name":"Anabelle variante"}},"12364784514":{"lat":39.7198279,"lon":21.6255124,"ts":"2024-11-22T11:49:30Z","tz":2,"tags":{"climbing":"route_bottom","name":"Black magic"}},"12364784518":{"lat":39.7203221,"lon":21.6265335,"ts":"2024-11-22T11:49:30Z","tz":2,"tags":{"climbing":"route_bottom","name":"Schmale wand"}},"12365226190":{"lat":39.7196691,"lon":21.624496,"ts":"2024-11-22T15:35:16Z","tz":2,"tags":{"climbing":"route_bottom","name":"Southwest ridge"}}}