{"6238141548":{"lat":19.5477717,"lon":-155.9595172,"ts":"2019-01-26T15:58:59Z","tz":-10,"tags":{"climbing":"crag","climbing:boulder":"4","climbing:deepwater":"4","contact:website":"https://www.mountainproject.com/area/107523825/end-of-the-world-deep-water-solo-cave","name":"End Of The World Bouldering","sport":"climbing"}},"6238141549":{"lat":19.5478083,"lon":-155.9595829,"ts":"2019-01-26T15:58:59Z","tz":-10,"tags":{"climbing":"route_bottom","climbing:boulder":"yes","climbing:deepwater":"yes","climbing:grade:uiaa":"7","name":"If You're Ballzy Enough","sport":"climbing"}},"6238141550":{"lat":19.5477862,"lon":-155.9595803,"ts":"2019-01-26T15:58:59Z","tz":-10,"tags":{"climbing":"route_bottom","climbing:boulder":"yes","climbing:deepwater":"yes","climbing:grade:uiaa":"7+","name":"Rip Hide DWS","sport":"climbing"}},"6238141551":{"lat":19.5477721,"lon":-155.9595639,"ts":"2019-01-26T15:58:59Z","tz":-10,"tags":{"climbing":"route_bottom","climbing:boulder":"yes","climbing:deepwater":"yes","climbing:grade:uiaa":"7","name":"Crab Traverse DWS","sport":"climbing"}},"6238141552":{"lat":19.5477566,"lon":-155.9595461,"ts":"2019-01-26T15:58:59Z","tz":-10,"tags":{"climbing":"route_bottom","climbing:boulder":"yes","climbing:deepwater":"yes","climbing:grade:uiaa":"7+","name":"Dong Central Station","sport":"climbing"}}}