{"26845906":{"lat":28.4479891,"lon":34.447336,"ts":"2008-03-08T19:53:55Z","tz":2,"tags":{"created_by":"JOSM","sport":"climbing"}},"1617885236":{"lat":28.4379882,"lon":34.4292449,"ts":"2012-02-04T16:42:25Z","tz":2,"tags":{"sport":"climbing"}},"1617885252":{"lat":28.4381797,"lon":34.4293186,"ts":"2012-02-04T16:42:26Z","tz":2,"tags":{"sport":"climbing"}},"6076226846":{"lat":28.4328148,"lon":34.4198772,"ts":"2019-05-11T20:54:35Z","tz":2,"tags":{"climbing":"route_bottom","climbing:boulder":"yes","climbing:grade:fb":"5+","description":"Get onto the slab via the pocket then move right to exit. Named after the old goat horn that used to be stuck in the first pocket. Easier for the tall.","name":"Horny Slab","sport":"climbing"}},"6076226847":{"lat":28.4327393,"lon":34.4199897,"ts":"2019-05-11T20:52:43Z","tz":2,"tags":{"climbing":"route_bottom","climbing:boulder":"yes","climbing:grade:fb":"4+","description":"Short sit start problem starting from the ground edges then up either via the sidepull or one dynamic move.","name":"Choppy Chop","sport":"climbing"}},"6076233114":{"lat":28.43272,"lon":34.4199992,"ts":"2019-05-11T20:53:27Z","tz":2,"tags":{"climbing":"route_bottom","climbing:boulder":"yes","climbing:grade:fb":"3","description":"Short enjoyable slab on edges.","name":"Choppy Slab","sport":"climbing"}},"6076233115":{"lat":28.4381971,"lon":34.4204628,"ts":"2019-05-11T20:03:47Z","tz":2,"tags":{"climbing":"route_bottom","climbing:boulder":"yes","climbing:grade:french":"5","name":"Khaled's Move","sport":"climbing"}},"9215569141":{"lat":28.4476771,"lon":34.4473035,"ts":"2021-11-01T06:43:15Z","tz":2,"tags":{"climbing:routes":"11","climbing:sport":"yes","name":"Waterfall","sport":"climbing"}},"9215569142":{"lat":28.4382872,"lon":34.4293218,"ts":"2021-11-01T06:43:15Z","tz":2,"tags":{"name":"Camel Canyon","sport":"climbing"}},"12435121813":{"lat":28.4384339,"lon":34.4315284,"ts":"2024-12-20T08:25:59Z","tz":2,"tags":{"sport":"climbing"}},"12435160124":{"lat":28.4378845,"lon":34.428451,"ts":"2024-12-20T08:25:51Z","tz":2,"tags":{"name":"(Alif 6a+)","sport":"climbing"}}}