{"31138335":{"lat":52.2660048,"lon":7.7386861,"ts":"2020-12-02T18:11:06Z","tz":1,"tags":{"leisure":"sports_centre","name":"Kletterwald","sport":"climbing"}},"266153531":{"lat":52.2320663,"lon":7.7464268,"ts":"2022-01-19T02:53:42Z","tz":1,"tags":{"name":"Sattelfels","natural":"cliff","operator:website":"https://bergfreunde-ibb.de/klettern/gebietsuebersicht/","place":"locality","sport":"climbing"}},"1022447934":{"lat":52.2388757,"lon":7.7427211,"ts":"2022-01-28T09:32:29Z","tz":1,"tags":{"climbing:grade:uiaa:max":"7","climbing:grade:uiaa:min":"3","climbing:length:max":"30","climbing:rock":"sandstone","climbing:routes":"26","name":"Osnabrücker Wand","natural":"bare_rock","operator:website":"https://bergfreunde-ibb.de/klettern/gebietsuebersicht/","place":"locality","sport":"climbing","website":"http://felsinfo.alpenverein.de/felsinfo/teutoburger_wald/doerenther_klippen/4580","wheelchair":"limited"}},"1022449006":{"lat":52.2316881,"lon":7.7476,"ts":"2022-01-21T16:59:32Z","tz":1,"tags":{"climbing:grade:uiaa:max":"7","climbing:grade:uiaa:min":"4","climbing:length:max":"15","climbing:rock":"sandstone","climbing:routes":"5","name":"Sattelfels","natural":"bare_rock","operator:website":"https://bergfreunde-ibb.de/klettern/gebietsuebersicht/","sport":"climbing","website":"http://felsinfo.alpenverein.de/felsinfo/teutoburger_wald/doerenther_klippen/3200"}},"1022449007":{"lat":52.2318338,"lon":7.747295,"ts":"2022-01-21T16:59:32Z","tz":1,"tags":{"climbing:grade:uiaa:max":"7","climbing:grade:uiaa:min":"4","climbing:length:max":"15","climbing:rock":"sandstone","climbing:routes":"5","name":"Sattelfels","natural":"bare_rock","operator:website":"https://bergfreunde-ibb.de/klettern/gebietsuebersicht/","sport":"climbing","website":"http://felsinfo.alpenverein.de/felsinfo/teutoburger_wald/doerenther_klippen/3200"}},"1022449008":{"lat":52.231905,"lon":7.7470647,"ts":"2022-01-21T16:59:32Z","tz":1,"tags":{"climbing:grade:uiaa:max":"7","climbing:grade:uiaa:min":"4","climbing:length:max":"15","climbing:rock":"sandstone","climbing:routes":"5","name":"Sattelfels","natural":"bare_rock","operator:website":"https://bergfreunde-ibb.de/klettern/gebietsuebersicht/","sport":"climbing","website":"http://felsinfo.alpenverein.de/felsinfo/teutoburger_wald/doerenther_klippen/3200"}},"1022449009":{"lat":52.2320484,"lon":7.7463858,"ts":"2022-01-21T16:59:32Z","tz":1,"tags":{"climbing:grade:uiaa:max":"7","climbing:grade:uiaa:min":"4","climbing:length:max":"15","climbing:rock":"sandstone","climbing:routes":"5","name":"Sattelfels","natural":"bare_rock","operator:website":"https://bergfreunde-ibb.de/klettern/gebietsuebersicht/","sport":"climbing","website":"http://felsinfo.alpenverein.de/felsinfo/teutoburger_wald/doerenther_klippen/3200"}},"1022449010":{"lat":52.232095,"lon":7.7459672,"ts":"2022-01-21T16:59:32Z","tz":1,"tags":{"climbing:grade:uiaa:max":"7","climbing:grade:uiaa:min":"4","climbing:length:max":"15","climbing:rock":"sandstone","climbing:routes":"5","name":"Sattelfels","natural":"bare_rock","operator:website":"https://bergfreunde-ibb.de/klettern/gebietsuebersicht/","sport":"climbing","website":"http://felsinfo.alpenverein.de/felsinfo/teutoburger_wald/doerenther_klippen/3200"}},"1022449023":{"lat":52.2321186,"lon":7.7455514,"ts":"2022-01-21T16:59:32Z","tz":1,"tags":{"climbing:grade:uiaa:max":"7","climbing:grade:uiaa:min":"4","climbing:length:max":"15","climbing:rock":"sandstone","climbing:routes":"5","name":"Sattelfels","natural":"bare_rock","operator:website":"https://bergfreunde-ibb.de/klettern/gebietsuebersicht/","sport":"climbing","website":"http://felsinfo.alpenverein.de/felsinfo/teutoburger_wald/doerenther_klippen/3200"}},"1022449024":{"lat":52.2321715,"lon":7.7450813,"ts":"2022-01-21T16:59:32Z","tz":1,"tags":{"climbing:grade:uiaa:max":"7","climbing:grade:uiaa:min":"4","climbing:length:max":"15","climbing:rock":"sandstone","climbing:routes":"5","name":"Sattelfels","natural":"bare_rock","operator:website":"https://bergfreunde-ibb.de/klettern/gebietsuebersicht/","sport":"climbing","website":"http://felsinfo.alpenverein.de/felsinfo/teutoburger_wald/doerenther_klippen/3200"}},"1022449025":{"lat":52.2319454,"lon":7.746742,"ts":"2022-01-21T16:59:32Z","tz":1,"tags":{"climbing:grade:uiaa:max":"7","climbing:grade:uiaa:min":"4","climbing:length:max":"15","climbing:rock":"sandstone","climbing:routes":"5","name":"Sattelfels","natural":"bare_rock","operator:website":"https://bergfreunde-ibb.de/klettern/gebietsuebersicht/","sport":"climbing","website":"http://felsinfo.alpenverein.de/felsinfo/teutoburger_wald/doerenther_klippen/3200"}},"2329791514":{"lat":52.2352696,"lon":7.7351824,"ts":"2021-12-27T20:52:37Z","tz":1,"tags":{"name":"Dreikaiserstuhl","natural":"cliff","operator:website":"https://bergfreunde-ibb.de/klettern/gebietsuebersicht/","place":"locality","sport":"climbing","tourism":"viewpoint"}},"2449309205":{"lat":52.2340865,"lon":7.7391465,"ts":"2024-01-30T20:06:03Z","tz":1,"tags":{"alt_name":"Bocketal blick","name":"Königstein","natural":"cliff","operator:website":"https://bergfreunde-ibb.de/klettern/gebietsuebersicht/","sport":"climbing","tourism":"viewpoint"}},"2537140356":{"lat":52.2344327,"lon":7.7382193,"ts":"2022-01-03T19:55:43Z","tz":1,"tags":{"name":"Siamesische Zwillinge","natural":"cliff","operator:website":"https://bergfreunde-ibb.de/klettern/gebietsuebersicht/","sport":"climbing","tourism":"viewpoint"}},"3676491453":{"lat":52.2352713,"lon":7.7349342,"ts":"2022-01-03T19:55:43Z","tz":1,"tags":{"name":"Dreikaiserstuhl","natural":"cliff","operator:website":"https://bergfreunde-ibb.de/klettern/gebietsuebersicht/","place":"locality","sport":"climbing","tourism":"attraction"}},"3676503224":{"lat":52.2353637,"lon":7.7346193,"ts":"2021-12-27T20:52:37Z","tz":1,"tags":{"name":"Dreikaiserstuhl","natural":"cliff","operator:website":"https://bergfreunde-ibb.de/klettern/gebietsuebersicht/","place":"locality","sport":"climbing","tourism":"attraction"}},"8928470026":{"lat":52.264566,"lon":8.0721382,"ts":"2023-09-12T20:13:55Z","tz":1,"tags":{"addr:housenumber":"89","addr:street":"Großer Fledderweg","check_date":"2023-04-04","climbing:boulder":"yes","climbing:toprope":"no","contact:email":"info@osnabloc.de","contact:phone":"+49 541 999 790 59","contact:website":"https://osnabloc.de/","leisure":"sports_centre","name":"osnabloc","opening_hours":"Mo-Tu 12:00-23:00; We-Sa 09:00-23:00; Su 09:00-21:30","operator":"TopOut GmbH","sport":"climbing","wheelchair":"yes","wikidata":"Q120802160"}}}