{"156439468":{"lat":47.9812054,"lon":7.8183834,"ts":"2023-11-06T19:03:18Z","tz":1,"tags":{"addr:housename":"DAV - KLETTERZENTRUM FREIBURG","addr:housenumber":"20a","addr:postcode":"79115","addr:street":"Lörracher Straße","building":"yes","charge":"12 EUR","check_date":"2023-11-06","climbing:sport":"yes","fee":"yes","leisure":"sports_centre","name":"DAV-Kletterzentrum Freiburg","opening_hours":"Mo, Tu 12:00-22:30; We-Fr, 09:00-22:30; Sa,Su,PH 09:00-21:00","source:geometry":"maps4bw (LGL, www.lgl-bw.de);Mapbox Satellite","sport":"climbing","website":"https://kletterzentrum-freiburg.de/"}},"306505164":{"lat":47.8919972,"lon":7.8694858,"ts":"2022-11-02T08:19:10Z","tz":1,"tags":{"access":"yes","climbing:bolted":"3 m","climbing:grade:uiaa:max":"8","climbing:grade:uiaa:mean":"5","climbing:grade:uiaa:min":"3","climbing:length":"10 m","climbing:length:max":"25 m","climbing:length:min":"5 m","climbing:orientation":"W;SW;S","climbing:quality":"solid","climbing:rock":"Gneis","climbing:routes":"27","climbing:sport":"yes","climbing:summit_log":"no","ele":"885","fee":"no","name":"Unterer Harzlochfelsen","opening_hours":"24/7","outdoor":"yes","sport":"climbing","url":"https://www.thecrag.com/en/climbing/germany/schwarzwald/area/251617752","website":"http://www.igklettern-suedschwarzwald.de/klettergebiete/stohren"}},"306505241":{"lat":47.8933983,"lon":7.8713416,"ts":"2022-11-02T08:19:10Z","tz":1,"tags":{"access":"yes","climbing:bolted":"3 m","climbing:grade:uiaa:max":"7","climbing:grade:uiaa:mean":"6","climbing:grade:uiaa:min":"3","climbing:length":"15 m","climbing:length:max":"20 m","climbing:length:min":"10 m","climbing:orientation":"S;SO;O;NO","climbing:quality":"solid","climbing:rock":"Gneis","climbing:routes":"12","climbing:sport":"yes","climbing:summit_log":"no","ele":"895","fee":"no","name":"Obere Harzlochfelsen","opening_hours":"24/7","sport":"climbing","url":"http://www.igklettern-suedschwarzwald.de/klettergebiete/stohren"}},"406992278":{"lat":47.9196277,"lon":7.9935802,"ts":"2023-05-01T07:29:24Z","tz":1,"tags":{"climbing":"no","name":"Grubertfelsen","natural":"cliff"}},"434986546":{"lat":47.9201307,"lon":7.9952223,"ts":"2024-11-09T18:25:10Z","tz":1,"tags":{"climbing":"no","natural":"cliff"}},"516183872":{"lat":47.9130225,"lon":7.9419392,"ts":"2022-11-01T10:39:24Z","tz":1,"tags":{"climbing:bolted":"5","climbing:length":"80","climbing:multipitch":"yes","climbing:orientation":"W","climbing:quality":"solid","climbing:rock":"Gneis","climbing:sport":"yes","name":"Rhode Wand","natural":"bare_rock","sport":"climbing"}},"516183873":{"lat":47.9128586,"lon":7.9425438,"ts":"2022-11-01T10:39:24Z","tz":1,"tags":{"climbing:length":"15","climbing:rock":"gneiss","climbing:sport":"yes","name":"Birkenwändle","natural":"bare_rock","sport":"climbing"}},"516183874":{"lat":47.9127215,"lon":7.9427242,"ts":"2022-11-01T10:39:24Z","tz":1,"tags":{"climbing:length":"15","climbing:rock":"gneiss","climbing:sport":"yes","name":"Zigeunerwändle","natural":"bare_rock","sport":"climbing"}},"516184951":{"lat":47.9125108,"lon":7.9426462,"ts":"2022-11-01T10:39:24Z","tz":1,"tags":{"climbing:length":"30","climbing:rock":"gneiss","climbing:sport":"yes","name":"Zähringer Wand","natural":"bare_rock","sport":"climbing"}},"516184952":{"lat":47.9107637,"lon":7.9419424,"ts":"2022-11-01T10:39:24Z","tz":1,"tags":{"climbing:length":"15","climbing:rock":"gneiss","name":"Rastplatzfelsen","natural":"bare_rock","sport":"climbing"}},"516184953":{"lat":47.910798,"lon":7.9414986,"ts":"2022-11-01T10:39:24Z","tz":1,"tags":{"climbing:length":"30","climbing:rock":"gneiss","name":"Schleierwand/Plättle","natural":"bare_rock","sport":"climbing"}},"516187734":{"lat":47.9125899,"lon":7.941144,"ts":"2022-11-01T10:39:24Z","tz":1,"tags":{"climbing:length":"50","climbing:multipitch":"yes","climbing:rock":"gneiss","climbing:sport":"yes","name":"Bauerntürmle","natural":"bare_rock","sport":"climbing"}},"516187735":{"lat":47.9121684,"lon":7.9421471,"ts":"2022-11-01T10:39:24Z","tz":1,"tags":{"climbing:length":"60","climbing:multipitch":"yes","climbing:rock":"gneiss","climbing:sport":"yes","name":"Bohrhakentürmle","natural":"bare_rock","sport":"climbing"}},"516187736":{"lat":47.9119965,"lon":7.9418175,"ts":"2022-11-01T10:39:24Z","tz":1,"tags":{"climbing:length":"100","climbing:multipitch":"yes","climbing:rock":"gneiss","climbing:sport":"yes","name":"Studentenweg","natural":"bare_rock","sport":"climbing"}},"516187737":{"lat":47.9116932,"lon":7.9418727,"ts":"2022-11-01T10:39:24Z","tz":1,"tags":{"climbing:length":"30","climbing:rock":"gneiss","climbing:sport":"yes","name":"Buchenfels","natural":"bare_rock","sport":"climbing"}},"526779958":{"lat":47.9242447,"lon":7.8827992,"ts":"2023-03-15T17:34:11Z","tz":1,"tags":{"climbing":"yes","climbing:bolted":"3 m","climbing:quality":"medium","climbing:rock":"Gneis","climbing:sport":"yes","ele":"893","fee":"no","name":"Unterer Stäpfelefelsen","natural":"bare_rock","opening_hours":"24/7","sport":"climbing"}},"526779959":{"lat":47.9239511,"lon":7.8830546,"ts":"2017-09-22T13:23:46Z","tz":1,"tags":{"climbing":"yes","climbing:rock":"gneiss","natural":"bare_rock"}},"526779961":{"lat":47.9235158,"lon":7.883294,"ts":"2019-10-14T16:20:07Z","tz":1,"tags":{"climbing":"yes","climbing:bolted":"3 m","climbing:length":"15","climbing:orientation":"W;SW","climbing:quality":"medium","climbing:rock":"Gneis","climbing:sport":"yes","description":"Die nördliche Wand hat meist 2m Hakenabstände","ele":"930","fee":"no","name":"Oberer Stäpfelefelsen","natural":"bare_rock","opening_hours":"24/7","sport":"climbing"}},"573420270":{"lat":47.9104988,"lon":7.9417201,"ts":"2022-11-01T10:39:24Z","tz":1,"tags":{"climbing:quality":"solid","climbing:rock":"gneiss","climbing:sport":"yes","name":"Gfäll - Vordere Felsen","sport":"climbing"}},"617881373":{"lat":47.9220024,"lon":7.8802268,"ts":"2018-08-18T21:07:40Z","tz":1,"tags":{"climbing":"yes","climbing:bolted":"3 m","climbing:length":"15","climbing:orientation":"SW;S;SE","climbing:quality":"medium","climbing:rock":"Gneis","climbing:sport":"yes","ele":"920","fee":"no","name":"Vorderer Stäpfelefelsen","natural":"bare_rock","opening_hours":"24/7","source:natural":"bing","sport":"climbing"}},"729361388":{"lat":47.9200435,"lon":7.9932013,"ts":"2020-04-10T14:25:18Z","tz":1,"tags":{"climbing":"no","name":"Sonnenwand","natural":"cliff"}},"759630010":{"lat":47.9206319,"lon":7.9922417,"ts":"2023-05-01T07:29:24Z","tz":1,"tags":{"climbing":"no","name":"Scheisswändle","natural":"cliff"}},"759844801":{"lat":47.9196999,"lon":7.9927945,"ts":"2020-10-04T12:40:48Z","tz":1,"tags":{"climbing":"no","name":"Gamswand","natural":"cliff"}},"1055761761":{"lat":47.9118187,"lon":7.9417803,"ts":"2022-11-01T10:39:24Z","tz":1,"tags":{"climbing:length":"50","climbing:multipitch":"yes","climbing:rock":"gneiss","climbing:sport":"yes","name":"Warmer Fels","natural":"bare_rock","sport":"climbing"}},"1462178030":{"lat":47.9123061,"lon":7.9423851,"ts":"2022-11-01T10:39:24Z","tz":1,"tags":{"climbing:bolted":"3","climbing:grade:uiaa:max":"7+","climbing:grade:uiaa:min":"3","climbing:orientation":"W","climbing:quality":"solid","climbing:rock":"Gneis","climbing:sport":"yes","name":"Gfäll - Obere Felsen","sport":"climbing"}},"2208264991":{"lat":47.8317581,"lon":7.9642713,"ts":"2024-06-25T15:25:58Z","tz":1,"tags":{"climbing:boulder":"yes","climbing:grade:uiaa:max":"8-","climbing:grade:uiaa:min":"4+","climbing:sport":"no","ele":"700","name":"Todtnauer Klettergarten: Black Wood Boulder","sport":"climbing","website":"https://www.kletterfreunde-todtnau.de/"}},"3657335066":{"lat":47.9204907,"lon":7.9912978,"ts":"2022-10-09T18:02:29Z","tz":1,"tags":{"access":"yes","alt_name":"Zastler","climbing:grade:uiaa:max":"8+","climbing:grade:uiaa:mean":"6-","climbing:grade:uiaa:min":"3","climbing:length":"25","climbing:length:max":"30","climbing:orientation":"SW;W","climbing:quality":"medium","climbing:rock":"gneiss","climbing:sport":"yes","fee":"no","height":"35","name":"Scheibenfelsen","opening_hours":"24/7","outdoor":"yes","sport":"climbing","url":"http://felsinfo.alpenverein.de/?mapId=82#scale=9244648&centerX=NaN&centerY=NaN&layers=1465218397,152917,0]]","website":"https://www.igklettern-suedschwarzwald.de/klettergebiete/zastler"}},"4551546648":{"lat":47.9743096,"lon":7.8230267,"ts":"2017-05-09T20:07:22Z","tz":1,"tags":{"description":"künstlicher Felsen zum Bouldern","name":"Kletterkartoffel","sport":"climbing"}},"8592775743":{"lat":47.8346484,"lon":7.9522792,"ts":"2024-06-25T15:23:26Z","tz":1,"tags":{"access":"yes","climbing:grade:uiaa:max":"7+","climbing:grade:uiaa:min":"3","climbing:length":"15","climbing:orientation":"SW;S;SE","climbing:routes":"20","climbing:sport":"yes","description":"Die genauen Daten des Kletterverbots (Vogelschutz) online nachschlagen.","ele":"785","fee":"no","name":"Todtnauer Klettergarten: Klingelefelsen","opening_hours":"Jan-Jul: closed; Aug-Dec: open, PH open","sport":"climbing","website":"https://www.kletterfreunde-todtnau.de/"}},"8592775744":{"lat":47.8328785,"lon":7.9621189,"ts":"2024-06-25T15:25:35Z","tz":1,"tags":{"access":"yes","climbing:grade:uiaa:max":"9","climbing:grade:uiaa:min":"3","climbing:length":"15","climbing:orientation":"SW;S;SE","climbing:quality":"solid","climbing:sport":"yes","ele":"750","fee":"Nur für gewerbliche Gruppen / only for commercial groups","name":"Todtnauer Klettergarten: Schwimmbadfelsen, Gemsenstein, Hartkopfle, Preussenstein","opening_hours":"24/7","sport":"climbing","url":"http://felsinfo.alpenverein.de/felsinfo/schwarzwald/todtnauer_klettergarten/1337","website":"https://www.kletterfreunde-todtnau.de/"}}}