{"215452590":{"lat":47.3197558,"lon":7.7727338,"ts":"2021-10-05T16:28:19Z","tz":1,"tags":{"name":"Klettergarten Egerkinger Platte / Oberbuchsiten","natural":"bare_rock","sport":"climbing","website":"https://swissmountains.ch/wp/home-d74/klettern-schweiz/klettern-jura/egerkingerplatte/"}},"221438922":{"lat":47.3795328,"lon":8.0187733,"ts":"2023-11-09T05:15:30Z","tz":1,"tags":{"leisure":"pitch","name":"Klettergarten Eppenberg - Schönenwerd","sport":"climbing","website":"https://www.swissmountains.ch/typo2/index.php?id=eppenberg"}},"610280432":{"lat":47.4228132,"lon":8.0676385,"ts":"2018-07-23T18:26:12Z","tz":1,"tags":{"height":"20","name":"Hombergflüeli","natural":"cliff","sport":"climbing"}},"1029872345":{"lat":47.3450488,"lon":7.7694684,"ts":"2022-02-09T22:06:55Z","tz":1,"tags":{"leisure":"sports_centre","name":"Deinkick Seilpark","sport":"climbing","website":"http://deinkick.ch/"}},"2687268670":{"lat":47.4227014,"lon":8.0676758,"ts":"2018-07-23T18:26:12Z","tz":1,"tags":{"climbing:bolted":"yes","climbing:grade:french:max":"6b","climbing:grade:french:min":"3b","climbing:length":"15","climbing:orientation":"SW","climbing:quality":"solid","climbing:rock":"limestone","climbing:sport":"yes","name":"Hombergflüeli","sport":"climbing"}},"4859351127":{"lat":47.3378469,"lon":7.8098854,"ts":"2017-05-17T08:42:41Z","tz":1,"tags":{"name":"sector alpenrose","sport":"climbing"}},"4859351128":{"lat":47.3375479,"lon":7.8104848,"ts":"2017-05-18T05:54:55Z","tz":1,"tags":{"name":"sector Vagabund","sport":"climbing"}},"4859351129":{"lat":47.3364691,"lon":7.811315,"ts":"2017-05-17T08:42:41Z","tz":1,"tags":{"name":"sector Schlangenpfeiler","sport":"climbing"}},"4859351130":{"lat":47.3361001,"lon":7.8116154,"ts":"2017-05-17T08:42:41Z","tz":1,"tags":{"name":"sector Totentanz","sport":"climbing"}},"4859351131":{"lat":47.335842,"lon":7.8118165,"ts":"2017-05-17T08:42:41Z","tz":1,"tags":{"name":"sector Cocoloco","sport":"climbing"}},"4859351132":{"lat":47.3356715,"lon":7.8120055,"ts":"2024-09-22T15:40:19Z","tz":1,"tags":{"name":"sector Paladium","sport":"climbing"}},"5833542434":{"lat":47.380946,"lon":8.028229,"ts":"2018-08-14T23:10:44Z","tz":1,"tags":{"name":"Roggenhusersteinbruch","sport":"climbing"}},"7378893734":{"lat":47.3968166,"lon":7.8184168,"ts":"2023-06-13T13:23:20Z","tz":1,"tags":{"climbing":"crag","name":"Eptingen (Wasserfallen)","sport":"climbing"}},"7378916289":{"lat":47.397885,"lon":7.8166536,"ts":"2022-12-24T15:08:29Z","tz":1,"tags":{"climbing":"crag","name":"Eptringen","sport":"climbing"}},"8731208964":{"lat":47.4858301,"lon":7.7356005,"ts":"2024-07-10T09:17:06Z","tz":1,"tags":{"addr:city":"Liestal","addr:country":"CH","addr:housenumber":"1","addr:postcode":"4410","addr:street":"Meyer-Wiggli-Strasse","fee":"yes","leisure":"sports_centre","name":"Hebdi","sport":"climbing","website":"https://hebdi.rocks/"}}}